[
  {
    "id": "704a9be8-744f-4e52-8cdf-fb4111be2517",
    "name": "Badakhshan",
    "country_id": "52432830-ec82-44cc-b469-08edb29d0d8e",
    "country_code": "AF",
    "country_name": "Afghanistan",
    "state_code": "BDS",
    "latitude": "36.73477250",
    "longitude": "70.81199530"
  },
  {
    "id": "d78fd1b6-bfe1-40a6-a797-7fa55c4b0ab7",
    "name": "Badghis",
    "country_id": "52432830-ec82-44cc-b469-08edb29d0d8e",
    "country_code": "AF",
    "country_name": "Afghanistan",
    "state_code": "BDG",
    "latitude": "35.16713390",
    "longitude": "63.76953840"
  },
  {
    "id": "d6497d51-19cd-4d37-a2b4-bd4f92843cd6",
    "name": "Baghlan",
    "country_id": "52432830-ec82-44cc-b469-08edb29d0d8e",
    "country_code": "AF",
    "country_name": "Afghanistan",
    "state_code": "BGL",
    "latitude": "36.17890260",
    "longitude": "68.74530640"
  },
  {
    "id": "9bbc4888-4ef3-46ad-90c4-1304791f374c",
    "name": "Balkh",
    "country_id": "52432830-ec82-44cc-b469-08edb29d0d8e",
    "country_code": "AF",
    "country_name": "Afghanistan",
    "state_code": "BAL",
    "latitude": "36.75506030",
    "longitude": "66.89753720"
  },
  {
    "id": "fdb1c477-7bec-48a3-8104-01c34ce52c8b",
    "name": "Bamyan",
    "country_id": "52432830-ec82-44cc-b469-08edb29d0d8e",
    "country_code": "AF",
    "country_name": "Afghanistan",
    "state_code": "BAM",
    "latitude": "34.81000670",
    "longitude": "67.82121040"
  },
  {
    "id": "4b34fcad-44dc-4600-9d9d-56a0dc44ca0c",
    "name": "Daykundi",
    "country_id": "52432830-ec82-44cc-b469-08edb29d0d8e",
    "country_code": "AF",
    "country_name": "Afghanistan",
    "state_code": "DAY",
    "latitude": "33.66949500",
    "longitude": "66.04635340"
  },
  {
    "id": "81ab8c3e-d455-4ece-ba04-81b8375bef20",
    "name": "Farah",
    "country_id": "52432830-ec82-44cc-b469-08edb29d0d8e",
    "country_code": "AF",
    "country_name": "Afghanistan",
    "state_code": "FRA",
    "latitude": "32.49532800",
    "longitude": "62.26266270"
  },
  {
    "id": "155d8dc0-bf45-4b6c-95f9-4418ec48ce91",
    "name": "Faryab",
    "country_id": "52432830-ec82-44cc-b469-08edb29d0d8e",
    "country_code": "AF",
    "country_name": "Afghanistan",
    "state_code": "FYB",
    "latitude": "36.07956130",
    "longitude": "64.90595500"
  },
  {
    "id": "01669903-dfce-42fb-a08f-c93c37259122",
    "name": "Ghazni",
    "country_id": "52432830-ec82-44cc-b469-08edb29d0d8e",
    "country_code": "AF",
    "country_name": "Afghanistan",
    "state_code": "GHA",
    "latitude": "33.54505870",
    "longitude": "68.41739720"
  },
  {
    "id": "2f085af5-75e8-4435-b027-5ad478948a85",
    "name": "Ghōr",
    "country_id": "52432830-ec82-44cc-b469-08edb29d0d8e",
    "country_code": "AF",
    "country_name": "Afghanistan",
    "state_code": "GHO",
    "latitude": "34.09957760",
    "longitude": "64.90595500"
  },
  {
    "id": "6f6cd40e-0acc-4a42-aeb8-988e584119c9",
    "name": "Helmand",
    "country_id": "52432830-ec82-44cc-b469-08edb29d0d8e",
    "country_code": "AF",
    "country_name": "Afghanistan",
    "state_code": "HEL",
    "latitude": "39.29893610",
    "longitude": "-76.61604720"
  },
  {
    "id": "2585a350-8525-417d-8281-19b956eb595c",
    "name": "Herat",
    "country_id": "52432830-ec82-44cc-b469-08edb29d0d8e",
    "country_code": "AF",
    "country_name": "Afghanistan",
    "state_code": "HER",
    "latitude": "34.35286500",
    "longitude": "62.20402870"
  },
  {
    "id": "708da56e-22f9-4820-8add-f20b7fb262f7",
    "name": "Jowzjan",
    "country_id": "52432830-ec82-44cc-b469-08edb29d0d8e",
    "country_code": "AF",
    "country_name": "Afghanistan",
    "state_code": "JOW",
    "latitude": "36.89696920",
    "longitude": "65.66585680"
  },
  {
    "id": "65dc1f0e-5afe-4f5e-85b2-21398972b0c0",
    "name": "Kabul",
    "country_id": "52432830-ec82-44cc-b469-08edb29d0d8e",
    "country_code": "AF",
    "country_name": "Afghanistan",
    "state_code": "KAB",
    "latitude": "34.55534940",
    "longitude": "69.20748600"
  },
  {
    "id": "bbcf697e-0ab4-4457-bcc8-eda21dc1bc3a",
    "name": "Kandahar",
    "country_id": "52432830-ec82-44cc-b469-08edb29d0d8e",
    "country_code": "AF",
    "country_name": "Afghanistan",
    "state_code": "KAN",
    "latitude": "31.62887100",
    "longitude": "65.73717490"
  },
  {
    "id": "5685ed04-4ae8-4f1f-ba74-462637213bdc",
    "name": "Kapisa",
    "country_id": "52432830-ec82-44cc-b469-08edb29d0d8e",
    "country_code": "AF",
    "country_name": "Afghanistan",
    "state_code": "KAP",
    "latitude": "34.98105720",
    "longitude": "69.62145620"
  },
  {
    "id": "ec98738d-c368-4821-ad3e-f391a6d61a35",
    "name": "Khost",
    "country_id": "52432830-ec82-44cc-b469-08edb29d0d8e",
    "country_code": "AF",
    "country_name": "Afghanistan",
    "state_code": "KHO",
    "latitude": "33.33384720",
    "longitude": "69.93716730"
  },
  {
    "id": "bc2a0cad-2d69-4001-a7f1-df43c1ee829b",
    "name": "Kunar",
    "country_id": "52432830-ec82-44cc-b469-08edb29d0d8e",
    "country_code": "AF",
    "country_name": "Afghanistan",
    "state_code": "KNR",
    "latitude": "34.84658930",
    "longitude": "71.09731700"
  },
  {
    "id": "a6d7f64e-4e81-4364-9a4d-116e4280549b",
    "name": "Kunduz Province",
    "country_id": "52432830-ec82-44cc-b469-08edb29d0d8e",
    "country_code": "AF",
    "country_name": "Afghanistan",
    "state_code": "KDZ",
    "latitude": "36.72855110",
    "longitude": "68.86789820"
  },
  {
    "id": "b14f9aaa-dd37-4275-92e6-4565e18e4059",
    "name": "Laghman",
    "country_id": "52432830-ec82-44cc-b469-08edb29d0d8e",
    "country_code": "AF",
    "country_name": "Afghanistan",
    "state_code": "LAG",
    "latitude": "34.68976870",
    "longitude": "70.14558050"
  },
  {
    "id": "eb32e803-f6cd-4975-9d09-71e43f60ab67",
    "name": "Logar",
    "country_id": "52432830-ec82-44cc-b469-08edb29d0d8e",
    "country_code": "AF",
    "country_name": "Afghanistan",
    "state_code": "LOG",
    "latitude": "34.01455180",
    "longitude": "69.19239160"
  },
  {
    "id": "768c8ea5-63c7-4fd8-8467-2e6ee2f84e2f",
    "name": "Nangarhar",
    "country_id": "52432830-ec82-44cc-b469-08edb29d0d8e",
    "country_code": "AF",
    "country_name": "Afghanistan",
    "state_code": "NAN",
    "latitude": "34.17183130",
    "longitude": "70.62167940"
  },
  {
    "id": "bb78f5d6-009c-4e54-b67c-b9d4f31eb850",
    "name": "Nimruz",
    "country_id": "52432830-ec82-44cc-b469-08edb29d0d8e",
    "country_code": "AF",
    "country_name": "Afghanistan",
    "state_code": "NIM",
    "latitude": "31.02614880",
    "longitude": "62.45041540"
  },
  {
    "id": "b6d6ce92-71ff-4d6e-ba74-246bb94d4da2",
    "name": "Nuristan",
    "country_id": "52432830-ec82-44cc-b469-08edb29d0d8e",
    "country_code": "AF",
    "country_name": "Afghanistan",
    "state_code": "NUR",
    "latitude": "35.32502230",
    "longitude": "70.90712360"
  },
  {
    "id": "aad815a7-d4f4-4a2a-89f7-efc1329e26c0",
    "name": "Paktia",
    "country_id": "52432830-ec82-44cc-b469-08edb29d0d8e",
    "country_code": "AF",
    "country_name": "Afghanistan",
    "state_code": "PIA",
    "latitude": "33.70619900",
    "longitude": "69.38310790"
  },
  {
    "id": "0c6a2850-ea3d-41c2-bc3a-9cc678a048d2",
    "name": "Paktika",
    "country_id": "52432830-ec82-44cc-b469-08edb29d0d8e",
    "country_code": "AF",
    "country_name": "Afghanistan",
    "state_code": "PKA",
    "latitude": "32.26453860",
    "longitude": "68.52471490"
  },
  {
    "id": "5eaabce2-4d53-404c-a34f-ce55936fb32b",
    "name": "Panjshir",
    "country_id": "52432830-ec82-44cc-b469-08edb29d0d8e",
    "country_code": "AF",
    "country_name": "Afghanistan",
    "state_code": "PAN",
    "latitude": "38.88023910",
    "longitude": "-77.17172380"
  },
  {
    "id": "ca9c7428-dcfc-4d98-ac27-3ef2a4e0572b",
    "name": "Parwan",
    "country_id": "52432830-ec82-44cc-b469-08edb29d0d8e",
    "country_code": "AF",
    "country_name": "Afghanistan",
    "state_code": "PAR",
    "latitude": "34.96309770",
    "longitude": "68.81088490"
  },
  {
    "id": "5de3ad6d-c53e-42f1-a872-c1e832d5f2b2",
    "name": "Samangan",
    "country_id": "52432830-ec82-44cc-b469-08edb29d0d8e",
    "country_code": "AF",
    "country_name": "Afghanistan",
    "state_code": "SAM",
    "latitude": "36.31555060",
    "longitude": "67.96428630"
  },
  {
    "id": "0791b68f-0335-4cdf-a0dd-effef6bc02d9",
    "name": "Sar-e Pol",
    "country_id": "52432830-ec82-44cc-b469-08edb29d0d8e",
    "country_code": "AF",
    "country_name": "Afghanistan",
    "state_code": "SAR",
    "latitude": "36.21662800",
    "longitude": "65.93336000"
  },
  {
    "id": "68e17af2-f448-4ad6-b6ab-b5df27b9b153",
    "name": "Takhar",
    "country_id": "52432830-ec82-44cc-b469-08edb29d0d8e",
    "country_code": "AF",
    "country_name": "Afghanistan",
    "state_code": "TAK",
    "latitude": "36.66980130",
    "longitude": "69.47845410"
  },
  {
    "id": "e14119be-1763-49e6-a576-1a517e7ca9d6",
    "name": "Urozgan",
    "country_id": "52432830-ec82-44cc-b469-08edb29d0d8e",
    "country_code": "AF",
    "country_name": "Afghanistan",
    "state_code": "URU",
    "latitude": "32.92712870",
    "longitude": "66.14152630"
  },
  {
    "id": "9db6d71a-3e7a-4241-8fa0-8d1727e86c03",
    "name": "Zabul",
    "country_id": "52432830-ec82-44cc-b469-08edb29d0d8e",
    "country_code": "AF",
    "country_name": "Afghanistan",
    "state_code": "ZAB",
    "latitude": "32.19187820",
    "longitude": "67.18944880"
  },
  {
    "id": "ff1424e7-752a-47b2-b681-2b8bb70a3d82",
    "name": "Berat County",
    "country_id": "d41b9c81-be62-431d-b158-ba4815c2091d",
    "country_code": "AL",
    "country_name": "Albania",
    "state_code": "01",
    "latitude": "40.69530120",
    "longitude": "20.04496620"
  },
  {
    "id": "981ae283-ce6c-43bc-b48f-9e145003851a",
    "name": "Berat District",
    "country_id": "d41b9c81-be62-431d-b158-ba4815c2091d",
    "country_code": "AL",
    "country_name": "Albania",
    "state_code": "BR",
    "latitude": "40.70863770",
    "longitude": "19.94373140"
  },
  {
    "id": "22d5d585-7723-4f2f-a673-af1c21aab596",
    "name": "Bulqizë District",
    "country_id": "d41b9c81-be62-431d-b158-ba4815c2091d",
    "country_code": "AL",
    "country_name": "Albania",
    "state_code": "BU",
    "latitude": "41.49425870",
    "longitude": "20.21471570"
  },
  {
    "id": "f95c72aa-5e6f-4df0-a62c-4693f48aca39",
    "name": "Delvinë District",
    "country_id": "d41b9c81-be62-431d-b158-ba4815c2091d",
    "country_code": "AL",
    "country_name": "Albania",
    "state_code": "DL",
    "latitude": "39.94813640",
    "longitude": "20.09558910"
  },
  {
    "id": "e05cc5a7-9837-4c3b-a3b0-4e3abd7d9086",
    "name": "Devoll District",
    "country_id": "d41b9c81-be62-431d-b158-ba4815c2091d",
    "country_code": "AL",
    "country_name": "Albania",
    "state_code": "DV",
    "latitude": "40.64473470",
    "longitude": "20.95066360"
  },
  {
    "id": "1324b60f-5bf3-4b50-9583-2199f1045c3a",
    "name": "Dibër County",
    "country_id": "d41b9c81-be62-431d-b158-ba4815c2091d",
    "country_code": "AL",
    "country_name": "Albania",
    "state_code": "09",
    "latitude": "41.58881630",
    "longitude": "20.23556470"
  },
  {
    "id": "99d278af-6efc-464b-be5c-4001760644f0",
    "name": "Dibër District",
    "country_id": "d41b9c81-be62-431d-b158-ba4815c2091d",
    "country_code": "AL",
    "country_name": "Albania",
    "state_code": "DI",
    "latitude": "41.58881630",
    "longitude": "20.23556470"
  },
  {
    "id": "a3ebcd71-175e-4867-91a9-1aa2df89e5e6",
    "name": "Durrës County",
    "country_id": "d41b9c81-be62-431d-b158-ba4815c2091d",
    "country_code": "AL",
    "country_name": "Albania",
    "state_code": "02",
    "latitude": "41.50809720",
    "longitude": "19.61631850"
  },
  {
    "id": "9feb3581-dd66-4cc3-80da-0636a0438dd3",
    "name": "Durrës District",
    "country_id": "d41b9c81-be62-431d-b158-ba4815c2091d",
    "country_code": "AL",
    "country_name": "Albania",
    "state_code": "DR",
    "latitude": "41.37065170",
    "longitude": "19.52110630"
  },
  {
    "id": "b9f85f4d-d266-4772-937d-e7c0276b3c94",
    "name": "Elbasan County",
    "country_id": "d41b9c81-be62-431d-b158-ba4815c2091d",
    "country_code": "AL",
    "country_name": "Albania",
    "state_code": "03",
    "latitude": "41.12666720",
    "longitude": "20.23556470"
  },
  {
    "id": "d8d1c29c-1a99-4b83-a472-7aa5480e2660",
    "name": "Fier County",
    "country_id": "d41b9c81-be62-431d-b158-ba4815c2091d",
    "country_code": "AL",
    "country_name": "Albania",
    "state_code": "04",
    "latitude": "40.91913920",
    "longitude": "19.66393090"
  },
  {
    "id": "092c49d3-bfcd-4170-9582-348bb7261f7c",
    "name": "Fier District",
    "country_id": "d41b9c81-be62-431d-b158-ba4815c2091d",
    "country_code": "AL",
    "country_name": "Albania",
    "state_code": "FR",
    "latitude": "40.72750400",
    "longitude": "19.56275960"
  },
  {
    "id": "07cc6bf8-cd93-4161-a906-95561aebf187",
    "name": "Gjirokastër County",
    "country_id": "d41b9c81-be62-431d-b158-ba4815c2091d",
    "country_code": "AL",
    "country_name": "Albania",
    "state_code": "05",
    "latitude": "40.06728740",
    "longitude": "20.10452290"
  },
  {
    "id": "41521329-3ddc-4b27-a91a-a7620d4bdd96",
    "name": "Gjirokastër District",
    "country_id": "d41b9c81-be62-431d-b158-ba4815c2091d",
    "country_code": "AL",
    "country_name": "Albania",
    "state_code": "GJ",
    "latitude": "40.06728740",
    "longitude": "20.10452290"
  },
  {
    "id": "16ab699b-6597-4c30-867c-df6fbaadc721",
    "name": "Gramsh District",
    "country_id": "d41b9c81-be62-431d-b158-ba4815c2091d",
    "country_code": "AL",
    "country_name": "Albania",
    "state_code": "GR",
    "latitude": "40.86698730",
    "longitude": "20.18493230"
  },
  {
    "id": "1cad23ca-f26f-4188-a091-56b61681f8bc",
    "name": "Has District",
    "country_id": "d41b9c81-be62-431d-b158-ba4815c2091d",
    "country_code": "AL",
    "country_name": "Albania",
    "state_code": "HA",
    "latitude": "42.79013360",
    "longitude": "-83.61220120"
  },
  {
    "id": "a000b53c-fb6b-4357-a46e-0b72b6df4deb",
    "name": "Kavajë District",
    "country_id": "d41b9c81-be62-431d-b158-ba4815c2091d",
    "country_code": "AL",
    "country_name": "Albania",
    "state_code": "KA",
    "latitude": "41.18445290",
    "longitude": "19.56275960"
  },
  {
    "id": "337d3e1b-3392-43ae-9a24-8e4b9ca093a7",
    "name": "Kolonjë District",
    "country_id": "d41b9c81-be62-431d-b158-ba4815c2091d",
    "country_code": "AL",
    "country_name": "Albania",
    "state_code": "ER",
    "latitude": "40.33732620",
    "longitude": "20.67946760"
  },
  {
    "id": "9c6a9f44-d720-4eb0-86ad-cb1d601a857e",
    "name": "Korçë County",
    "country_id": "d41b9c81-be62-431d-b158-ba4815c2091d",
    "country_code": "AL",
    "country_name": "Albania",
    "state_code": "06",
    "latitude": "40.59056700",
    "longitude": "20.61689210"
  },
  {
    "id": "dad56ce3-7d8f-477f-a9f9-3153a1dd6a07",
    "name": "Korçë District",
    "country_id": "d41b9c81-be62-431d-b158-ba4815c2091d",
    "country_code": "AL",
    "country_name": "Albania",
    "state_code": "KO",
    "latitude": "40.59056700",
    "longitude": "20.61689210"
  },
  {
    "id": "c3c21d44-5316-4406-b41b-3bdbcc1ee224",
    "name": "Krujë District",
    "country_id": "d41b9c81-be62-431d-b158-ba4815c2091d",
    "country_code": "AL",
    "country_name": "Albania",
    "state_code": "KR",
    "latitude": "41.50947650",
    "longitude": "19.77107320"
  },
  {
    "id": "43828d51-67f9-4564-b5d3-6538bf4f84a6",
    "name": "Kuçovë District",
    "country_id": "d41b9c81-be62-431d-b158-ba4815c2091d",
    "country_code": "AL",
    "country_name": "Albania",
    "state_code": "KC",
    "latitude": "40.78370630",
    "longitude": "19.87823480"
  },
  {
    "id": "1926e4d6-4e50-4ae0-8a1c-198d297645c4",
    "name": "Kukës County",
    "country_id": "d41b9c81-be62-431d-b158-ba4815c2091d",
    "country_code": "AL",
    "country_name": "Albania",
    "state_code": "07",
    "latitude": "42.08074640",
    "longitude": "20.41429230"
  },
  {
    "id": "0b1c19a6-c36f-4a8f-b615-7f0fe86d1d7a",
    "name": "Kukës District",
    "country_id": "d41b9c81-be62-431d-b158-ba4815c2091d",
    "country_code": "AL",
    "country_name": "Albania",
    "state_code": "KU",
    "latitude": "42.08074640",
    "longitude": "20.41429230"
  },
  {
    "id": "0a2b2b71-b7d1-47e3-825e-409027e3f50d",
    "name": "Kurbin District",
    "country_id": "d41b9c81-be62-431d-b158-ba4815c2091d",
    "country_code": "AL",
    "country_name": "Albania",
    "state_code": "KB",
    "latitude": "41.64126440",
    "longitude": "19.70559500"
  },
  {
    "id": "2970a6b6-f727-4ef6-a327-06e66c2e15a5",
    "name": "Lezhë County",
    "country_id": "d41b9c81-be62-431d-b158-ba4815c2091d",
    "country_code": "AL",
    "country_name": "Albania",
    "state_code": "08",
    "latitude": "41.78137590",
    "longitude": "19.80679160"
  },
  {
    "id": "7f30ef55-ad07-4f4c-acc5-5f60d33918d5",
    "name": "Lezhë District",
    "country_id": "d41b9c81-be62-431d-b158-ba4815c2091d",
    "country_code": "AL",
    "country_name": "Albania",
    "state_code": "LE",
    "latitude": "41.78607300",
    "longitude": "19.64607580"
  },
  {
    "id": "78026920-4022-40c8-a48d-fcac10797276",
    "name": "Librazhd District",
    "country_id": "d41b9c81-be62-431d-b158-ba4815c2091d",
    "country_code": "AL",
    "country_name": "Albania",
    "state_code": "LB",
    "latitude": "41.18292320",
    "longitude": "20.31747690"
  },
  {
    "id": "cf84b502-3010-463c-b1d3-3d48065ec8e7",
    "name": "Lushnjë District",
    "country_id": "d41b9c81-be62-431d-b158-ba4815c2091d",
    "country_code": "AL",
    "country_name": "Albania",
    "state_code": "LU",
    "latitude": "40.94198300",
    "longitude": "19.69964280"
  },
  {
    "id": "da5af571-f553-4005-905a-76e873728832",
    "name": "Malësi e Madhe District",
    "country_id": "d41b9c81-be62-431d-b158-ba4815c2091d",
    "country_code": "AL",
    "country_name": "Albania",
    "state_code": "MM",
    "latitude": "42.42451730",
    "longitude": "19.61631850"
  },
  {
    "id": "9eb7e077-0041-43db-a487-5c9b1a8ce17d",
    "name": "Mallakastër District",
    "country_id": "d41b9c81-be62-431d-b158-ba4815c2091d",
    "country_code": "AL",
    "country_name": "Albania",
    "state_code": "MK",
    "latitude": "40.52733760",
    "longitude": "19.78297910"
  },
  {
    "id": "b3c86d9f-7b5c-487b-9d57-e6a33f9615d0",
    "name": "Mat District",
    "country_id": "d41b9c81-be62-431d-b158-ba4815c2091d",
    "country_code": "AL",
    "country_name": "Albania",
    "state_code": "MT",
    "latitude": "41.59376750",
    "longitude": "19.99732440"
  },
  {
    "id": "19f9c227-11b5-4de9-9083-72435d26ab79",
    "name": "Mirditë District",
    "country_id": "d41b9c81-be62-431d-b158-ba4815c2091d",
    "country_code": "AL",
    "country_name": "Albania",
    "state_code": "MR",
    "latitude": "41.76428600",
    "longitude": "19.90205090"
  },
  {
    "id": "2938cbba-80cf-40c5-b9c1-cc0681652bb2",
    "name": "Peqin District",
    "country_id": "d41b9c81-be62-431d-b158-ba4815c2091d",
    "country_code": "AL",
    "country_name": "Albania",
    "state_code": "PQ",
    "latitude": "41.04709020",
    "longitude": "19.75023840"
  },
  {
    "id": "de161cd9-9a93-4360-b967-1654277b3908",
    "name": "Përmet District",
    "country_id": "d41b9c81-be62-431d-b158-ba4815c2091d",
    "country_code": "AL",
    "country_name": "Albania",
    "state_code": "PR",
    "latitude": "40.23618370",
    "longitude": "20.35173340"
  },
  {
    "id": "4e2e37ef-b537-4c1e-a414-d27fd5b9e2d1",
    "name": "Pogradec District",
    "country_id": "d41b9c81-be62-431d-b158-ba4815c2091d",
    "country_code": "AL",
    "country_name": "Albania",
    "state_code": "PG",
    "latitude": "40.90153140",
    "longitude": "20.65562890"
  },
  {
    "id": "bf1bd0ee-53ba-4d00-b04d-46e62880f987",
    "name": "Pukë District",
    "country_id": "d41b9c81-be62-431d-b158-ba4815c2091d",
    "country_code": "AL",
    "country_name": "Albania",
    "state_code": "PU",
    "latitude": "42.04697720",
    "longitude": "19.89609680"
  },
  {
    "id": "3bb39371-c658-4451-a6ee-107ee760fe0d",
    "name": "Sarandë District",
    "country_id": "d41b9c81-be62-431d-b158-ba4815c2091d",
    "country_code": "AL",
    "country_name": "Albania",
    "state_code": "SR",
    "latitude": "39.85921190",
    "longitude": "20.02710010"
  },
  {
    "id": "5c06a912-c5ad-4084-93a5-d8b815ae51e1",
    "name": "Shkodër County",
    "country_id": "d41b9c81-be62-431d-b158-ba4815c2091d",
    "country_code": "AL",
    "country_name": "Albania",
    "state_code": "10",
    "latitude": "42.15037100",
    "longitude": "19.66393090"
  },
  {
    "id": "f866c2fe-78fb-48bb-9cfd-ae54bc270356",
    "name": "Shkodër District",
    "country_id": "d41b9c81-be62-431d-b158-ba4815c2091d",
    "country_code": "AL",
    "country_name": "Albania",
    "state_code": "SH",
    "latitude": "42.06929850",
    "longitude": "19.50325590"
  },
  {
    "id": "758a9bcb-7d43-474c-8800-dd9adc50463e",
    "name": "Skrapar District",
    "country_id": "d41b9c81-be62-431d-b158-ba4815c2091d",
    "country_code": "AL",
    "country_name": "Albania",
    "state_code": "SK",
    "latitude": "40.53499460",
    "longitude": "20.28322170"
  },
  {
    "id": "86c1df95-9802-41b9-98a1-75c01de9e77d",
    "name": "Tepelenë District",
    "country_id": "d41b9c81-be62-431d-b158-ba4815c2091d",
    "country_code": "AL",
    "country_name": "Albania",
    "state_code": "TE",
    "latitude": "40.29666320",
    "longitude": "20.01816730"
  },
  {
    "id": "b0d29226-1948-42c8-b500-d768c94016a9",
    "name": "Tirana County",
    "country_id": "d41b9c81-be62-431d-b158-ba4815c2091d",
    "country_code": "AL",
    "country_name": "Albania",
    "state_code": "11",
    "latitude": "41.24275980",
    "longitude": "19.80679160"
  },
  {
    "id": "67936958-b263-43ce-968c-1e3c9811a354",
    "name": "Tirana District",
    "country_id": "d41b9c81-be62-431d-b158-ba4815c2091d",
    "country_code": "AL",
    "country_name": "Albania",
    "state_code": "TR",
    "latitude": "41.32754590",
    "longitude": "19.81869820"
  },
  {
    "id": "37ae6f5a-e46c-4292-93ef-06e5b0e35f6b",
    "name": "Tropojë District",
    "country_id": "d41b9c81-be62-431d-b158-ba4815c2091d",
    "country_code": "AL",
    "country_name": "Albania",
    "state_code": "TP",
    "latitude": "42.39821510",
    "longitude": "20.16259550"
  },
  {
    "id": "509f8eb2-0d30-4763-8045-620cfe6b4977",
    "name": "Vlorë County",
    "country_id": "d41b9c81-be62-431d-b158-ba4815c2091d",
    "country_code": "AL",
    "country_name": "Albania",
    "state_code": "12",
    "latitude": "40.15009600",
    "longitude": "19.80679160"
  },
  {
    "id": "98b1e4a4-8744-4d74-933d-0a7262abed5a",
    "name": "Vlorë District",
    "country_id": "d41b9c81-be62-431d-b158-ba4815c2091d",
    "country_code": "AL",
    "country_name": "Albania",
    "state_code": "VL",
    "latitude": "40.46606680",
    "longitude": "19.49135600"
  },
  {
    "id": "bd908817-24a7-4abd-ae63-3ee76185939c",
    "name": "Adrar",
    "country_id": "764fe614-dad5-4440-a409-058c54afcfc4",
    "country_code": "DZ",
    "country_name": "Algeria",
    "state_code": "01",
    "latitude": "26.41813100",
    "longitude": "-0.60147170"
  },
  {
    "id": "11b31611-31ec-4784-895d-9bb3f0705cbe",
    "name": "Aïn Defla",
    "country_id": "764fe614-dad5-4440-a409-058c54afcfc4",
    "country_code": "DZ",
    "country_name": "Algeria",
    "state_code": "44",
    "latitude": "36.25094290",
    "longitude": "1.93938150"
  },
  {
    "id": "cb8d9866-ee5e-4f3e-9d67-0e0da19320f8",
    "name": "Aïn Témouchent",
    "country_id": "764fe614-dad5-4440-a409-058c54afcfc4",
    "country_code": "DZ",
    "country_name": "Algeria",
    "state_code": "46",
    "latitude": "35.29926980",
    "longitude": "-1.13927920"
  },
  {
    "id": "a201b14d-736b-49e0-a734-4675421a4adb",
    "name": "Algiers",
    "country_id": "764fe614-dad5-4440-a409-058c54afcfc4",
    "country_code": "DZ",
    "country_name": "Algeria",
    "state_code": "16",
    "latitude": "36.69972940",
    "longitude": "3.05761990"
  },
  {
    "id": "64bcea79-0f94-4612-aa47-28158bd5f73f",
    "name": "Annaba",
    "country_id": "764fe614-dad5-4440-a409-058c54afcfc4",
    "country_code": "DZ",
    "country_name": "Algeria",
    "state_code": "23",
    "latitude": "36.80205080",
    "longitude": "7.52472430"
  },
  {
    "id": "842fdfab-d324-4f84-a78f-9780c8746808",
    "name": "Batna",
    "country_id": "764fe614-dad5-4440-a409-058c54afcfc4",
    "country_code": "DZ",
    "country_name": "Algeria",
    "state_code": "05",
    "latitude": "35.59659540",
    "longitude": "5.89871390"
  },
  {
    "id": "0d0e48ce-5cfb-466b-942e-96b43441b58a",
    "name": "Béchar",
    "country_id": "764fe614-dad5-4440-a409-058c54afcfc4",
    "country_code": "DZ",
    "country_name": "Algeria",
    "state_code": "08",
    "latitude": "31.62380980",
    "longitude": "-2.21624430"
  },
  {
    "id": "4264d872-93e0-45b4-b725-aea9bbca597f",
    "name": "Béjaïa",
    "country_id": "764fe614-dad5-4440-a409-058c54afcfc4",
    "country_code": "DZ",
    "country_name": "Algeria",
    "state_code": "06",
    "latitude": "36.75152580",
    "longitude": "5.05568370"
  },
  {
    "id": "7b370f42-4002-4991-a54f-336a372fd0b0",
    "name": "Béni Abbès",
    "country_id": "764fe614-dad5-4440-a409-058c54afcfc4",
    "country_code": "DZ",
    "country_name": "Algeria",
    "state_code": "53",
    "latitude": "30.08310420",
    "longitude": "-2.83450520"
  },
  {
    "id": "6e83356e-ef72-4a38-8627-71d13d1f4bd0",
    "name": "Biskra",
    "country_id": "764fe614-dad5-4440-a409-058c54afcfc4",
    "country_code": "DZ",
    "country_name": "Algeria",
    "state_code": "07",
    "latitude": "34.84494370",
    "longitude": "5.72485670"
  },
  {
    "id": "561c93e3-f3b6-4ec1-913a-74d3c1647e67",
    "name": "Blida",
    "country_id": "764fe614-dad5-4440-a409-058c54afcfc4",
    "country_code": "DZ",
    "country_name": "Algeria",
    "state_code": "09",
    "latitude": "36.53112300",
    "longitude": "2.89762540"
  },
  {
    "id": "6e043ea3-28fb-4b8b-a1af-10ab380744a6",
    "name": "Bordj Baji Mokhtar",
    "country_id": "764fe614-dad5-4440-a409-058c54afcfc4",
    "country_code": "DZ",
    "country_name": "Algeria",
    "state_code": "52",
    "latitude": "22.96633500",
    "longitude": "-3.94727320"
  },
  {
    "id": "c22f76d4-e877-484b-95ba-1c9f021460da",
    "name": "Bordj Bou Arréridj",
    "country_id": "764fe614-dad5-4440-a409-058c54afcfc4",
    "country_code": "DZ",
    "country_name": "Algeria",
    "state_code": "34",
    "latitude": "36.07399250",
    "longitude": "4.76302710"
  },
  {
    "id": "795c5e3c-067b-4eee-87a0-5a6066714bb5",
    "name": "Bouïra",
    "country_id": "764fe614-dad5-4440-a409-058c54afcfc4",
    "country_code": "DZ",
    "country_name": "Algeria",
    "state_code": "10",
    "latitude": "36.36918460",
    "longitude": "3.90061940"
  },
  {
    "id": "fb021369-165a-4469-8f39-a7452e583ced",
    "name": "Boumerdès",
    "country_id": "764fe614-dad5-4440-a409-058c54afcfc4",
    "country_code": "DZ",
    "country_name": "Algeria",
    "state_code": "35",
    "latitude": "36.68395590",
    "longitude": "3.62178020"
  },
  {
    "id": "cebb159b-37dc-4faf-9b59-0fb130e4f506",
    "name": "Chlef",
    "country_id": "764fe614-dad5-4440-a409-058c54afcfc4",
    "country_code": "DZ",
    "country_name": "Algeria",
    "state_code": "02",
    "latitude": "36.16935150",
    "longitude": "1.28910360"
  },
  {
    "id": "94f8be46-d0a8-47d5-b3c7-0ba546ba254e",
    "name": "Constantine",
    "country_id": "764fe614-dad5-4440-a409-058c54afcfc4",
    "country_code": "DZ",
    "country_name": "Algeria",
    "state_code": "25",
    "latitude": "36.33739110",
    "longitude": "6.66381200"
  },
  {
    "id": "b9730703-784c-45a8-8e8d-895c7a597e51",
    "name": "Djanet",
    "country_id": "764fe614-dad5-4440-a409-058c54afcfc4",
    "country_code": "DZ",
    "country_name": "Algeria",
    "state_code": "56",
    "latitude": "23.83108720",
    "longitude": "8.70046720"
  },
  {
    "id": "1d18e40b-b2ed-47c6-ae1a-bc66ebb67fa1",
    "name": "Djelfa",
    "country_id": "764fe614-dad5-4440-a409-058c54afcfc4",
    "country_code": "DZ",
    "country_name": "Algeria",
    "state_code": "17",
    "latitude": "34.67039560",
    "longitude": "3.25037610"
  },
  {
    "id": "d8db1c98-08c9-4601-a041-5b8f6769cbaa",
    "name": "El Bayadh",
    "country_id": "764fe614-dad5-4440-a409-058c54afcfc4",
    "country_code": "DZ",
    "country_name": "Algeria",
    "state_code": "32",
    "latitude": "32.71488240",
    "longitude": "0.90566230"
  },
  {
    "id": "5eba5082-50a9-44a2-9c03-a23d1fcfa810",
    "name": "El M'ghair",
    "country_id": "764fe614-dad5-4440-a409-058c54afcfc4",
    "country_code": "DZ",
    "country_name": "Algeria",
    "state_code": "49",
    "latitude": "33.95405610",
    "longitude": "5.13464180"
  },
  {
    "id": "557a7579-31a1-44d2-9ac0-1f08181fe561",
    "name": "El Menia",
    "country_id": "764fe614-dad5-4440-a409-058c54afcfc4",
    "country_code": "DZ",
    "country_name": "Algeria",
    "state_code": "50",
    "latitude": "31.36422500",
    "longitude": "2.57844950"
  },
  {
    "id": "c5fc1bc3-f2f7-40a0-9463-2c63767a7f07",
    "name": "El Oued",
    "country_id": "764fe614-dad5-4440-a409-058c54afcfc4",
    "country_code": "DZ",
    "country_name": "Algeria",
    "state_code": "39",
    "latitude": "33.36781100",
    "longitude": "6.85165110"
  },
  {
    "id": "b47db3c6-b269-42ef-87e0-2610ed746352",
    "name": "El Tarf",
    "country_id": "764fe614-dad5-4440-a409-058c54afcfc4",
    "country_code": "DZ",
    "country_name": "Algeria",
    "state_code": "36",
    "latitude": "36.75766780",
    "longitude": "8.30763430"
  },
  {
    "id": "836a413b-085d-4be8-9858-a01211aefb61",
    "name": "Ghardaïa",
    "country_id": "764fe614-dad5-4440-a409-058c54afcfc4",
    "country_code": "DZ",
    "country_name": "Algeria",
    "state_code": "47",
    "latitude": "32.49437410",
    "longitude": "3.64446000"
  },
  {
    "id": "4d85d0e7-2414-4f56-a62a-8bc80d19917c",
    "name": "Guelma",
    "country_id": "764fe614-dad5-4440-a409-058c54afcfc4",
    "country_code": "DZ",
    "country_name": "Algeria",
    "state_code": "24",
    "latitude": "36.46274440",
    "longitude": "7.43308330"
  },
  {
    "id": "5c4b2bf6-7684-4057-9642-01443364c1c5",
    "name": "Illizi",
    "country_id": "764fe614-dad5-4440-a409-058c54afcfc4",
    "country_code": "DZ",
    "country_name": "Algeria",
    "state_code": "33",
    "latitude": "26.16900050",
    "longitude": "8.48424650"
  },
  {
    "id": "2aeabc8e-bcb2-43e9-bfdf-835d71435473",
    "name": "In Guezzam",
    "country_id": "764fe614-dad5-4440-a409-058c54afcfc4",
    "country_code": "DZ",
    "country_name": "Algeria",
    "state_code": "58",
    "latitude": "20.38643230",
    "longitude": "4.77893940"
  },
  {
    "id": "b3b32fed-8593-4a9f-922c-de5ad4b4b48b",
    "name": "In Salah",
    "country_id": "764fe614-dad5-4440-a409-058c54afcfc4",
    "country_code": "DZ",
    "country_name": "Algeria",
    "state_code": "57",
    "latitude": "27.21492290",
    "longitude": "1.84843960"
  },
  {
    "id": "3ff1313d-6a53-48bf-b407-641078571cc2",
    "name": "Jijel",
    "country_id": "764fe614-dad5-4440-a409-058c54afcfc4",
    "country_code": "DZ",
    "country_name": "Algeria",
    "state_code": "18",
    "latitude": "36.71796810",
    "longitude": "5.98325770"
  },
  {
    "id": "11a022ab-bb10-42dd-a83f-46f20eca71c5",
    "name": "Khenchela",
    "country_id": "764fe614-dad5-4440-a409-058c54afcfc4",
    "country_code": "DZ",
    "country_name": "Algeria",
    "state_code": "40",
    "latitude": "35.42694040",
    "longitude": "7.14601550"
  },
  {
    "id": "56e2fa3c-531f-4d2f-8ba4-48852b060e6c",
    "name": "Laghouat",
    "country_id": "764fe614-dad5-4440-a409-058c54afcfc4",
    "country_code": "DZ",
    "country_name": "Algeria",
    "state_code": "03",
    "latitude": "33.80783410",
    "longitude": "2.86282940"
  },
  {
    "id": "8924a339-fc26-4543-a48a-188e0f43f77d",
    "name": "M'Sila",
    "country_id": "764fe614-dad5-4440-a409-058c54afcfc4",
    "country_code": "DZ",
    "country_name": "Algeria",
    "state_code": "28",
    "latitude": "35.71866460",
    "longitude": "4.52334230"
  },
  {
    "id": "48dfc237-7347-458e-bf4e-6b845b8e259d",
    "name": "Mascara",
    "country_id": "764fe614-dad5-4440-a409-058c54afcfc4",
    "country_code": "DZ",
    "country_name": "Algeria",
    "state_code": "29",
    "latitude": "35.39041250",
    "longitude": "0.14949880"
  },
  {
    "id": "58a6558f-9037-4549-b98a-afd98316a331",
    "name": "Médéa",
    "country_id": "764fe614-dad5-4440-a409-058c54afcfc4",
    "country_code": "DZ",
    "country_name": "Algeria",
    "state_code": "26",
    "latitude": "36.26370780",
    "longitude": "2.75878570"
  },
  {
    "id": "4cb2d1b1-6904-4072-a8f8-90bb86aece9e",
    "name": "Mila",
    "country_id": "764fe614-dad5-4440-a409-058c54afcfc4",
    "country_code": "DZ",
    "country_name": "Algeria",
    "state_code": "43",
    "latitude": "36.36479570",
    "longitude": "6.15269850"
  },
  {
    "id": "bd7ab717-1048-4bfb-9f53-b87a587acd8b",
    "name": "Mostaganem",
    "country_id": "764fe614-dad5-4440-a409-058c54afcfc4",
    "country_code": "DZ",
    "country_name": "Algeria",
    "state_code": "27",
    "latitude": "35.95830540",
    "longitude": "0.33718890"
  },
  {
    "id": "29ac98d1-c9b6-4911-8c13-3482f12aad1e",
    "name": "Naama",
    "country_id": "764fe614-dad5-4440-a409-058c54afcfc4",
    "country_code": "DZ",
    "country_name": "Algeria",
    "state_code": "45",
    "latitude": "33.26673170",
    "longitude": "-0.31286590"
  },
  {
    "id": "7b56994a-b205-4933-b6e6-96647f70a30e",
    "name": "Oran",
    "country_id": "764fe614-dad5-4440-a409-058c54afcfc4",
    "country_code": "DZ",
    "country_name": "Algeria",
    "state_code": "31",
    "latitude": "35.60823510",
    "longitude": "-0.56360900"
  },
  {
    "id": "05ea0e3c-ea8a-4b6c-a216-312abe140edc",
    "name": "Ouargla",
    "country_id": "764fe614-dad5-4440-a409-058c54afcfc4",
    "country_code": "DZ",
    "country_name": "Algeria",
    "state_code": "30",
    "latitude": "32.22648630",
    "longitude": "5.72998210"
  },
  {
    "id": "16269aff-c86b-46e3-b7a8-d9b6a28baf7a",
    "name": "Ouled Djellal",
    "country_id": "764fe614-dad5-4440-a409-058c54afcfc4",
    "country_code": "DZ",
    "country_name": "Algeria",
    "state_code": "51",
    "latitude": "34.41782210",
    "longitude": "4.96858430"
  },
  {
    "id": "f5c9c8ce-9eab-4ebb-9f4e-2197c6077eb4",
    "name": "Oum El Bouaghi",
    "country_id": "764fe614-dad5-4440-a409-058c54afcfc4",
    "country_code": "DZ",
    "country_name": "Algeria",
    "state_code": "04",
    "latitude": "35.86887890",
    "longitude": "7.11082660"
  },
  {
    "id": "4e36d926-3d45-4a90-aa5e-8cc78fdaa0c5",
    "name": "Relizane",
    "country_id": "764fe614-dad5-4440-a409-058c54afcfc4",
    "country_code": "DZ",
    "country_name": "Algeria",
    "state_code": "48",
    "latitude": "35.73834050",
    "longitude": "0.75328090"
  },
  {
    "id": "84077e8b-070c-462c-ad71-918ccca4e2ad",
    "name": "Saïda",
    "country_id": "764fe614-dad5-4440-a409-058c54afcfc4",
    "country_code": "DZ",
    "country_name": "Algeria",
    "state_code": "20",
    "latitude": "34.84152070",
    "longitude": "0.14560550"
  },
  {
    "id": "fb09e05a-07c6-497a-a225-608640384f22",
    "name": "Sétif",
    "country_id": "764fe614-dad5-4440-a409-058c54afcfc4",
    "country_code": "DZ",
    "country_name": "Algeria",
    "state_code": "19",
    "latitude": "36.30733890",
    "longitude": "5.56172790"
  },
  {
    "id": "d8e0578c-9930-47d8-95b8-c2e193acc1fd",
    "name": "Sidi Bel Abbès",
    "country_id": "764fe614-dad5-4440-a409-058c54afcfc4",
    "country_code": "DZ",
    "country_name": "Algeria",
    "state_code": "22",
    "latitude": "34.68060240",
    "longitude": "-1.09994950"
  },
  {
    "id": "21c9683d-2f51-427e-8387-778a2bc44e28",
    "name": "Skikda",
    "country_id": "764fe614-dad5-4440-a409-058c54afcfc4",
    "country_code": "DZ",
    "country_name": "Algeria",
    "state_code": "21",
    "latitude": "36.67211980",
    "longitude": "6.83509990"
  },
  {
    "id": "bf242d56-04ce-4e8e-937d-98fb64e99399",
    "name": "Souk Ahras",
    "country_id": "764fe614-dad5-4440-a409-058c54afcfc4",
    "country_code": "DZ",
    "country_name": "Algeria",
    "state_code": "41",
    "latitude": "36.28010620",
    "longitude": "7.93840330"
  },
  {
    "id": "b4388c54-727b-4e1c-bf48-e8a822f378ba",
    "name": "Tamanghasset",
    "country_id": "764fe614-dad5-4440-a409-058c54afcfc4",
    "country_code": "DZ",
    "country_name": "Algeria",
    "state_code": "11",
    "latitude": "22.79029720",
    "longitude": "5.51932680"
  },
  {
    "id": "15ba84b7-d467-4eb2-b892-ef6caa09df8b",
    "name": "Tébessa",
    "country_id": "764fe614-dad5-4440-a409-058c54afcfc4",
    "country_code": "DZ",
    "country_name": "Algeria",
    "state_code": "12",
    "latitude": "35.12906910",
    "longitude": "7.95928630"
  },
  {
    "id": "26fc340d-9f18-4e61-82ff-b878e260f1f5",
    "name": "Tiaret",
    "country_id": "764fe614-dad5-4440-a409-058c54afcfc4",
    "country_code": "DZ",
    "country_name": "Algeria",
    "state_code": "14",
    "latitude": "35.37086890",
    "longitude": "1.32178520"
  },
  {
    "id": "1211c415-4735-4d2c-84ee-32bbb9debe3f",
    "name": "Timimoun",
    "country_id": "764fe614-dad5-4440-a409-058c54afcfc4",
    "country_code": "DZ",
    "country_name": "Algeria",
    "state_code": "54",
    "latitude": "29.67890600",
    "longitude": "0.50046080"
  },
  {
    "id": "c5093b0d-171c-4fc6-9604-068464618049",
    "name": "Tindouf",
    "country_id": "764fe614-dad5-4440-a409-058c54afcfc4",
    "country_code": "DZ",
    "country_name": "Algeria",
    "state_code": "37",
    "latitude": "27.80631190",
    "longitude": "-5.72998210"
  },
  {
    "id": "96ab4d8a-b070-4046-b31a-3d966e0b7580",
    "name": "Tipasa",
    "country_id": "764fe614-dad5-4440-a409-058c54afcfc4",
    "country_code": "DZ",
    "country_name": "Algeria",
    "state_code": "42",
    "latitude": "36.54626500",
    "longitude": "2.18432850"
  },
  {
    "id": "01abc57b-d75a-4d03-9cf8-0e7a15648a85",
    "name": "Tissemsilt",
    "country_id": "764fe614-dad5-4440-a409-058c54afcfc4",
    "country_code": "DZ",
    "country_name": "Algeria",
    "state_code": "38",
    "latitude": "35.60537810",
    "longitude": "1.81309800"
  },
  {
    "id": "02fb3b2e-7524-4b57-9d41-32af28998896",
    "name": "Tizi Ouzou",
    "country_id": "764fe614-dad5-4440-a409-058c54afcfc4",
    "country_code": "DZ",
    "country_name": "Algeria",
    "state_code": "15",
    "latitude": "36.70691100",
    "longitude": "4.23333550"
  },
  {
    "id": "2b6c10ac-6689-44cb-8c51-e6c9397c784a",
    "name": "Tlemcen",
    "country_id": "764fe614-dad5-4440-a409-058c54afcfc4",
    "country_code": "DZ",
    "country_name": "Algeria",
    "state_code": "13",
    "latitude": "34.67802840",
    "longitude": "-1.36621600"
  },
  {
    "id": "d4cca861-9801-4358-9c28-3f5d89c7efcd",
    "name": "Touggourt",
    "country_id": "764fe614-dad5-4440-a409-058c54afcfc4",
    "country_code": "DZ",
    "country_name": "Algeria",
    "state_code": "55",
    "latitude": "33.12484760",
    "longitude": "5.78327150"
  },
  {
    "id": "8dd13ead-5764-4eed-8e68-e46eff1e598e",
    "name": "Andorra la Vella",
    "country_id": "d72fe1fe-d88e-4af3-82f2-c64fb9b25bed",
    "country_code": "AD",
    "country_name": "Andorra",
    "state_code": "07",
    "latitude": "42.50631740",
    "longitude": "1.52183550"
  },
  {
    "id": "14625b1d-a0fe-4200-9777-94c911be714a",
    "name": "Canillo",
    "country_id": "d72fe1fe-d88e-4af3-82f2-c64fb9b25bed",
    "country_code": "AD",
    "country_name": "Andorra",
    "state_code": "02",
    "latitude": "42.59782490",
    "longitude": "1.65663770"
  },
  {
    "id": "5fce2564-a28e-472c-be08-01752b45608c",
    "name": "Encamp",
    "country_id": "d72fe1fe-d88e-4af3-82f2-c64fb9b25bed",
    "country_code": "AD",
    "country_name": "Andorra",
    "state_code": "03",
    "latitude": "42.53597640",
    "longitude": "1.58367730"
  },
  {
    "id": "60c1a8d4-cb08-4bac-8f50-4f48926f1fb9",
    "name": "Escaldes-Engordany",
    "country_id": "d72fe1fe-d88e-4af3-82f2-c64fb9b25bed",
    "country_code": "AD",
    "country_name": "Andorra",
    "state_code": "08",
    "latitude": "42.49093790",
    "longitude": "1.58869660"
  },
  {
    "id": "1e42164f-35bc-4aec-8958-853bd0dc4932",
    "name": "La Massana",
    "country_id": "d72fe1fe-d88e-4af3-82f2-c64fb9b25bed",
    "country_code": "AD",
    "country_name": "Andorra",
    "state_code": "04",
    "latitude": "42.54562500",
    "longitude": "1.51473920"
  },
  {
    "id": "7c4d5d9a-f253-4e29-bd76-845b849c3419",
    "name": "Ordino",
    "country_id": "d72fe1fe-d88e-4af3-82f2-c64fb9b25bed",
    "country_code": "AD",
    "country_name": "Andorra",
    "state_code": "05",
    "latitude": "42.59944330",
    "longitude": "1.54023270"
  },
  {
    "id": "b99bf606-f764-4a1d-9c67-96825f28a292",
    "name": "Sant Julià de Lòria",
    "country_id": "d72fe1fe-d88e-4af3-82f2-c64fb9b25bed",
    "country_code": "AD",
    "country_name": "Andorra",
    "state_code": "06",
    "latitude": "42.45296310",
    "longitude": "1.49182350"
  },
  {
    "id": "36b80a1a-76d8-47b2-94cf-90cbc2ed04cf",
    "name": "Bengo Province",
    "country_id": "760003d5-747b-4623-9c90-60049b6618a6",
    "country_code": "AO",
    "country_name": "Angola",
    "state_code": "BGO",
    "latitude": "-9.10422570",
    "longitude": "13.72891670"
  },
  {
    "id": "87677b6b-6ff9-4f1c-a9aa-fbf90c327269",
    "name": "Benguela Province",
    "country_id": "760003d5-747b-4623-9c90-60049b6618a6",
    "country_code": "AO",
    "country_name": "Angola",
    "state_code": "BGU",
    "latitude": "-12.80037440",
    "longitude": "13.91439900"
  },
  {
    "id": "5ceeba35-f9b3-499c-ad20-6f14fdb9060a",
    "name": "Bié Province",
    "country_id": "760003d5-747b-4623-9c90-60049b6618a6",
    "country_code": "AO",
    "country_name": "Angola",
    "state_code": "BIE",
    "latitude": "-12.57279070",
    "longitude": "17.66888700"
  },
  {
    "id": "c61cd05f-7843-4458-b981-f57d57504afc",
    "name": "Cabinda Province",
    "country_id": "760003d5-747b-4623-9c90-60049b6618a6",
    "country_code": "AO",
    "country_name": "Angola",
    "state_code": "CAB",
    "latitude": "-5.02487490",
    "longitude": "12.34638750"
  },
  {
    "id": "1b2c3854-9f83-4582-9666-5205d6ba8b2c",
    "name": "Cuando Cubango Province",
    "country_id": "760003d5-747b-4623-9c90-60049b6618a6",
    "country_code": "AO",
    "country_name": "Angola",
    "state_code": "CCU",
    "latitude": "-16.41808240",
    "longitude": "18.80761950"
  },
  {
    "id": "ace433b5-31fc-4d7c-8be3-9fb95ae2e912",
    "name": "Cuanza Norte Province",
    "country_id": "760003d5-747b-4623-9c90-60049b6618a6",
    "country_code": "AO",
    "country_name": "Angola",
    "state_code": "CNO",
    "latitude": "-9.23985130",
    "longitude": "14.65878210"
  },
  {
    "id": "dc37a4cf-83dd-4ab1-8cdd-0cd64cff6e68",
    "name": "Cuanza Sul",
    "country_id": "760003d5-747b-4623-9c90-60049b6618a6",
    "country_code": "AO",
    "country_name": "Angola",
    "state_code": "CUS",
    "latitude": "-10.59519100",
    "longitude": "15.40680790"
  },
  {
    "id": "fe6f2121-1a68-4303-8273-628432dbd103",
    "name": "Cunene Province",
    "country_id": "760003d5-747b-4623-9c90-60049b6618a6",
    "country_code": "AO",
    "country_name": "Angola",
    "state_code": "CNN",
    "latitude": "-16.28022210",
    "longitude": "16.15809370"
  },
  {
    "id": "b461e08c-0dfd-422a-921d-6f81577f7b1d",
    "name": "Huambo Province",
    "country_id": "760003d5-747b-4623-9c90-60049b6618a6",
    "country_code": "AO",
    "country_name": "Angola",
    "state_code": "HUA",
    "latitude": "-12.52682210",
    "longitude": "15.59433880"
  },
  {
    "id": "a831d5d1-3d5f-4e5f-b8bd-e9a92acedd51",
    "name": "Huíla Province",
    "country_id": "760003d5-747b-4623-9c90-60049b6618a6",
    "country_code": "AO",
    "country_name": "Angola",
    "state_code": "HUI",
    "latitude": "-14.92805530",
    "longitude": "14.65878210"
  },
  {
    "id": "bc922389-157f-4453-984d-41e94a03508a",
    "name": "Luanda Province",
    "country_id": "760003d5-747b-4623-9c90-60049b6618a6",
    "country_code": "AO",
    "country_name": "Angola",
    "state_code": "LUA",
    "latitude": "-9.03508800",
    "longitude": "13.26634790"
  },
  {
    "id": "ac30cd11-43dc-4816-ba51-1073b9ee1382",
    "name": "Lunda Norte Province",
    "country_id": "760003d5-747b-4623-9c90-60049b6618a6",
    "country_code": "AO",
    "country_name": "Angola",
    "state_code": "LNO",
    "latitude": "-8.35250220",
    "longitude": "19.18800470"
  },
  {
    "id": "cbe58426-ce32-49d3-9b4c-59aaac519d16",
    "name": "Lunda Sul Province",
    "country_id": "760003d5-747b-4623-9c90-60049b6618a6",
    "country_code": "AO",
    "country_name": "Angola",
    "state_code": "LSU",
    "latitude": "-10.28665780",
    "longitude": "20.71224650"
  },
  {
    "id": "819d4005-c22c-4bd9-add7-560e1b39e63c",
    "name": "Malanje Province",
    "country_id": "760003d5-747b-4623-9c90-60049b6618a6",
    "country_code": "AO",
    "country_name": "Angola",
    "state_code": "MAL",
    "latitude": "-9.82511830",
    "longitude": "16.91225100"
  },
  {
    "id": "47d92f03-6974-4812-be5c-170f37686543",
    "name": "Moxico Province",
    "country_id": "760003d5-747b-4623-9c90-60049b6618a6",
    "country_code": "AO",
    "country_name": "Angola",
    "state_code": "MOX",
    "latitude": "-13.42935790",
    "longitude": "20.33088140"
  },
  {
    "id": "7e120ea7-8f98-4c26-8d45-b73539a3cb5f",
    "name": "Uíge Province",
    "country_id": "760003d5-747b-4623-9c90-60049b6618a6",
    "country_code": "AO",
    "country_name": "Angola",
    "state_code": "UIG",
    "latitude": "-7.17367320",
    "longitude": "15.40680790"
  },
  {
    "id": "636d0841-81d5-4b13-9068-c404727e1576",
    "name": "Zaire Province",
    "country_id": "760003d5-747b-4623-9c90-60049b6618a6",
    "country_code": "AO",
    "country_name": "Angola",
    "state_code": "ZAI",
    "latitude": "-6.57334580",
    "longitude": "13.17403480"
  },
  {
    "id": "0a8eb434-f130-4e42-bc05-c6a5d8323f0e",
    "name": "Barbuda",
    "country_id": "b6ea7249-88f3-4f18-9229-54561c8455cc",
    "country_code": "AG",
    "country_name": "Antigua And Barbuda",
    "state_code": "10",
    "latitude": "17.62662420",
    "longitude": "-61.77130280"
  },
  {
    "id": "86dc1b5b-d2db-4bbb-bf04-d69468317135",
    "name": "Redonda",
    "country_id": "b6ea7249-88f3-4f18-9229-54561c8455cc",
    "country_code": "AG",
    "country_name": "Antigua And Barbuda",
    "state_code": "11",
    "latitude": "16.93841600",
    "longitude": "-62.34551480"
  },
  {
    "id": "7d884ef1-f29d-45a8-9a51-10baaf9c904b",
    "name": "Saint George Parish",
    "country_id": "b6ea7249-88f3-4f18-9229-54561c8455cc",
    "country_code": "AG",
    "country_name": "Antigua And Barbuda",
    "state_code": "03",
    "latitude": null,
    "longitude": null
  },
  {
    "id": "edfcec72-90ec-4316-a642-4f1392cd9170",
    "name": "Saint John Parish",
    "country_id": "b6ea7249-88f3-4f18-9229-54561c8455cc",
    "country_code": "AG",
    "country_name": "Antigua And Barbuda",
    "state_code": "04",
    "latitude": null,
    "longitude": null
  },
  {
    "id": "a7434ccf-6e75-4a35-b5c0-f477b232bfae",
    "name": "Saint Mary Parish",
    "country_id": "b6ea7249-88f3-4f18-9229-54561c8455cc",
    "country_code": "AG",
    "country_name": "Antigua And Barbuda",
    "state_code": "05",
    "latitude": null,
    "longitude": null
  },
  {
    "id": "aadf80db-9fbc-41a7-9597-4cea018ffdd0",
    "name": "Saint Paul Parish",
    "country_id": "b6ea7249-88f3-4f18-9229-54561c8455cc",
    "country_code": "AG",
    "country_name": "Antigua And Barbuda",
    "state_code": "06",
    "latitude": null,
    "longitude": null
  },
  {
    "id": "86a63fe8-5e6d-4474-869b-367b5d8942aa",
    "name": "Saint Peter Parish",
    "country_id": "b6ea7249-88f3-4f18-9229-54561c8455cc",
    "country_code": "AG",
    "country_name": "Antigua And Barbuda",
    "state_code": "07",
    "latitude": null,
    "longitude": null
  },
  {
    "id": "90417eaf-04d0-4c8d-a01d-9a706c6defa2",
    "name": "Saint Philip Parish",
    "country_id": "b6ea7249-88f3-4f18-9229-54561c8455cc",
    "country_code": "AG",
    "country_name": "Antigua And Barbuda",
    "state_code": "08",
    "latitude": "40.43682580",
    "longitude": "-80.06855320"
  },
  {
    "id": "e539145a-c909-482e-9cc5-997f375ebd1c",
    "name": "Buenos Aires",
    "country_id": "52b11d38-fe9d-48ab-b659-7790021c5003",
    "country_code": "AR",
    "country_name": "Argentina",
    "state_code": "B",
    "latitude": "-37.20172850",
    "longitude": "-59.84106970"
  },
  {
    "id": "29218f72-14d9-48d8-b256-76f3b7e348c7",
    "name": "Catamarca",
    "country_id": "52b11d38-fe9d-48ab-b659-7790021c5003",
    "country_code": "AR",
    "country_name": "Argentina",
    "state_code": "K",
    "latitude": "-28.47158770",
    "longitude": "-65.78772090"
  },
  {
    "id": "00f68253-c076-42de-bed1-5e6f5404a6b8",
    "name": "Chaco",
    "country_id": "52b11d38-fe9d-48ab-b659-7790021c5003",
    "country_code": "AR",
    "country_name": "Argentina",
    "state_code": "H",
    "latitude": "-27.42571750",
    "longitude": "-59.02437840"
  },
  {
    "id": "afcc814e-e861-4da5-9de9-195ea6ec8dc3",
    "name": "Chubut",
    "country_id": "52b11d38-fe9d-48ab-b659-7790021c5003",
    "country_code": "AR",
    "country_name": "Argentina",
    "state_code": "U",
    "latitude": "-43.29342460",
    "longitude": "-65.11148180"
  },
  {
    "id": "df9cccad-bb56-4bb3-8abd-7ba1b89b9806",
    "name": "Ciudad Autónoma de Buenos Aires",
    "country_id": "52b11d38-fe9d-48ab-b659-7790021c5003",
    "country_code": "AR",
    "country_name": "Argentina",
    "state_code": "C",
    "latitude": "-34.60368440",
    "longitude": "-58.38155910"
  },
  {
    "id": "e0a1abf2-06fa-4eab-9932-48ff54073a5e",
    "name": "Córdoba",
    "country_id": "52b11d38-fe9d-48ab-b659-7790021c5003",
    "country_code": "AR",
    "country_name": "Argentina",
    "state_code": "X",
    "latitude": "-31.39928760",
    "longitude": "-64.26438420"
  },
  {
    "id": "c119002c-2ca9-43e0-b1bf-6a71232b1ce2",
    "name": "Corrientes",
    "country_id": "52b11d38-fe9d-48ab-b659-7790021c5003",
    "country_code": "AR",
    "country_name": "Argentina",
    "state_code": "W",
    "latitude": "-27.46921310",
    "longitude": "-58.83063490"
  },
  {
    "id": "92c7fc55-b302-4e32-be73-aa2f6f418b41",
    "name": "Entre Ríos",
    "country_id": "52b11d38-fe9d-48ab-b659-7790021c5003",
    "country_code": "AR",
    "country_name": "Argentina",
    "state_code": "E",
    "latitude": "-31.77466540",
    "longitude": "-60.49564610"
  },
  {
    "id": "cf8f0767-7b19-491e-b172-45a74b77eefd",
    "name": "Formosa",
    "country_id": "52b11d38-fe9d-48ab-b659-7790021c5003",
    "country_code": "AR",
    "country_name": "Argentina",
    "state_code": "P",
    "latitude": "-26.18948040",
    "longitude": "-58.22428060"
  },
  {
    "id": "837f2a89-0056-4f81-9081-2d4de023c793",
    "name": "Jujuy",
    "country_id": "52b11d38-fe9d-48ab-b659-7790021c5003",
    "country_code": "AR",
    "country_name": "Argentina",
    "state_code": "Y",
    "latitude": "-24.18433970",
    "longitude": "-65.30217700"
  },
  {
    "id": "fa0818f0-ef60-400e-aece-39d894530ff0",
    "name": "La Pampa",
    "country_id": "52b11d38-fe9d-48ab-b659-7790021c5003",
    "country_code": "AR",
    "country_name": "Argentina",
    "state_code": "L",
    "latitude": "-36.61475730",
    "longitude": "-64.28392090"
  },
  {
    "id": "adfd408e-bc69-4cc8-a564-343dc1aa0fd4",
    "name": "La Rioja",
    "country_id": "52b11d38-fe9d-48ab-b659-7790021c5003",
    "country_code": "AR",
    "country_name": "Argentina",
    "state_code": "F",
    "latitude": "-29.41937930",
    "longitude": "-66.85599320"
  },
  {
    "id": "ead00c17-a361-4f6d-bf15-4a24d4b68f27",
    "name": "Mendoza",
    "country_id": "52b11d38-fe9d-48ab-b659-7790021c5003",
    "country_code": "AR",
    "country_name": "Argentina",
    "state_code": "M",
    "latitude": "-32.88945870",
    "longitude": "-68.84583860"
  },
  {
    "id": "a0d774c3-95c3-4a57-ab49-c8694d2a487c",
    "name": "Misiones",
    "country_id": "52b11d38-fe9d-48ab-b659-7790021c5003",
    "country_code": "AR",
    "country_name": "Argentina",
    "state_code": "N",
    "latitude": "-27.42692550",
    "longitude": "-55.94670760"
  },
  {
    "id": "205a25cc-05f2-4f8a-9a19-481617525655",
    "name": "Neuquén",
    "country_id": "52b11d38-fe9d-48ab-b659-7790021c5003",
    "country_code": "AR",
    "country_name": "Argentina",
    "state_code": "Q",
    "latitude": "-38.94587000",
    "longitude": "-68.07309250"
  },
  {
    "id": "06446e48-5b73-4f2e-90ca-ff54d266890c",
    "name": "Río Negro",
    "country_id": "52b11d38-fe9d-48ab-b659-7790021c5003",
    "country_code": "AR",
    "country_name": "Argentina",
    "state_code": "R",
    "latitude": "-40.82614340",
    "longitude": "-63.02663390"
  },
  {
    "id": "17d93c08-1cf3-4359-b10d-e912fbb6e41e",
    "name": "Salta",
    "country_id": "52b11d38-fe9d-48ab-b659-7790021c5003",
    "country_code": "AR",
    "country_name": "Argentina",
    "state_code": "A",
    "latitude": "-24.79976880",
    "longitude": "-65.41503670"
  },
  {
    "id": "0002367b-6866-4ddf-b329-a55b9bf2629c",
    "name": "San Juan",
    "country_id": "52b11d38-fe9d-48ab-b659-7790021c5003",
    "country_code": "AR",
    "country_name": "Argentina",
    "state_code": "J",
    "latitude": "-31.53169760",
    "longitude": "-68.56769620"
  },
  {
    "id": "a222ccc7-922e-4b58-a464-ffc6e857b436",
    "name": "San Luis",
    "country_id": "52b11d38-fe9d-48ab-b659-7790021c5003",
    "country_code": "AR",
    "country_name": "Argentina",
    "state_code": "D",
    "latitude": "-33.29620420",
    "longitude": "-66.32949480"
  },
  {
    "id": "f1e6f8d2-d430-40d4-8405-cdfea0be1b14",
    "name": "Santa Cruz",
    "country_id": "52b11d38-fe9d-48ab-b659-7790021c5003",
    "country_code": "AR",
    "country_name": "Argentina",
    "state_code": "Z",
    "latitude": "-51.63528210",
    "longitude": "-69.24743530"
  },
  {
    "id": "a07455df-fba3-4f89-bbeb-b0eac8014a6f",
    "name": "Santa Fe",
    "country_id": "52b11d38-fe9d-48ab-b659-7790021c5003",
    "country_code": "AR",
    "country_name": "Argentina",
    "state_code": "S",
    "latitude": "-31.58551090",
    "longitude": "-60.72380160"
  },
  {
    "id": "7e720959-59e1-4c53-be71-b3c2da4a91f7",
    "name": "Santiago del Estero",
    "country_id": "52b11d38-fe9d-48ab-b659-7790021c5003",
    "country_code": "AR",
    "country_name": "Argentina",
    "state_code": "G",
    "latitude": "-27.78335740",
    "longitude": "-64.26416700"
  },
  {
    "id": "95aae391-902c-4d3c-a9eb-0a7095790f4e",
    "name": "Tierra del Fuego",
    "country_id": "52b11d38-fe9d-48ab-b659-7790021c5003",
    "country_code": "AR",
    "country_name": "Argentina",
    "state_code": "V",
    "latitude": "-54.80539980",
    "longitude": "-68.32420610"
  },
  {
    "id": "fd255828-23ac-47e1-9163-23339448f3dc",
    "name": "Tucumán",
    "country_id": "52b11d38-fe9d-48ab-b659-7790021c5003",
    "country_code": "AR",
    "country_name": "Argentina",
    "state_code": "T",
    "latitude": "-26.82211270",
    "longitude": "-65.21929030"
  },
  {
    "id": "673bdd3e-aadc-4078-86f4-564b238d58b2",
    "name": "Aragatsotn Region",
    "country_id": "3ef9013e-ffb1-41e7-882a-a85cec0d648d",
    "country_code": "AM",
    "country_name": "Armenia",
    "state_code": "AG",
    "latitude": "40.33473010",
    "longitude": "44.37482960"
  },
  {
    "id": "187f6911-bd41-4869-84f1-7f0a8ae5b445",
    "name": "Ararat Province",
    "country_id": "3ef9013e-ffb1-41e7-882a-a85cec0d648d",
    "country_code": "AM",
    "country_name": "Armenia",
    "state_code": "AR",
    "latitude": "39.91394150",
    "longitude": "44.72000040"
  },
  {
    "id": "57ed9882-35ee-48d3-80c0-2dd8dc8d1350",
    "name": "Armavir Region",
    "country_id": "3ef9013e-ffb1-41e7-882a-a85cec0d648d",
    "country_code": "AM",
    "country_name": "Armenia",
    "state_code": "AV",
    "latitude": "40.15546310",
    "longitude": "44.03724460"
  },
  {
    "id": "288755a1-f7b0-4ebe-8043-eaf444e249cd",
    "name": "Gegharkunik Province",
    "country_id": "3ef9013e-ffb1-41e7-882a-a85cec0d648d",
    "country_code": "AM",
    "country_name": "Armenia",
    "state_code": "GR",
    "latitude": "40.35264260",
    "longitude": "45.12604140"
  },
  {
    "id": "9e321b7e-3043-4481-ac69-26b347457713",
    "name": "Kotayk Region",
    "country_id": "3ef9013e-ffb1-41e7-882a-a85cec0d648d",
    "country_code": "AM",
    "country_name": "Armenia",
    "state_code": "KT",
    "latitude": "40.54102140",
    "longitude": "44.76901480"
  },
  {
    "id": "2ad4388c-3ded-42d1-a91e-3986a4455fbc",
    "name": "Lori Region",
    "country_id": "3ef9013e-ffb1-41e7-882a-a85cec0d648d",
    "country_code": "AM",
    "country_name": "Armenia",
    "state_code": "LO",
    "latitude": "40.96984520",
    "longitude": "44.49001380"
  },
  {
    "id": "fc7f8d1f-0c70-4936-86a3-3e89960bbf35",
    "name": "Shirak Region",
    "country_id": "3ef9013e-ffb1-41e7-882a-a85cec0d648d",
    "country_code": "AM",
    "country_name": "Armenia",
    "state_code": "SH",
    "latitude": "40.96308140",
    "longitude": "43.81024610"
  },
  {
    "id": "abf0cda1-e45f-451a-8169-3a14cf29474f",
    "name": "Syunik Province",
    "country_id": "3ef9013e-ffb1-41e7-882a-a85cec0d648d",
    "country_code": "AM",
    "country_name": "Armenia",
    "state_code": "SU",
    "latitude": "39.51331120",
    "longitude": "46.33932340"
  },
  {
    "id": "cdb5cbe0-6186-48ad-a091-bc459c085261",
    "name": "Tavush Region",
    "country_id": "3ef9013e-ffb1-41e7-882a-a85cec0d648d",
    "country_code": "AM",
    "country_name": "Armenia",
    "state_code": "TV",
    "latitude": "40.88662960",
    "longitude": "45.33934900"
  },
  {
    "id": "5f7b461c-8142-4b4b-b560-6766c6b86946",
    "name": "Vayots Dzor Region",
    "country_id": "3ef9013e-ffb1-41e7-882a-a85cec0d648d",
    "country_code": "AM",
    "country_name": "Armenia",
    "state_code": "VD",
    "latitude": "39.76419960",
    "longitude": "45.33375280"
  },
  {
    "id": "83606674-01cf-4e7e-bc3b-a70bc8be7a6f",
    "name": "Yerevan",
    "country_id": "3ef9013e-ffb1-41e7-882a-a85cec0d648d",
    "country_code": "AM",
    "country_name": "Armenia",
    "state_code": "ER",
    "latitude": "40.18720230",
    "longitude": "44.51520900"
  },
  {
    "id": "cca8175d-e86e-4032-85e1-d6e89961df13",
    "name": "Australian Capital Territory",
    "country_id": "d92c5d95-060a-40ec-a64d-26dbd9202680",
    "country_code": "AU",
    "country_name": "Australia",
    "state_code": "ACT",
    "latitude": "-35.47346790",
    "longitude": "149.01236790"
  },
  {
    "id": "acee24b4-21eb-4208-8d27-5c3d89bd8f35",
    "name": "New South Wales",
    "country_id": "d92c5d95-060a-40ec-a64d-26dbd9202680",
    "country_code": "AU",
    "country_name": "Australia",
    "state_code": "NSW",
    "latitude": "-31.25321830",
    "longitude": "146.92109900"
  },
  {
    "id": "6c303eaf-737f-42a3-b605-20292d09bae6",
    "name": "Northern Territory",
    "country_id": "d92c5d95-060a-40ec-a64d-26dbd9202680",
    "country_code": "AU",
    "country_name": "Australia",
    "state_code": "NT",
    "latitude": "-19.49141080",
    "longitude": "132.55096030"
  },
  {
    "id": "012a77c7-9332-445a-925b-30f6b05c4b33",
    "name": "Queensland",
    "country_id": "d92c5d95-060a-40ec-a64d-26dbd9202680",
    "country_code": "AU",
    "country_name": "Australia",
    "state_code": "QLD",
    "latitude": "-20.91757380",
    "longitude": "142.70279560"
  },
  {
    "id": "7d114803-06d1-485f-b922-69ac5ed29489",
    "name": "South Australia",
    "country_id": "d92c5d95-060a-40ec-a64d-26dbd9202680",
    "country_code": "AU",
    "country_name": "Australia",
    "state_code": "SA",
    "latitude": "-30.00023150",
    "longitude": "136.20915470"
  },
  {
    "id": "6f30169a-4a98-453c-9201-9fea45f789db",
    "name": "Tasmania",
    "country_id": "d92c5d95-060a-40ec-a64d-26dbd9202680",
    "country_code": "AU",
    "country_name": "Australia",
    "state_code": "TAS",
    "latitude": "-41.45451960",
    "longitude": "145.97066470"
  },
  {
    "id": "8e7b1202-d959-4b7d-a5ce-8bab04d97df5",
    "name": "Victoria",
    "country_id": "d92c5d95-060a-40ec-a64d-26dbd9202680",
    "country_code": "AU",
    "country_name": "Australia",
    "state_code": "VIC",
    "latitude": "-36.48564230",
    "longitude": "140.97794250"
  },
  {
    "id": "40e81972-5e21-4edd-9634-8486f3360854",
    "name": "Western Australia",
    "country_id": "d92c5d95-060a-40ec-a64d-26dbd9202680",
    "country_code": "AU",
    "country_name": "Australia",
    "state_code": "WA",
    "latitude": "-27.67281680",
    "longitude": "121.62830980"
  },
  {
    "id": "bf3f34f8-8cee-4d6d-ad33-47d7e3f2dc5b",
    "name": "Burgenland",
    "country_id": "32e8ee2f-d457-450d-8dc4-6010bf86e424",
    "country_code": "AT",
    "country_name": "Austria",
    "state_code": "1",
    "latitude": "47.15371650",
    "longitude": "16.26887970"
  },
  {
    "id": "1338b0fd-5a4e-4b38-9829-652aa228f901",
    "name": "Carinthia",
    "country_id": "32e8ee2f-d457-450d-8dc4-6010bf86e424",
    "country_code": "AT",
    "country_name": "Austria",
    "state_code": "2",
    "latitude": "46.72220300",
    "longitude": "14.18058820"
  },
  {
    "id": "fb9fd135-12e5-4ba4-98cb-53418157ab70",
    "name": "Lower Austria",
    "country_id": "32e8ee2f-d457-450d-8dc4-6010bf86e424",
    "country_code": "AT",
    "country_name": "Austria",
    "state_code": "3",
    "latitude": "48.10807700",
    "longitude": "15.80495580"
  },
  {
    "id": "dd1f848f-a552-46a0-b6c9-df4c53f12e7a",
    "name": "Salzburg",
    "country_id": "32e8ee2f-d457-450d-8dc4-6010bf86e424",
    "country_code": "AT",
    "country_name": "Austria",
    "state_code": "5",
    "latitude": "47.80949000",
    "longitude": "13.05501000"
  },
  {
    "id": "c7bd530d-8805-46f7-b937-e25d154b767e",
    "name": "Styria",
    "country_id": "32e8ee2f-d457-450d-8dc4-6010bf86e424",
    "country_code": "AT",
    "country_name": "Austria",
    "state_code": "6",
    "latitude": "47.35934420",
    "longitude": "14.46998270"
  },
  {
    "id": "996578fa-fe81-4f94-b389-2dc336757486",
    "name": "Tyrol",
    "country_id": "32e8ee2f-d457-450d-8dc4-6010bf86e424",
    "country_code": "AT",
    "country_name": "Austria",
    "state_code": "7",
    "latitude": "47.25374140",
    "longitude": "11.60148700"
  },
  {
    "id": "70459a39-3bd8-4112-b3c9-a3722880b469",
    "name": "Upper Austria",
    "country_id": "32e8ee2f-d457-450d-8dc4-6010bf86e424",
    "country_code": "AT",
    "country_name": "Austria",
    "state_code": "4",
    "latitude": "48.02585400",
    "longitude": "13.97236650"
  },
  {
    "id": "8d9bd406-4f89-4d0a-90c7-36becf376a97",
    "name": "Vienna",
    "country_id": "32e8ee2f-d457-450d-8dc4-6010bf86e424",
    "country_code": "AT",
    "country_name": "Austria",
    "state_code": "9",
    "latitude": "48.20817430",
    "longitude": "16.37381890"
  },
  {
    "id": "bedcfa2f-a9eb-443e-b113-16b5b7ae8916",
    "name": "Vorarlberg",
    "country_id": "32e8ee2f-d457-450d-8dc4-6010bf86e424",
    "country_code": "AT",
    "country_name": "Austria",
    "state_code": "8",
    "latitude": "47.24974270",
    "longitude": "9.97973730"
  },
  {
    "id": "75be79ae-4323-40ca-b3f6-fe057e55bb5c",
    "name": "Absheron District",
    "country_id": "13e7b0c5-8bf3-4116-b01e-a679353706ef",
    "country_code": "AZ",
    "country_name": "Azerbaijan",
    "state_code": "ABS",
    "latitude": "40.36296930",
    "longitude": "49.27368150"
  },
  {
    "id": "5aa0c5f7-7b97-400f-8b21-d138d249b6e0",
    "name": "Agdam District",
    "country_id": "13e7b0c5-8bf3-4116-b01e-a679353706ef",
    "country_code": "AZ",
    "country_name": "Azerbaijan",
    "state_code": "AGM",
    "latitude": "39.99318530",
    "longitude": "46.99495620"
  },
  {
    "id": "aa6120e9-2ccf-4854-97a4-cc16de2f9fd0",
    "name": "Agdash District",
    "country_id": "13e7b0c5-8bf3-4116-b01e-a679353706ef",
    "country_code": "AZ",
    "country_name": "Azerbaijan",
    "state_code": "AGS",
    "latitude": "40.63354270",
    "longitude": "47.46743100"
  },
  {
    "id": "23abd130-8f59-4d45-a583-c54d7ca552ca",
    "name": "Aghjabadi District",
    "country_id": "13e7b0c5-8bf3-4116-b01e-a679353706ef",
    "country_code": "AZ",
    "country_name": "Azerbaijan",
    "state_code": "AGC",
    "latitude": "28.78918410",
    "longitude": "77.51607880"
  },
  {
    "id": "5467fe4d-4e14-42b4-8b53-4e2cf216f95b",
    "name": "Agstafa District",
    "country_id": "13e7b0c5-8bf3-4116-b01e-a679353706ef",
    "country_code": "AZ",
    "country_name": "Azerbaijan",
    "state_code": "AGA",
    "latitude": "41.26559330",
    "longitude": "45.51342910"
  },
  {
    "id": "239f8ec3-2483-4535-b748-b0f77500a607",
    "name": "Agsu District",
    "country_id": "13e7b0c5-8bf3-4116-b01e-a679353706ef",
    "country_code": "AZ",
    "country_name": "Azerbaijan",
    "state_code": "AGU",
    "latitude": "40.52833390",
    "longitude": "48.36508350"
  },
  {
    "id": "0c7dfe6a-8345-466c-b6fd-847686104b9d",
    "name": "Astara District",
    "country_id": "13e7b0c5-8bf3-4116-b01e-a679353706ef",
    "country_code": "AZ",
    "country_name": "Azerbaijan",
    "state_code": "AST",
    "latitude": "38.49378450",
    "longitude": "48.69443650"
  },
  {
    "id": "e348227b-88bc-4a2f-bd89-00a79fe78652",
    "name": "Babek District",
    "country_id": "13e7b0c5-8bf3-4116-b01e-a679353706ef",
    "country_code": "AZ",
    "country_name": "Azerbaijan",
    "state_code": "BAB",
    "latitude": "39.15076130",
    "longitude": "45.44853680"
  },
  {
    "id": "037dd255-db8b-4de1-85e5-df8a61286cec",
    "name": "Baku",
    "country_id": "13e7b0c5-8bf3-4116-b01e-a679353706ef",
    "country_code": "AZ",
    "country_name": "Azerbaijan",
    "state_code": "BA",
    "latitude": "40.40926170",
    "longitude": "49.86709240"
  },
  {
    "id": "3f932d43-da25-45c4-85ef-c7d7a59f65c3",
    "name": "Balakan District",
    "country_id": "13e7b0c5-8bf3-4116-b01e-a679353706ef",
    "country_code": "AZ",
    "country_name": "Azerbaijan",
    "state_code": "BAL",
    "latitude": "41.70375090",
    "longitude": "46.40442130"
  },
  {
    "id": "1e44f199-b7e1-4dd0-98f2-05ea8aa4ed5f",
    "name": "Barda District",
    "country_id": "13e7b0c5-8bf3-4116-b01e-a679353706ef",
    "country_code": "AZ",
    "country_name": "Azerbaijan",
    "state_code": "BAR",
    "latitude": "40.37065550",
    "longitude": "47.13789090"
  },
  {
    "id": "31f8bd8b-a817-4bdf-a186-73003897f68f",
    "name": "Beylagan District",
    "country_id": "13e7b0c5-8bf3-4116-b01e-a679353706ef",
    "country_code": "AZ",
    "country_name": "Azerbaijan",
    "state_code": "BEY",
    "latitude": "39.77230730",
    "longitude": "47.61541660"
  },
  {
    "id": "0dba616a-9144-426a-a8de-19f2177253a2",
    "name": "Bilasuvar District",
    "country_id": "13e7b0c5-8bf3-4116-b01e-a679353706ef",
    "country_code": "AZ",
    "country_name": "Azerbaijan",
    "state_code": "BIL",
    "latitude": "39.45988330",
    "longitude": "48.55098130"
  },
  {
    "id": "657b5483-a050-4bae-9456-a670754fb825",
    "name": "Dashkasan District",
    "country_id": "13e7b0c5-8bf3-4116-b01e-a679353706ef",
    "country_code": "AZ",
    "country_name": "Azerbaijan",
    "state_code": "DAS",
    "latitude": "40.52022570",
    "longitude": "46.07793040"
  },
  {
    "id": "9f639084-4a73-420e-9ab2-d40d9c2f7ff2",
    "name": "Fizuli District",
    "country_id": "13e7b0c5-8bf3-4116-b01e-a679353706ef",
    "country_code": "AZ",
    "country_name": "Azerbaijan",
    "state_code": "FUZ",
    "latitude": "39.53786050",
    "longitude": "47.30338770"
  },
  {
    "id": "896efd38-facb-4ee3-8a07-8fb221669830",
    "name": "Ganja",
    "country_id": "13e7b0c5-8bf3-4116-b01e-a679353706ef",
    "country_code": "AZ",
    "country_name": "Azerbaijan",
    "state_code": "GA",
    "latitude": "36.36873380",
    "longitude": "-95.99857670"
  },
  {
    "id": "9ffb309a-d95e-491b-add6-2c9799d0c6a0",
    "name": "Gədəbəy",
    "country_id": "13e7b0c5-8bf3-4116-b01e-a679353706ef",
    "country_code": "AZ",
    "country_name": "Azerbaijan",
    "state_code": "GAD",
    "latitude": "40.56996390",
    "longitude": "45.81068830"
  },
  {
    "id": "a8b571ea-7c44-420e-aece-628ab72a9e73",
    "name": "Gobustan District",
    "country_id": "13e7b0c5-8bf3-4116-b01e-a679353706ef",
    "country_code": "AZ",
    "country_name": "Azerbaijan",
    "state_code": "QOB",
    "latitude": "40.53261040",
    "longitude": "48.92737500"
  },
  {
    "id": "ae48a2f6-3026-4a87-9c95-25a771bb0065",
    "name": "Goranboy District",
    "country_id": "13e7b0c5-8bf3-4116-b01e-a679353706ef",
    "country_code": "AZ",
    "country_name": "Azerbaijan",
    "state_code": "GOR",
    "latitude": "40.53805060",
    "longitude": "46.59908910"
  },
  {
    "id": "476bf540-45ff-4a3e-a6d9-e0017e96ed60",
    "name": "Goychay",
    "country_id": "13e7b0c5-8bf3-4116-b01e-a679353706ef",
    "country_code": "AZ",
    "country_name": "Azerbaijan",
    "state_code": "GOY",
    "latitude": "40.62361680",
    "longitude": "47.74030340"
  },
  {
    "id": "440295a2-0ef9-4c04-910f-4ec2076ebe6f",
    "name": "Goygol District",
    "country_id": "13e7b0c5-8bf3-4116-b01e-a679353706ef",
    "country_code": "AZ",
    "country_name": "Azerbaijan",
    "state_code": "GYG",
    "latitude": "40.55953780",
    "longitude": "46.33149530"
  },
  {
    "id": "be044a92-a29e-4df7-90b5-c59145655a53",
    "name": "Hajigabul District",
    "country_id": "13e7b0c5-8bf3-4116-b01e-a679353706ef",
    "country_code": "AZ",
    "country_name": "Azerbaijan",
    "state_code": "HAC",
    "latitude": "40.03937700",
    "longitude": "48.92025330"
  },
  {
    "id": "cfae6e7e-1c99-445e-bf47-8f4307c559d7",
    "name": "Imishli District",
    "country_id": "13e7b0c5-8bf3-4116-b01e-a679353706ef",
    "country_code": "AZ",
    "country_name": "Azerbaijan",
    "state_code": "IMI",
    "latitude": "39.86946860",
    "longitude": "48.06652180"
  },
  {
    "id": "75d007cb-b83b-473b-a74d-cae791e6cb24",
    "name": "Ismailli District",
    "country_id": "13e7b0c5-8bf3-4116-b01e-a679353706ef",
    "country_code": "AZ",
    "country_name": "Azerbaijan",
    "state_code": "ISM",
    "latitude": "40.74299360",
    "longitude": "48.21255560"
  },
  {
    "id": "1ea9f0d7-99b0-4f3b-87f7-aebd5f250106",
    "name": "Jabrayil District",
    "country_id": "13e7b0c5-8bf3-4116-b01e-a679353706ef",
    "country_code": "AZ",
    "country_name": "Azerbaijan",
    "state_code": "CAB",
    "latitude": "39.26455440",
    "longitude": "46.96215620"
  },
  {
    "id": "5c7c57db-a3ed-4e37-8ee7-0a55c25c731d",
    "name": "Jalilabad District",
    "country_id": "13e7b0c5-8bf3-4116-b01e-a679353706ef",
    "country_code": "AZ",
    "country_name": "Azerbaijan",
    "state_code": "CAL",
    "latitude": "39.20516320",
    "longitude": "48.51006040"
  },
  {
    "id": "8971c4b5-247c-460a-88d0-3cc7aa80fb95",
    "name": "Julfa District",
    "country_id": "13e7b0c5-8bf3-4116-b01e-a679353706ef",
    "country_code": "AZ",
    "country_name": "Azerbaijan",
    "state_code": "CUL",
    "latitude": "38.96049830",
    "longitude": "45.62929390"
  },
  {
    "id": "be250ab5-5f38-41e1-a335-b18cf87d59ed",
    "name": "Kalbajar District",
    "country_id": "13e7b0c5-8bf3-4116-b01e-a679353706ef",
    "country_code": "AZ",
    "country_name": "Azerbaijan",
    "state_code": "KAL",
    "latitude": "40.10243290",
    "longitude": "46.03648720"
  },
  {
    "id": "715d89c9-a28d-4171-aac2-7562ecc826f5",
    "name": "Kangarli District",
    "country_id": "13e7b0c5-8bf3-4116-b01e-a679353706ef",
    "country_code": "AZ",
    "country_name": "Azerbaijan",
    "state_code": "KAN",
    "latitude": "39.38719400",
    "longitude": "45.16398520"
  },
  {
    "id": "a563ce26-3846-4f34-9363-eec9bed64efc",
    "name": "Khachmaz District",
    "country_id": "13e7b0c5-8bf3-4116-b01e-a679353706ef",
    "country_code": "AZ",
    "country_name": "Azerbaijan",
    "state_code": "XAC",
    "latitude": "41.45911680",
    "longitude": "48.80206260"
  },
  {
    "id": "18365026-b0a5-4b52-a6fd-f3660bbeb414",
    "name": "Khizi District",
    "country_id": "13e7b0c5-8bf3-4116-b01e-a679353706ef",
    "country_code": "AZ",
    "country_name": "Azerbaijan",
    "state_code": "XIZ",
    "latitude": "40.91094890",
    "longitude": "49.07292640"
  },
  {
    "id": "f10f7f8f-cfad-49a8-a415-3bbf4374d1c6",
    "name": "Khojali District",
    "country_id": "13e7b0c5-8bf3-4116-b01e-a679353706ef",
    "country_code": "AZ",
    "country_name": "Azerbaijan",
    "state_code": "XCI",
    "latitude": "39.91325530",
    "longitude": "46.79430500"
  },
  {
    "id": "76ae8d5e-1e16-43cb-a63c-8953de7f262a",
    "name": "Kurdamir District",
    "country_id": "13e7b0c5-8bf3-4116-b01e-a679353706ef",
    "country_code": "AZ",
    "country_name": "Azerbaijan",
    "state_code": "KUR",
    "latitude": "40.36986510",
    "longitude": "48.16446260"
  },
  {
    "id": "656a2db2-fd0d-4158-bbf0-9a6515b6cce2",
    "name": "Lachin District",
    "country_id": "13e7b0c5-8bf3-4116-b01e-a679353706ef",
    "country_code": "AZ",
    "country_name": "Azerbaijan",
    "state_code": "LAC",
    "latitude": "39.63834140",
    "longitude": "46.54608530"
  },
  {
    "id": "bc3f451e-c47f-474e-b902-76e03120bcef",
    "name": "Lankaran",
    "country_id": "13e7b0c5-8bf3-4116-b01e-a679353706ef",
    "country_code": "AZ",
    "country_name": "Azerbaijan",
    "state_code": "LAN",
    "latitude": "38.75286690",
    "longitude": "48.84750150"
  },
  {
    "id": "ffb3026e-1b6b-42e9-917a-e2b5130fd779",
    "name": "Lankaran District",
    "country_id": "13e7b0c5-8bf3-4116-b01e-a679353706ef",
    "country_code": "AZ",
    "country_name": "Azerbaijan",
    "state_code": "LA",
    "latitude": "38.75286690",
    "longitude": "48.84750150"
  },
  {
    "id": "27cab679-5fa5-419b-86ec-6d1b80190d17",
    "name": "Lerik District",
    "country_id": "13e7b0c5-8bf3-4116-b01e-a679353706ef",
    "country_code": "AZ",
    "country_name": "Azerbaijan",
    "state_code": "LER",
    "latitude": "38.77361920",
    "longitude": "48.41514830"
  },
  {
    "id": "0c952403-9290-4216-8a71-cbe6cdeda058",
    "name": "Martuni",
    "country_id": "13e7b0c5-8bf3-4116-b01e-a679353706ef",
    "country_code": "AZ",
    "country_name": "Azerbaijan",
    "state_code": "XVD",
    "latitude": "39.79146930",
    "longitude": "47.11008140"
  },
  {
    "id": "1135413a-657e-49d0-b58b-9d96449f5db6",
    "name": "Masally District",
    "country_id": "13e7b0c5-8bf3-4116-b01e-a679353706ef",
    "country_code": "AZ",
    "country_name": "Azerbaijan",
    "state_code": "MAS",
    "latitude": "39.03407220",
    "longitude": "48.65893540"
  },
  {
    "id": "4154b316-796b-4c86-9759-f6aa2d4c9c12",
    "name": "Mingachevir",
    "country_id": "13e7b0c5-8bf3-4116-b01e-a679353706ef",
    "country_code": "AZ",
    "country_name": "Azerbaijan",
    "state_code": "MI",
    "latitude": "40.77025630",
    "longitude": "47.04960150"
  },
  {
    "id": "4528af96-56ff-452b-9217-78cca6921e5e",
    "name": "Nakhchivan Autonomous Republic",
    "country_id": "13e7b0c5-8bf3-4116-b01e-a679353706ef",
    "country_code": "AZ",
    "country_name": "Azerbaijan",
    "state_code": "NX",
    "latitude": "39.32568140",
    "longitude": "45.49126480"
  },
  {
    "id": "c7b3a022-52f1-4530-b5f9-b9f7d7a9e1e4",
    "name": "Neftchala District",
    "country_id": "13e7b0c5-8bf3-4116-b01e-a679353706ef",
    "country_code": "AZ",
    "country_name": "Azerbaijan",
    "state_code": "NEF",
    "latitude": "39.38810520",
    "longitude": "49.24137430"
  },
  {
    "id": "f25a2441-d694-40c8-83a7-aad5f5ba3a41",
    "name": "Oghuz District",
    "country_id": "13e7b0c5-8bf3-4116-b01e-a679353706ef",
    "country_code": "AZ",
    "country_name": "Azerbaijan",
    "state_code": "OGU",
    "latitude": "41.07279240",
    "longitude": "47.46506720"
  },
  {
    "id": "9835938c-fa71-46c3-8ddb-63798175ede2",
    "name": "Ordubad District",
    "country_id": "13e7b0c5-8bf3-4116-b01e-a679353706ef",
    "country_code": "AZ",
    "country_name": "Azerbaijan",
    "state_code": "ORD",
    "latitude": "38.90216220",
    "longitude": "46.02376250"
  },
  {
    "id": "4083b21b-85c8-454b-ac84-bb05d278d26b",
    "name": "Qabala District",
    "country_id": "13e7b0c5-8bf3-4116-b01e-a679353706ef",
    "country_code": "AZ",
    "country_name": "Azerbaijan",
    "state_code": "QAB",
    "latitude": "40.92539250",
    "longitude": "47.80161060"
  },
  {
    "id": "3fa45198-4298-4cb2-b505-2d394f340c4a",
    "name": "Qakh District",
    "country_id": "13e7b0c5-8bf3-4116-b01e-a679353706ef",
    "country_code": "AZ",
    "country_name": "Azerbaijan",
    "state_code": "QAX",
    "latitude": "41.42068270",
    "longitude": "46.93201840"
  },
  {
    "id": "12d0a727-5c4c-4bc9-b28b-973a20a6be14",
    "name": "Qazakh District",
    "country_id": "13e7b0c5-8bf3-4116-b01e-a679353706ef",
    "country_code": "AZ",
    "country_name": "Azerbaijan",
    "state_code": "QAZ",
    "latitude": "41.09710740",
    "longitude": "45.35163310"
  },
  {
    "id": "0fc0550c-aa32-414f-9d10-14737c550cde",
    "name": "Quba District",
    "country_id": "13e7b0c5-8bf3-4116-b01e-a679353706ef",
    "country_code": "AZ",
    "country_name": "Azerbaijan",
    "state_code": "QBA",
    "latitude": "41.15642420",
    "longitude": "48.41350210"
  },
  {
    "id": "ce7c1aef-d454-4c3d-859b-0ab4f2c0a544",
    "name": "Qubadli District",
    "country_id": "13e7b0c5-8bf3-4116-b01e-a679353706ef",
    "country_code": "AZ",
    "country_name": "Azerbaijan",
    "state_code": "QBI",
    "latitude": "39.27139960",
    "longitude": "46.63543120"
  },
  {
    "id": "b9a54347-2d31-4938-b921-0031a6f3671e",
    "name": "Qusar District",
    "country_id": "13e7b0c5-8bf3-4116-b01e-a679353706ef",
    "country_code": "AZ",
    "country_name": "Azerbaijan",
    "state_code": "QUS",
    "latitude": "41.42668860",
    "longitude": "48.43455770"
  },
  {
    "id": "46ce212e-6461-4066-882a-7a44b8a2ab46",
    "name": "Saatly District",
    "country_id": "13e7b0c5-8bf3-4116-b01e-a679353706ef",
    "country_code": "AZ",
    "country_name": "Azerbaijan",
    "state_code": "SAT",
    "latitude": "39.90955030",
    "longitude": "48.35951220"
  },
  {
    "id": "d8356092-b454-424d-ab9c-0ebe0fba4a1a",
    "name": "Sabirabad District",
    "country_id": "13e7b0c5-8bf3-4116-b01e-a679353706ef",
    "country_code": "AZ",
    "country_name": "Azerbaijan",
    "state_code": "SAB",
    "latitude": "39.98706630",
    "longitude": "48.46925450"
  },
  {
    "id": "c45df049-7fb5-472a-9dcb-893f479d54c6",
    "name": "Sadarak District",
    "country_id": "13e7b0c5-8bf3-4116-b01e-a679353706ef",
    "country_code": "AZ",
    "country_name": "Azerbaijan",
    "state_code": "SAD",
    "latitude": "39.71051140",
    "longitude": "44.88642770"
  },
  {
    "id": "c8a58606-0cca-4dd7-8576-e77d370ff85c",
    "name": "Salyan District",
    "country_id": "13e7b0c5-8bf3-4116-b01e-a679353706ef",
    "country_code": "AZ",
    "country_name": "Azerbaijan",
    "state_code": "SAL",
    "latitude": "28.35248110",
    "longitude": "82.12784000"
  },
  {
    "id": "a3a68738-4d4b-4bbe-b960-6bd9b7545bbc",
    "name": "Samukh District",
    "country_id": "13e7b0c5-8bf3-4116-b01e-a679353706ef",
    "country_code": "AZ",
    "country_name": "Azerbaijan",
    "state_code": "SMX",
    "latitude": "40.76046310",
    "longitude": "46.40631810"
  },
  {
    "id": "790e1267-567d-49b7-9f3b-c1d508bc1b2b",
    "name": "Shabran District",
    "country_id": "13e7b0c5-8bf3-4116-b01e-a679353706ef",
    "country_code": "AZ",
    "country_name": "Azerbaijan",
    "state_code": "SBN",
    "latitude": "41.22283760",
    "longitude": "48.84573040"
  },
  {
    "id": "57cea561-737b-4be3-90f6-ef4b579b10b3",
    "name": "Shahbuz District",
    "country_id": "13e7b0c5-8bf3-4116-b01e-a679353706ef",
    "country_code": "AZ",
    "country_name": "Azerbaijan",
    "state_code": "SAH",
    "latitude": "39.44521030",
    "longitude": "45.65680090"
  },
  {
    "id": "bd0018fd-befe-4e05-b6e6-31dd17700730",
    "name": "Shaki",
    "country_id": "13e7b0c5-8bf3-4116-b01e-a679353706ef",
    "country_code": "AZ",
    "country_name": "Azerbaijan",
    "state_code": "SA",
    "latitude": "41.19747530",
    "longitude": "47.15712410"
  },
  {
    "id": "67aa3432-1558-413a-8132-d19b4dbcbc85",
    "name": "Shaki District",
    "country_id": "13e7b0c5-8bf3-4116-b01e-a679353706ef",
    "country_code": "AZ",
    "country_name": "Azerbaijan",
    "state_code": "SAK",
    "latitude": "41.11346620",
    "longitude": "47.13169270"
  },
  {
    "id": "80374759-0ece-44b4-af58-08f6d519c77b",
    "name": "Shamakhi District",
    "country_id": "13e7b0c5-8bf3-4116-b01e-a679353706ef",
    "country_code": "AZ",
    "country_name": "Azerbaijan",
    "state_code": "SMI",
    "latitude": "40.63187310",
    "longitude": "48.63638010"
  },
  {
    "id": "4b156550-d280-4cbb-808c-05ab339d42af",
    "name": "Shamkir District",
    "country_id": "13e7b0c5-8bf3-4116-b01e-a679353706ef",
    "country_code": "AZ",
    "country_name": "Azerbaijan",
    "state_code": "SKR",
    "latitude": "40.82881440",
    "longitude": "46.01668790"
  },
  {
    "id": "8aba1e71-8b46-4e18-9efa-2013e45c8ebd",
    "name": "Sharur District",
    "country_id": "13e7b0c5-8bf3-4116-b01e-a679353706ef",
    "country_code": "AZ",
    "country_name": "Azerbaijan",
    "state_code": "SAR",
    "latitude": "39.55363320",
    "longitude": "44.98456800"
  },
  {
    "id": "41a69a05-c50a-4efc-a376-bd4062799b8c",
    "name": "Shirvan",
    "country_id": "13e7b0c5-8bf3-4116-b01e-a679353706ef",
    "country_code": "AZ",
    "country_name": "Azerbaijan",
    "state_code": "SR",
    "latitude": "39.94697070",
    "longitude": "48.92239190"
  },
  {
    "id": "5323110e-93bd-43f7-a727-988e3a72064f",
    "name": "Shusha District",
    "country_id": "13e7b0c5-8bf3-4116-b01e-a679353706ef",
    "country_code": "AZ",
    "country_name": "Azerbaijan",
    "state_code": "SUS",
    "latitude": "39.75374380",
    "longitude": "46.74647550"
  },
  {
    "id": "138af879-52ec-41ad-bca3-6af998a9e871",
    "name": "Siazan District",
    "country_id": "13e7b0c5-8bf3-4116-b01e-a679353706ef",
    "country_code": "AZ",
    "country_name": "Azerbaijan",
    "state_code": "SIY",
    "latitude": "41.07838330",
    "longitude": "49.11184770"
  },
  {
    "id": "6660b1b8-82b5-4656-ae44-ebaea6bbc86c",
    "name": "Sumqayit",
    "country_id": "13e7b0c5-8bf3-4116-b01e-a679353706ef",
    "country_code": "AZ",
    "country_name": "Azerbaijan",
    "state_code": "SM",
    "latitude": "40.58547650",
    "longitude": "49.63174110"
  },
  {
    "id": "504dc6fd-af8d-44f3-a520-216d3886cb92",
    "name": "Tartar District",
    "country_id": "13e7b0c5-8bf3-4116-b01e-a679353706ef",
    "country_code": "AZ",
    "country_name": "Azerbaijan",
    "state_code": "TAR",
    "latitude": "40.34438750",
    "longitude": "46.93765190"
  },
  {
    "id": "da33b0b0-8588-4b14-a073-52b5d377bc61",
    "name": "Tovuz District",
    "country_id": "13e7b0c5-8bf3-4116-b01e-a679353706ef",
    "country_code": "AZ",
    "country_name": "Azerbaijan",
    "state_code": "TOV",
    "latitude": "40.99545230",
    "longitude": "45.61659070"
  },
  {
    "id": "4618a566-4b58-4af2-8d45-c7a008b5197c",
    "name": "Ujar District",
    "country_id": "13e7b0c5-8bf3-4116-b01e-a679353706ef",
    "country_code": "AZ",
    "country_name": "Azerbaijan",
    "state_code": "UCA",
    "latitude": "40.50675250",
    "longitude": "47.64896410"
  },
  {
    "id": "d9481c46-e9cc-40b5-9f14-96ae59f341cf",
    "name": "Yardymli District",
    "country_id": "13e7b0c5-8bf3-4116-b01e-a679353706ef",
    "country_code": "AZ",
    "country_name": "Azerbaijan",
    "state_code": "YAR",
    "latitude": "38.90589170",
    "longitude": "48.24961270"
  },
  {
    "id": "e80b8c42-6fb3-461c-b5e9-617d8549b10d",
    "name": "Yevlakh",
    "country_id": "13e7b0c5-8bf3-4116-b01e-a679353706ef",
    "country_code": "AZ",
    "country_name": "Azerbaijan",
    "state_code": "YE",
    "latitude": "40.61966380",
    "longitude": "47.15003240"
  },
  {
    "id": "c36d6b6e-72db-412b-9771-09d4c29c3ced",
    "name": "Yevlakh District",
    "country_id": "13e7b0c5-8bf3-4116-b01e-a679353706ef",
    "country_code": "AZ",
    "country_name": "Azerbaijan",
    "state_code": "YEV",
    "latitude": "40.61966380",
    "longitude": "47.15003240"
  },
  {
    "id": "82cbb35e-1674-433f-9ca6-5dd3ad4c2070",
    "name": "Zangilan District",
    "country_id": "13e7b0c5-8bf3-4116-b01e-a679353706ef",
    "country_code": "AZ",
    "country_name": "Azerbaijan",
    "state_code": "ZAN",
    "latitude": "39.08568990",
    "longitude": "46.65247280"
  },
  {
    "id": "4914067f-2fe3-4820-8e9f-359dd6f0bad8",
    "name": "Zaqatala District",
    "country_id": "13e7b0c5-8bf3-4116-b01e-a679353706ef",
    "country_code": "AZ",
    "country_name": "Azerbaijan",
    "state_code": "ZAQ",
    "latitude": "41.59068890",
    "longitude": "46.72403730"
  },
  {
    "id": "c92eced0-7780-456a-8bea-e9ac770627d7",
    "name": "Zardab District",
    "country_id": "13e7b0c5-8bf3-4116-b01e-a679353706ef",
    "country_code": "AZ",
    "country_name": "Azerbaijan",
    "state_code": "ZAR",
    "latitude": "40.21481140",
    "longitude": "47.71494400"
  },
  {
    "id": "4463abe9-0706-45b7-9112-2068242a1f5e",
    "name": "Capital",
    "country_id": "49a2ff72-adc9-4521-b58c-1a80aa44dd37",
    "country_code": "BH",
    "country_name": "Bahrain",
    "state_code": "13",
    "latitude": null,
    "longitude": null
  },
  {
    "id": "5cae9db6-b9e8-42ef-91e3-83710b40d155",
    "name": "Central",
    "country_id": "49a2ff72-adc9-4521-b58c-1a80aa44dd37",
    "country_code": "BH",
    "country_name": "Bahrain",
    "state_code": "16",
    "latitude": "26.14260930",
    "longitude": "50.56532940"
  },
  {
    "id": "bbf33d6b-5c38-485a-bd51-600bdb7d92c8",
    "name": "Muharraq",
    "country_id": "49a2ff72-adc9-4521-b58c-1a80aa44dd37",
    "country_code": "BH",
    "country_name": "Bahrain",
    "state_code": "15",
    "latitude": "26.26856530",
    "longitude": "50.64825170"
  },
  {
    "id": "653807e9-3b46-4858-b3a7-fe9e7bea031f",
    "name": "Northern",
    "country_id": "49a2ff72-adc9-4521-b58c-1a80aa44dd37",
    "country_code": "BH",
    "country_name": "Bahrain",
    "state_code": "17",
    "latitude": "26.15519140",
    "longitude": "50.48251730"
  },
  {
    "id": "e33bcc17-2b66-4b61-af0d-d7d84002cb8a",
    "name": "Southern",
    "country_id": "49a2ff72-adc9-4521-b58c-1a80aa44dd37",
    "country_code": "BH",
    "country_name": "Bahrain",
    "state_code": "14",
    "latitude": "25.93810180",
    "longitude": "50.57568870"
  },
  {
    "id": "91a76fb2-0932-4e53-9c7d-a2372a08a8d2",
    "name": "Bagerhat District",
    "country_id": "df8ce1b2-40fd-4a23-adbe-41ad7b327661",
    "country_code": "BD",
    "country_name": "Bangladesh",
    "state_code": "05",
    "latitude": "22.66024360",
    "longitude": "89.78954780"
  },
  {
    "id": "2c071c16-9183-46a5-a73d-7b9ffeefa325",
    "name": "Bahadia",
    "country_id": "df8ce1b2-40fd-4a23-adbe-41ad7b327661",
    "country_code": "BD",
    "country_name": "Bangladesh",
    "state_code": "33",
    "latitude": "23.78987120",
    "longitude": "90.16714830"
  },
  {
    "id": "78dfd275-d015-4a9e-98e5-b37aa6e3e4b9",
    "name": "Bandarban District",
    "country_id": "df8ce1b2-40fd-4a23-adbe-41ad7b327661",
    "country_code": "BD",
    "country_name": "Bangladesh",
    "state_code": "01",
    "latitude": "21.83110020",
    "longitude": "92.36863210"
  },
  {
    "id": "f576ae04-5106-480d-9f2e-710452a426ec",
    "name": "Barguna District",
    "country_id": "df8ce1b2-40fd-4a23-adbe-41ad7b327661",
    "country_code": "BD",
    "country_name": "Bangladesh",
    "state_code": "02",
    "latitude": "22.09529150",
    "longitude": "90.11206960"
  },
  {
    "id": "5575b86c-65cd-40b3-84a0-8bc19648dba5",
    "name": "Barisal District",
    "country_id": "df8ce1b2-40fd-4a23-adbe-41ad7b327661",
    "country_code": "BD",
    "country_name": "Bangladesh",
    "state_code": "06",
    "latitude": "22.70220980",
    "longitude": "90.36963160"
  },
  {
    "id": "4c475f2e-2f85-464a-bfb2-21a2a46c268d",
    "name": "Barisal Division",
    "country_id": "df8ce1b2-40fd-4a23-adbe-41ad7b327661",
    "country_code": "BD",
    "country_name": "Bangladesh",
    "state_code": "A",
    "latitude": "22.38111310",
    "longitude": "90.33718890"
  },
  {
    "id": "9cdc30a5-fd13-4a3c-bd2b-890c8ee0bfe8",
    "name": "Bhola District",
    "country_id": "df8ce1b2-40fd-4a23-adbe-41ad7b327661",
    "country_code": "BD",
    "country_name": "Bangladesh",
    "state_code": "07",
    "latitude": "22.17853150",
    "longitude": "90.71010230"
  },
  {
    "id": "9d1dd4ba-90df-4946-a62e-b7d5c873f583",
    "name": "Bogra District",
    "country_id": "df8ce1b2-40fd-4a23-adbe-41ad7b327661",
    "country_code": "BD",
    "country_name": "Bangladesh",
    "state_code": "03",
    "latitude": "24.85104020",
    "longitude": "89.36972250"
  },
  {
    "id": "231be485-6f66-4e28-abfb-c26d5f5053f3",
    "name": "Brahmanbaria District",
    "country_id": "df8ce1b2-40fd-4a23-adbe-41ad7b327661",
    "country_code": "BD",
    "country_name": "Bangladesh",
    "state_code": "04",
    "latitude": "23.96081810",
    "longitude": "91.11150140"
  },
  {
    "id": "51684a66-f8c1-40b0-932b-ad202c3e810f",
    "name": "Chandpur District",
    "country_id": "df8ce1b2-40fd-4a23-adbe-41ad7b327661",
    "country_code": "BD",
    "country_name": "Bangladesh",
    "state_code": "09",
    "latitude": "23.25131480",
    "longitude": "90.85178460"
  },
  {
    "id": "9baa9d11-e55f-43ec-a436-6603f68afe36",
    "name": "Chapai Nawabganj District",
    "country_id": "df8ce1b2-40fd-4a23-adbe-41ad7b327661",
    "country_code": "BD",
    "country_name": "Bangladesh",
    "state_code": "45",
    "latitude": "24.74131110",
    "longitude": "88.29120690"
  },
  {
    "id": "06f138bf-58eb-467d-a3fa-3ed503be109b",
    "name": "Chittagong District",
    "country_id": "df8ce1b2-40fd-4a23-adbe-41ad7b327661",
    "country_code": "BD",
    "country_name": "Bangladesh",
    "state_code": "10",
    "latitude": "22.51501050",
    "longitude": "91.75388170"
  },
  {
    "id": "e15b7cbb-0fb6-4580-ae6c-107d8ddc3098",
    "name": "Chittagong Division",
    "country_id": "df8ce1b2-40fd-4a23-adbe-41ad7b327661",
    "country_code": "BD",
    "country_name": "Bangladesh",
    "state_code": "B",
    "latitude": "23.17931570",
    "longitude": "91.98815270"
  },
  {
    "id": "56b29cee-49d7-4d57-99ff-1ce61e1a8e58",
    "name": "Chuadanga District",
    "country_id": "df8ce1b2-40fd-4a23-adbe-41ad7b327661",
    "country_code": "BD",
    "country_name": "Bangladesh",
    "state_code": "12",
    "latitude": "23.61605120",
    "longitude": "88.82630060"
  },
  {
    "id": "47965871-8b8c-45eb-94d1-b256dbd5f7df",
    "name": "Comilla District",
    "country_id": "df8ce1b2-40fd-4a23-adbe-41ad7b327661",
    "country_code": "BD",
    "country_name": "Bangladesh",
    "state_code": "08",
    "latitude": "23.45756670",
    "longitude": "91.18089960"
  },
  {
    "id": "263f66af-0c8d-4377-a679-dad34e3ae434",
    "name": "Cox's Bazar District",
    "country_id": "df8ce1b2-40fd-4a23-adbe-41ad7b327661",
    "country_code": "BD",
    "country_name": "Bangladesh",
    "state_code": "11",
    "latitude": "21.56406260",
    "longitude": "92.02821290"
  },
  {
    "id": "9468332a-fd61-4419-b604-118d3d2028d9",
    "name": "Dhaka District",
    "country_id": "df8ce1b2-40fd-4a23-adbe-41ad7b327661",
    "country_code": "BD",
    "country_name": "Bangladesh",
    "state_code": "13",
    "latitude": "23.81051400",
    "longitude": "90.33718890"
  },
  {
    "id": "5a95df19-6e86-4c1f-883f-f3ba62e237e6",
    "name": "Dhaka Division",
    "country_id": "df8ce1b2-40fd-4a23-adbe-41ad7b327661",
    "country_code": "BD",
    "country_name": "Bangladesh",
    "state_code": "C",
    "latitude": "23.95357420",
    "longitude": "90.14949880"
  },
  {
    "id": "6ab3f957-1548-46a1-9bae-117c6fe649eb",
    "name": "Dinajpur District",
    "country_id": "df8ce1b2-40fd-4a23-adbe-41ad7b327661",
    "country_code": "BD",
    "country_name": "Bangladesh",
    "state_code": "14",
    "latitude": "25.62791230",
    "longitude": "88.63317580"
  },
  {
    "id": "6aa77370-a47e-4677-bbed-bf4a3c0d6730",
    "name": "Faridpur District",
    "country_id": "df8ce1b2-40fd-4a23-adbe-41ad7b327661",
    "country_code": "BD",
    "country_name": "Bangladesh",
    "state_code": "15",
    "latitude": "23.54239190",
    "longitude": "89.63089210"
  },
  {
    "id": "fbbf6448-1608-40da-8833-faee86fe69c3",
    "name": "Feni District",
    "country_id": "df8ce1b2-40fd-4a23-adbe-41ad7b327661",
    "country_code": "BD",
    "country_name": "Bangladesh",
    "state_code": "16",
    "latitude": "22.94087840",
    "longitude": "91.40666460"
  },
  {
    "id": "776b27ea-83fa-4b8c-bae1-8b68b1931259",
    "name": "Gaibandha District",
    "country_id": "df8ce1b2-40fd-4a23-adbe-41ad7b327661",
    "country_code": "BD",
    "country_name": "Bangladesh",
    "state_code": "19",
    "latitude": "25.32969280",
    "longitude": "89.54296520"
  },
  {
    "id": "ada11ea4-611e-4c2d-985e-3a733c194a14",
    "name": "Gazipur District",
    "country_id": "df8ce1b2-40fd-4a23-adbe-41ad7b327661",
    "country_code": "BD",
    "country_name": "Bangladesh",
    "state_code": "18",
    "latitude": "24.09581710",
    "longitude": "90.41251810"
  },
  {
    "id": "8630a3cd-5865-44d4-a307-e5e1d1f48947",
    "name": "Gopalganj District",
    "country_id": "df8ce1b2-40fd-4a23-adbe-41ad7b327661",
    "country_code": "BD",
    "country_name": "Bangladesh",
    "state_code": "17",
    "latitude": "26.48315840",
    "longitude": "84.43655000"
  },
  {
    "id": "66e77fc5-d9f9-4ed3-a2f8-e1dfd2c4b199",
    "name": "Habiganj District",
    "country_id": "df8ce1b2-40fd-4a23-adbe-41ad7b327661",
    "country_code": "BD",
    "country_name": "Bangladesh",
    "state_code": "20",
    "latitude": "24.47712360",
    "longitude": "91.45065650"
  },
  {
    "id": "46915489-0238-40ea-b17f-e1eb8b2c1b40",
    "name": "Jamalpur District",
    "country_id": "df8ce1b2-40fd-4a23-adbe-41ad7b327661",
    "country_code": "BD",
    "country_name": "Bangladesh",
    "state_code": "21",
    "latitude": "25.08309260",
    "longitude": "89.78532180"
  },
  {
    "id": "3fdeec13-786c-405d-bf8c-74ec454c5f7f",
    "name": "Jessore District",
    "country_id": "df8ce1b2-40fd-4a23-adbe-41ad7b327661",
    "country_code": "BD",
    "country_name": "Bangladesh",
    "state_code": "22",
    "latitude": "23.16340140",
    "longitude": "89.21816640"
  },
  {
    "id": "b9b09980-7a6d-4e7a-845c-5ca10bd890aa",
    "name": "Jhalokati District",
    "country_id": "df8ce1b2-40fd-4a23-adbe-41ad7b327661",
    "country_code": "BD",
    "country_name": "Bangladesh",
    "state_code": "25",
    "latitude": "22.57208000",
    "longitude": "90.18696440"
  },
  {
    "id": "4a54c2d2-5fa2-4ea8-bdc8-9c1770ee3b0b",
    "name": "Jhenaidah District",
    "country_id": "df8ce1b2-40fd-4a23-adbe-41ad7b327661",
    "country_code": "BD",
    "country_name": "Bangladesh",
    "state_code": "23",
    "latitude": "23.54498730",
    "longitude": "89.17260310"
  },
  {
    "id": "0d859067-09ce-45c0-9842-1e2a75e9f6c8",
    "name": "Joypurhat District",
    "country_id": "df8ce1b2-40fd-4a23-adbe-41ad7b327661",
    "country_code": "BD",
    "country_name": "Bangladesh",
    "state_code": "24",
    "latitude": "25.09473490",
    "longitude": "89.09449370"
  },
  {
    "id": "f342cea7-7e79-47ee-a265-4a42cc92322b",
    "name": "Khagrachari District",
    "country_id": "df8ce1b2-40fd-4a23-adbe-41ad7b327661",
    "country_code": "BD",
    "country_name": "Bangladesh",
    "state_code": "29",
    "latitude": "23.13217510",
    "longitude": "91.94902100"
  },
  {
    "id": "21bdd227-f379-45b9-a7e7-b3fbaea6a78f",
    "name": "Khulna District",
    "country_id": "df8ce1b2-40fd-4a23-adbe-41ad7b327661",
    "country_code": "BD",
    "country_name": "Bangladesh",
    "state_code": "27",
    "latitude": "22.67377350",
    "longitude": "89.39665810"
  },
  {
    "id": "96a8a26a-ca0c-437b-9f43-7ee56affcc61",
    "name": "Khulna Division",
    "country_id": "df8ce1b2-40fd-4a23-adbe-41ad7b327661",
    "country_code": "BD",
    "country_name": "Bangladesh",
    "state_code": "D",
    "latitude": "22.80878160",
    "longitude": "89.24671910"
  },
  {
    "id": "3b511871-0a76-44e2-9890-e3813f7d7b2e",
    "name": "Kishoreganj District",
    "country_id": "df8ce1b2-40fd-4a23-adbe-41ad7b327661",
    "country_code": "BD",
    "country_name": "Bangladesh",
    "state_code": "26",
    "latitude": "24.42604570",
    "longitude": "90.98206680"
  },
  {
    "id": "b40e6e0f-b6fe-43cf-8123-b6093c027706",
    "name": "Kurigram District",
    "country_id": "df8ce1b2-40fd-4a23-adbe-41ad7b327661",
    "country_code": "BD",
    "country_name": "Bangladesh",
    "state_code": "28",
    "latitude": "25.80724140",
    "longitude": "89.62947460"
  },
  {
    "id": "801927cc-f8a7-4e62-87ec-e217ac88596f",
    "name": "Kushtia District",
    "country_id": "df8ce1b2-40fd-4a23-adbe-41ad7b327661",
    "country_code": "BD",
    "country_name": "Bangladesh",
    "state_code": "30",
    "latitude": "23.89069950",
    "longitude": "89.10993680"
  },
  {
    "id": "8a3e3bfe-60d5-416c-8991-568dd33f0b85",
    "name": "Lakshmipur District",
    "country_id": "df8ce1b2-40fd-4a23-adbe-41ad7b327661",
    "country_code": "BD",
    "country_name": "Bangladesh",
    "state_code": "31",
    "latitude": "22.94467440",
    "longitude": "90.82819070"
  },
  {
    "id": "def6063d-92b6-4c2a-b815-c63a1b623792",
    "name": "Lalmonirhat District",
    "country_id": "df8ce1b2-40fd-4a23-adbe-41ad7b327661",
    "country_code": "BD",
    "country_name": "Bangladesh",
    "state_code": "32",
    "latitude": "25.99233980",
    "longitude": "89.28472510"
  },
  {
    "id": "403c59f9-a2a9-4141-be5a-737876c638a4",
    "name": "Madaripur District",
    "country_id": "df8ce1b2-40fd-4a23-adbe-41ad7b327661",
    "country_code": "BD",
    "country_name": "Bangladesh",
    "state_code": "36",
    "latitude": "23.23933460",
    "longitude": "90.18696440"
  },
  {
    "id": "568a509a-0cc7-4bb1-a470-c44f2b4d562e",
    "name": "Meherpur District",
    "country_id": "df8ce1b2-40fd-4a23-adbe-41ad7b327661",
    "country_code": "BD",
    "country_name": "Bangladesh",
    "state_code": "39",
    "latitude": "23.80519910",
    "longitude": "88.67235780"
  },
  {
    "id": "eab39eae-2b0b-4123-901c-9ba58bb88373",
    "name": "Moulvibazar District",
    "country_id": "df8ce1b2-40fd-4a23-adbe-41ad7b327661",
    "country_code": "BD",
    "country_name": "Bangladesh",
    "state_code": "38",
    "latitude": "24.30953440",
    "longitude": "91.73149030"
  },
  {
    "id": "c32b990c-a8a8-4ddf-b565-ece3c36cfe7f",
    "name": "Munshiganj District",
    "country_id": "df8ce1b2-40fd-4a23-adbe-41ad7b327661",
    "country_code": "BD",
    "country_name": "Bangladesh",
    "state_code": "35",
    "latitude": "23.49809310",
    "longitude": "90.41266210"
  },