[
  {
    "id": "b7d56d0e-d9cd-42f2-89fe-8156e923258e",
    "name": "Badakhshan",
    "country_id": "71e2b30e-0093-44ef-8338-6a6dba88508f",
    "country_code": "AF",
    "country_name": "Afghanistan",
    "state_code": "BDS",
    "latitude": "36.73477250",
    "longitude": "70.81199530"
  },
  {
    "id": "bae3e495-ce1d-4f97-9165-5950f6f5163e",
    "name": "Badghis",
    "country_id": "71e2b30e-0093-44ef-8338-6a6dba88508f",
    "country_code": "AF",
    "country_name": "Afghanistan",
    "state_code": "BDG",
    "latitude": "35.16713390",
    "longitude": "63.76953840"
  },
  {
    "id": "9d28931d-fab2-4261-9474-c8a76aa6b7e4",
    "name": "Baghlan",
    "country_id": "71e2b30e-0093-44ef-8338-6a6dba88508f",
    "country_code": "AF",
    "country_name": "Afghanistan",
    "state_code": "BGL",
    "latitude": "36.17890260",
    "longitude": "68.74530640"
  },
  {
    "id": "f11142c7-65de-40bf-979a-9f0ef7e40971",
    "name": "Balkh",
    "country_id": "71e2b30e-0093-44ef-8338-6a6dba88508f",
    "country_code": "AF",
    "country_name": "Afghanistan",
    "state_code": "BAL",
    "latitude": "36.75506030",
    "longitude": "66.89753720"
  },
  {
    "id": "adff740f-10a5-470d-adc0-1519a05e4557",
    "name": "Bamyan",
    "country_id": "71e2b30e-0093-44ef-8338-6a6dba88508f",
    "country_code": "AF",
    "country_name": "Afghanistan",
    "state_code": "BAM",
    "latitude": "34.81000670",
    "longitude": "67.82121040"
  },
  {
    "id": "ab810fb8-3696-4f6b-9390-ed6acb896d67",
    "name": "Daykundi",
    "country_id": "71e2b30e-0093-44ef-8338-6a6dba88508f",
    "country_code": "AF",
    "country_name": "Afghanistan",
    "state_code": "DAY",
    "latitude": "33.66949500",
    "longitude": "66.04635340"
  },
  {
    "id": "3ee551cb-379e-4ca5-85a7-12afc85819d6",
    "name": "Farah",
    "country_id": "71e2b30e-0093-44ef-8338-6a6dba88508f",
    "country_code": "AF",
    "country_name": "Afghanistan",
    "state_code": "FRA",
    "latitude": "32.49532800",
    "longitude": "62.26266270"
  },
  {
    "id": "cfa689c2-c9fe-412e-b381-9f6f17644b0c",
    "name": "Faryab",
    "country_id": "71e2b30e-0093-44ef-8338-6a6dba88508f",
    "country_code": "AF",
    "country_name": "Afghanistan",
    "state_code": "FYB",
    "latitude": "36.07956130",
    "longitude": "64.90595500"
  },
  {
    "id": "9e79945f-cc32-4cbd-a41c-1ec8ff4a9317",
    "name": "Ghazni",
    "country_id": "71e2b30e-0093-44ef-8338-6a6dba88508f",
    "country_code": "AF",
    "country_name": "Afghanistan",
    "state_code": "GHA",
    "latitude": "33.54505870",
    "longitude": "68.41739720"
  },
  {
    "id": "b357708a-f03d-4411-90cb-9b5b211fbb41",
    "name": "Ghōr",
    "country_id": "71e2b30e-0093-44ef-8338-6a6dba88508f",
    "country_code": "AF",
    "country_name": "Afghanistan",
    "state_code": "GHO",
    "latitude": "34.09957760",
    "longitude": "64.90595500"
  },
  {
    "id": "bc883fca-aaec-4df6-a0de-8ea2b23951a0",
    "name": "Helmand",
    "country_id": "71e2b30e-0093-44ef-8338-6a6dba88508f",
    "country_code": "AF",
    "country_name": "Afghanistan",
    "state_code": "HEL",
    "latitude": "39.29893610",
    "longitude": "-76.61604720"
  },
  {
    "id": "17621db5-da23-464a-80c4-c4bbf03ca0b0",
    "name": "Herat",
    "country_id": "71e2b30e-0093-44ef-8338-6a6dba88508f",
    "country_code": "AF",
    "country_name": "Afghanistan",
    "state_code": "HER",
    "latitude": "34.35286500",
    "longitude": "62.20402870"
  },
  {
    "id": "18e14c67-30ac-4abd-9e18-28f398390e60",
    "name": "Jowzjan",
    "country_id": "71e2b30e-0093-44ef-8338-6a6dba88508f",
    "country_code": "AF",
    "country_name": "Afghanistan",
    "state_code": "JOW",
    "latitude": "36.89696920",
    "longitude": "65.66585680"
  },
  {
    "id": "26e3d748-18b9-4b58-8ae2-9ccf85d23d80",
    "name": "Kabul",
    "country_id": "71e2b30e-0093-44ef-8338-6a6dba88508f",
    "country_code": "AF",
    "country_name": "Afghanistan",
    "state_code": "KAB",
    "latitude": "34.55534940",
    "longitude": "69.20748600"
  },
  {
    "id": "d946e9ce-4439-4894-b2f3-2ee30d0c252f",
    "name": "Kandahar",
    "country_id": "71e2b30e-0093-44ef-8338-6a6dba88508f",
    "country_code": "AF",
    "country_name": "Afghanistan",
    "state_code": "KAN",
    "latitude": "31.62887100",
    "longitude": "65.73717490"
  },
  {
    "id": "b44429e5-c461-4a0d-9489-5f0742619d90",
    "name": "Kapisa",
    "country_id": "71e2b30e-0093-44ef-8338-6a6dba88508f",
    "country_code": "AF",
    "country_name": "Afghanistan",
    "state_code": "KAP",
    "latitude": "34.98105720",
    "longitude": "69.62145620"
  },
  {
    "id": "f559bdb8-546d-4bfe-97f8-4b28568e3f6c",
    "name": "Khost",
    "country_id": "71e2b30e-0093-44ef-8338-6a6dba88508f",
    "country_code": "AF",
    "country_name": "Afghanistan",
    "state_code": "KHO",
    "latitude": "33.33384720",
    "longitude": "69.93716730"
  },
  {
    "id": "5a79a42d-3f3f-417c-a3d7-ea75138ab467",
    "name": "Kunar",
    "country_id": "71e2b30e-0093-44ef-8338-6a6dba88508f",
    "country_code": "AF",
    "country_name": "Afghanistan",
    "state_code": "KNR",
    "latitude": "34.84658930",
    "longitude": "71.09731700"
  },
  {
    "id": "7ee4eaa7-d342-432b-8bf9-83f28aa85097",
    "name": "Kunduz Province",
    "country_id": "71e2b30e-0093-44ef-8338-6a6dba88508f",
    "country_code": "AF",
    "country_name": "Afghanistan",
    "state_code": "KDZ",
    "latitude": "36.72855110",
    "longitude": "68.86789820"
  },
  {
    "id": "a1afe2a6-c965-4662-8194-c16199ca7ad4",
    "name": "Laghman",
    "country_id": "71e2b30e-0093-44ef-8338-6a6dba88508f",
    "country_code": "AF",
    "country_name": "Afghanistan",
    "state_code": "LAG",
    "latitude": "34.68976870",
    "longitude": "70.14558050"
  },
  {
    "id": "40c1508e-e978-4ab9-8387-678dc2cac5d3",
    "name": "Logar",
    "country_id": "71e2b30e-0093-44ef-8338-6a6dba88508f",
    "country_code": "AF",
    "country_name": "Afghanistan",
    "state_code": "LOG",
    "latitude": "34.01455180",
    "longitude": "69.19239160"
  },
  {
    "id": "64e55474-b6ab-4bac-99f2-e40daca0dace",
    "name": "Nangarhar",
    "country_id": "71e2b30e-0093-44ef-8338-6a6dba88508f",
    "country_code": "AF",
    "country_name": "Afghanistan",
    "state_code": "NAN",
    "latitude": "34.17183130",
    "longitude": "70.62167940"
  },
  {
    "id": "6b016a65-8b02-41a3-8260-3c27fd1e4c27",
    "name": "Nimruz",
    "country_id": "71e2b30e-0093-44ef-8338-6a6dba88508f",
    "country_code": "AF",
    "country_name": "Afghanistan",
    "state_code": "NIM",
    "latitude": "31.02614880",
    "longitude": "62.45041540"
  },
  {
    "id": "c13c2899-1ed4-460c-b8ae-5eec2571fce5",
    "name": "Nuristan",
    "country_id": "71e2b30e-0093-44ef-8338-6a6dba88508f",
    "country_code": "AF",
    "country_name": "Afghanistan",
    "state_code": "NUR",
    "latitude": "35.32502230",
    "longitude": "70.90712360"
  },
  {
    "id": "baf651ab-fc76-4ea6-bac0-efa25c7ec7b4",
    "name": "Paktia",
    "country_id": "71e2b30e-0093-44ef-8338-6a6dba88508f",
    "country_code": "AF",
    "country_name": "Afghanistan",
    "state_code": "PIA",
    "latitude": "33.70619900",
    "longitude": "69.38310790"
  },
  {
    "id": "0bec52aa-47fe-488c-98b4-5b0c83e03f76",
    "name": "Paktika",
    "country_id": "71e2b30e-0093-44ef-8338-6a6dba88508f",
    "country_code": "AF",
    "country_name": "Afghanistan",
    "state_code": "PKA",
    "latitude": "32.26453860",
    "longitude": "68.52471490"
  },
  {
    "id": "17520757-dc6e-4c7c-95ee-7964b4195606",
    "name": "Panjshir",
    "country_id": "71e2b30e-0093-44ef-8338-6a6dba88508f",
    "country_code": "AF",
    "country_name": "Afghanistan",
    "state_code": "PAN",
    "latitude": "38.88023910",
    "longitude": "-77.17172380"
  },
  {
    "id": "92bab9a5-0cff-4471-9686-ffea7884c657",
    "name": "Parwan",
    "country_id": "71e2b30e-0093-44ef-8338-6a6dba88508f",
    "country_code": "AF",
    "country_name": "Afghanistan",
    "state_code": "PAR",
    "latitude": "34.96309770",
    "longitude": "68.81088490"
  },
  {
    "id": "a832db0c-1429-4e54-9cfe-ab5e6547ebfd",
    "name": "Samangan",
    "country_id": "71e2b30e-0093-44ef-8338-6a6dba88508f",
    "country_code": "AF",
    "country_name": "Afghanistan",
    "state_code": "SAM",
    "latitude": "36.31555060",
    "longitude": "67.96428630"
  },
  {
    "id": "f220e611-7f93-4b9d-bb4d-7ab8b4954eec",
    "name": "Sar-e Pol",
    "country_id": "71e2b30e-0093-44ef-8338-6a6dba88508f",
    "country_code": "AF",
    "country_name": "Afghanistan",
    "state_code": "SAR",
    "latitude": "36.21662800",
    "longitude": "65.93336000"
  },
  {
    "id": "521231f6-d664-4280-8c81-d195ca72197e",
    "name": "Takhar",
    "country_id": "71e2b30e-0093-44ef-8338-6a6dba88508f",
    "country_code": "AF",
    "country_name": "Afghanistan",
    "state_code": "TAK",
    "latitude": "36.66980130",
    "longitude": "69.47845410"
  },
  {
    "id": "380ecd36-bcbf-4fd1-ba71-dd09765372df",
    "name": "Urozgan",
    "country_id": "71e2b30e-0093-44ef-8338-6a6dba88508f",
    "country_code": "AF",
    "country_name": "Afghanistan",
    "state_code": "URU",
    "latitude": "32.92712870",
    "longitude": "66.14152630"
  },
  {
    "id": "b1a72e57-5bbd-4371-a712-4894b5872dcd",
    "name": "Zabul",
    "country_id": "71e2b30e-0093-44ef-8338-6a6dba88508f",
    "country_code": "AF",
    "country_name": "Afghanistan",
    "state_code": "ZAB",
    "latitude": "32.19187820",
    "longitude": "67.18944880"
  },
  {
    "id": "3744acb5-cc03-41c8-8e58-d50499b99bdd",
    "name": "Berat County",
    "country_id": "c1b3e9e3-7eab-4516-bf67-82acf4a65c77",
    "country_code": "AL",
    "country_name": "Albania",
    "state_code": "01",
    "latitude": "40.69530120",
    "longitude": "20.04496620"
  },
  {
    "id": "ac51673a-cc96-42eb-85fc-ad29573e9cd8",
    "name": "Berat District",
    "country_id": "c1b3e9e3-7eab-4516-bf67-82acf4a65c77",
    "country_code": "AL",
    "country_name": "Albania",
    "state_code": "BR",
    "latitude": "40.70863770",
    "longitude": "19.94373140"
  },
  {
    "id": "03a50cbb-6130-48d7-8305-2a3d0fdd5792",
    "name": "Bulqizë District",
    "country_id": "c1b3e9e3-7eab-4516-bf67-82acf4a65c77",
    "country_code": "AL",
    "country_name": "Albania",
    "state_code": "BU",
    "latitude": "41.49425870",
    "longitude": "20.21471570"
  },
  {
    "id": "c5a343dd-8e36-44ab-a55f-21c18343b185",
    "name": "Delvinë District",
    "country_id": "c1b3e9e3-7eab-4516-bf67-82acf4a65c77",
    "country_code": "AL",
    "country_name": "Albania",
    "state_code": "DL",
    "latitude": "39.94813640",
    "longitude": "20.09558910"
  },
  {
    "id": "c2acf2c4-864d-4442-86e9-729f67fe12fb",
    "name": "Devoll District",
    "country_id": "c1b3e9e3-7eab-4516-bf67-82acf4a65c77",
    "country_code": "AL",
    "country_name": "Albania",
    "state_code": "DV",
    "latitude": "40.64473470",
    "longitude": "20.95066360"
  },
  {
    "id": "4699c5a1-a343-44eb-9c39-c83a87eb830e",
    "name": "Dibër County",
    "country_id": "c1b3e9e3-7eab-4516-bf67-82acf4a65c77",
    "country_code": "AL",
    "country_name": "Albania",
    "state_code": "09",
    "latitude": "41.58881630",
    "longitude": "20.23556470"
  },
  {
    "id": "de0b7e2f-478f-471b-b730-e78d756dde87",
    "name": "Dibër District",
    "country_id": "c1b3e9e3-7eab-4516-bf67-82acf4a65c77",
    "country_code": "AL",
    "country_name": "Albania",
    "state_code": "DI",
    "latitude": "41.58881630",
    "longitude": "20.23556470"
  },
  {
    "id": "968ff167-f722-49d1-be7e-8196e11ef04d",
    "name": "Durrës County",
    "country_id": "c1b3e9e3-7eab-4516-bf67-82acf4a65c77",
    "country_code": "AL",
    "country_name": "Albania",
    "state_code": "02",
    "latitude": "41.50809720",
    "longitude": "19.61631850"
  },
  {
    "id": "a0c6a0c1-9c0e-4164-b731-27233b492b06",
    "name": "Durrës District",
    "country_id": "c1b3e9e3-7eab-4516-bf67-82acf4a65c77",
    "country_code": "AL",
    "country_name": "Albania",
    "state_code": "DR",
    "latitude": "41.37065170",
    "longitude": "19.52110630"
  },
  {
    "id": "d9e267b1-9fd1-4a9e-952c-b1415c0d0d22",
    "name": "Elbasan County",
    "country_id": "c1b3e9e3-7eab-4516-bf67-82acf4a65c77",
    "country_code": "AL",
    "country_name": "Albania",
    "state_code": "03",
    "latitude": "41.12666720",
    "longitude": "20.23556470"
  },
  {
    "id": "2f4f8b18-93a7-41d7-b7fb-f359d1617fc6",
    "name": "Fier County",
    "country_id": "c1b3e9e3-7eab-4516-bf67-82acf4a65c77",
    "country_code": "AL",
    "country_name": "Albania",
    "state_code": "04",
    "latitude": "40.91913920",
    "longitude": "19.66393090"
  },
  {
    "id": "f30f1040-7947-4095-91b4-40a29a6a5cb6",
    "name": "Fier District",
    "country_id": "c1b3e9e3-7eab-4516-bf67-82acf4a65c77",
    "country_code": "AL",
    "country_name": "Albania",
    "state_code": "FR",
    "latitude": "40.72750400",
    "longitude": "19.56275960"
  },
  {
    "id": "063b65b7-a0c2-4f20-bb26-fcf0074f0129",
    "name": "Gjirokastër County",
    "country_id": "c1b3e9e3-7eab-4516-bf67-82acf4a65c77",
    "country_code": "AL",
    "country_name": "Albania",
    "state_code": "05",
    "latitude": "40.06728740",
    "longitude": "20.10452290"
  },
  {
    "id": "fcf35e58-860c-4fe2-bd00-7f6744c2b9ef",
    "name": "Gjirokastër District",
    "country_id": "c1b3e9e3-7eab-4516-bf67-82acf4a65c77",
    "country_code": "AL",
    "country_name": "Albania",
    "state_code": "GJ",
    "latitude": "40.06728740",
    "longitude": "20.10452290"
  },
  {
    "id": "681ab51d-fd89-4ba0-be26-5ebcb03289ed",
    "name": "Gramsh District",
    "country_id": "c1b3e9e3-7eab-4516-bf67-82acf4a65c77",
    "country_code": "AL",
    "country_name": "Albania",
    "state_code": "GR",
    "latitude": "40.86698730",
    "longitude": "20.18493230"
  },
  {
    "id": "a8e6f9b3-71b9-4d8d-9cc7-72e3261bcc2e",
    "name": "Has District",
    "country_id": "c1b3e9e3-7eab-4516-bf67-82acf4a65c77",
    "country_code": "AL",
    "country_name": "Albania",
    "state_code": "HA",
    "latitude": "42.79013360",
    "longitude": "-83.61220120"
  },
  {
    "id": "0ee7d0ae-6226-4b57-a219-5ef83fba6f97",
    "name": "Kavajë District",
    "country_id": "c1b3e9e3-7eab-4516-bf67-82acf4a65c77",
    "country_code": "AL",
    "country_name": "Albania",
    "state_code": "KA",
    "latitude": "41.18445290",
    "longitude": "19.56275960"
  },
  {
    "id": "2e11e296-4e23-4b13-bbf5-db5b995cdbcd",
    "name": "Kolonjë District",
    "country_id": "c1b3e9e3-7eab-4516-bf67-82acf4a65c77",
    "country_code": "AL",
    "country_name": "Albania",
    "state_code": "ER",
    "latitude": "40.33732620",
    "longitude": "20.67946760"
  },
  {
    "id": "5ce1ed67-cca6-43c6-b005-7cb4679a4092",
    "name": "Korçë County",
    "country_id": "c1b3e9e3-7eab-4516-bf67-82acf4a65c77",
    "country_code": "AL",
    "country_name": "Albania",
    "state_code": "06",
    "latitude": "40.59056700",
    "longitude": "20.61689210"
  },
  {
    "id": "5f4368ca-e8bc-4764-bba3-0a9bebe1d4fa",
    "name": "Korçë District",
    "country_id": "c1b3e9e3-7eab-4516-bf67-82acf4a65c77",
    "country_code": "AL",
    "country_name": "Albania",
    "state_code": "KO",
    "latitude": "40.59056700",
    "longitude": "20.61689210"
  },
  {
    "id": "121220fa-c954-4db1-ad76-742c5e13a221",
    "name": "Krujë District",
    "country_id": "c1b3e9e3-7eab-4516-bf67-82acf4a65c77",
    "country_code": "AL",
    "country_name": "Albania",
    "state_code": "KR",
    "latitude": "41.50947650",
    "longitude": "19.77107320"
  },
  {
    "id": "68ef497f-f430-40fa-91fd-494dabf78685",
    "name": "Kuçovë District",
    "country_id": "c1b3e9e3-7eab-4516-bf67-82acf4a65c77",
    "country_code": "AL",
    "country_name": "Albania",
    "state_code": "KC",
    "latitude": "40.78370630",
    "longitude": "19.87823480"
  },
  {
    "id": "1f4786c5-7def-4f20-8da6-bd014fc74a7c",
    "name": "Kukës County",
    "country_id": "c1b3e9e3-7eab-4516-bf67-82acf4a65c77",
    "country_code": "AL",
    "country_name": "Albania",
    "state_code": "07",
    "latitude": "42.08074640",
    "longitude": "20.41429230"
  },
  {
    "id": "a2b8e174-f6e3-4f24-8c50-3c02c35e0301",
    "name": "Kukës District",
    "country_id": "c1b3e9e3-7eab-4516-bf67-82acf4a65c77",
    "country_code": "AL",
    "country_name": "Albania",
    "state_code": "KU",
    "latitude": "42.08074640",
    "longitude": "20.41429230"
  },
  {
    "id": "763f8a07-daac-4486-bde4-7c624cfb9dc4",
    "name": "Kurbin District",
    "country_id": "c1b3e9e3-7eab-4516-bf67-82acf4a65c77",
    "country_code": "AL",
    "country_name": "Albania",
    "state_code": "KB",
    "latitude": "41.64126440",
    "longitude": "19.70559500"
  },
  {
    "id": "b99f110b-76d2-4425-a003-6399adaa3cee",
    "name": "Lezhë County",
    "country_id": "c1b3e9e3-7eab-4516-bf67-82acf4a65c77",
    "country_code": "AL",
    "country_name": "Albania",
    "state_code": "08",
    "latitude": "41.78137590",
    "longitude": "19.80679160"
  },
  {
    "id": "66c002d2-90dc-4d1f-abdf-2358e2c5906b",
    "name": "Lezhë District",
    "country_id": "c1b3e9e3-7eab-4516-bf67-82acf4a65c77",
    "country_code": "AL",
    "country_name": "Albania",
    "state_code": "LE",
    "latitude": "41.78607300",
    "longitude": "19.64607580"
  },
  {
    "id": "c0869b86-edd5-4c52-b108-3630385acb6f",
    "name": "Librazhd District",
    "country_id": "c1b3e9e3-7eab-4516-bf67-82acf4a65c77",
    "country_code": "AL",
    "country_name": "Albania",
    "state_code": "LB",
    "latitude": "41.18292320",
    "longitude": "20.31747690"
  },
  {
    "id": "6b68f7a1-bf68-4fe3-987b-275e3172b7e1",
    "name": "Lushnjë District",
    "country_id": "c1b3e9e3-7eab-4516-bf67-82acf4a65c77",
    "country_code": "AL",
    "country_name": "Albania",
    "state_code": "LU",
    "latitude": "40.94198300",
    "longitude": "19.69964280"
  },
  {
    "id": "290399cc-ff89-40ba-937b-a28fc69e4778",
    "name": "Malësi e Madhe District",
    "country_id": "c1b3e9e3-7eab-4516-bf67-82acf4a65c77",
    "country_code": "AL",
    "country_name": "Albania",
    "state_code": "MM",
    "latitude": "42.42451730",
    "longitude": "19.61631850"
  },
  {
    "id": "0404032f-5685-4cf3-8d35-c41ed7149ba9",
    "name": "Mallakastër District",
    "country_id": "c1b3e9e3-7eab-4516-bf67-82acf4a65c77",
    "country_code": "AL",
    "country_name": "Albania",
    "state_code": "MK",
    "latitude": "40.52733760",
    "longitude": "19.78297910"
  },
  {
    "id": "41305adf-8d06-4cee-9261-4817a8a55930",
    "name": "Mat District",
    "country_id": "c1b3e9e3-7eab-4516-bf67-82acf4a65c77",
    "country_code": "AL",
    "country_name": "Albania",
    "state_code": "MT",
    "latitude": "41.59376750",
    "longitude": "19.99732440"
  },
  {
    "id": "fc737d9e-4d3d-40b2-aa40-888b99474142",
    "name": "Mirditë District",
    "country_id": "c1b3e9e3-7eab-4516-bf67-82acf4a65c77",
    "country_code": "AL",
    "country_name": "Albania",
    "state_code": "MR",
    "latitude": "41.76428600",
    "longitude": "19.90205090"
  },
  {
    "id": "ad63be2d-de65-42a1-9173-69f3b7c8c9f3",
    "name": "Peqin District",
    "country_id": "c1b3e9e3-7eab-4516-bf67-82acf4a65c77",
    "country_code": "AL",
    "country_name": "Albania",
    "state_code": "PQ",
    "latitude": "41.04709020",
    "longitude": "19.75023840"
  },
  {
    "id": "74d34d5e-3a52-41d1-979e-326c4a6c46e8",
    "name": "Përmet District",
    "country_id": "c1b3e9e3-7eab-4516-bf67-82acf4a65c77",
    "country_code": "AL",
    "country_name": "Albania",
    "state_code": "PR",
    "latitude": "40.23618370",
    "longitude": "20.35173340"
  },
  {
    "id": "e8f265d8-7642-4a37-ad38-a82b56d83189",
    "name": "Pogradec District",
    "country_id": "c1b3e9e3-7eab-4516-bf67-82acf4a65c77",
    "country_code": "AL",
    "country_name": "Albania",
    "state_code": "PG",
    "latitude": "40.90153140",
    "longitude": "20.65562890"
  },
  {
    "id": "9c24a22b-d44f-4836-bb27-e610a9850299",
    "name": "Pukë District",
    "country_id": "c1b3e9e3-7eab-4516-bf67-82acf4a65c77",
    "country_code": "AL",
    "country_name": "Albania",
    "state_code": "PU",
    "latitude": "42.04697720",
    "longitude": "19.89609680"
  },
  {
    "id": "30477eca-2107-4eb8-82ad-cba8ca6d53f5",
    "name": "Sarandë District",
    "country_id": "c1b3e9e3-7eab-4516-bf67-82acf4a65c77",
    "country_code": "AL",
    "country_name": "Albania",
    "state_code": "SR",
    "latitude": "39.85921190",
    "longitude": "20.02710010"
  },
  {
    "id": "7749e3db-95c5-4f51-a748-6e5838108ca9",
    "name": "Shkodër County",
    "country_id": "c1b3e9e3-7eab-4516-bf67-82acf4a65c77",
    "country_code": "AL",
    "country_name": "Albania",
    "state_code": "10",
    "latitude": "42.15037100",
    "longitude": "19.66393090"
  },
  {
    "id": "f33af32b-ef9f-4d2c-a32b-47486ec91fd8",
    "name": "Shkodër District",
    "country_id": "c1b3e9e3-7eab-4516-bf67-82acf4a65c77",
    "country_code": "AL",
    "country_name": "Albania",
    "state_code": "SH",
    "latitude": "42.06929850",
    "longitude": "19.50325590"
  },
  {
    "id": "8ba3de67-9a8e-4630-aa11-24400312bbb2",
    "name": "Skrapar District",
    "country_id": "c1b3e9e3-7eab-4516-bf67-82acf4a65c77",
    "country_code": "AL",
    "country_name": "Albania",
    "state_code": "SK",
    "latitude": "40.53499460",
    "longitude": "20.28322170"
  },
  {
    "id": "c3bc034d-c3ab-4ed0-be01-4fee7c71c28f",
    "name": "Tepelenë District",
    "country_id": "c1b3e9e3-7eab-4516-bf67-82acf4a65c77",
    "country_code": "AL",
    "country_name": "Albania",
    "state_code": "TE",
    "latitude": "40.29666320",
    "longitude": "20.01816730"
  },
  {
    "id": "dafb74d1-9f27-4cda-8442-4241463aac7c",
    "name": "Tirana County",
    "country_id": "c1b3e9e3-7eab-4516-bf67-82acf4a65c77",
    "country_code": "AL",
    "country_name": "Albania",
    "state_code": "11",
    "latitude": "41.24275980",
    "longitude": "19.80679160"
  },
  {
    "id": "8ccdff18-bf16-4e74-8924-d78f707fce72",
    "name": "Tirana District",
    "country_id": "c1b3e9e3-7eab-4516-bf67-82acf4a65c77",
    "country_code": "AL",
    "country_name": "Albania",
    "state_code": "TR",
    "latitude": "41.32754590",
    "longitude": "19.81869820"
  },
  {
    "id": "13211bd5-fde0-4bf7-a190-f49d8fdf1804",
    "name": "Tropojë District",
    "country_id": "c1b3e9e3-7eab-4516-bf67-82acf4a65c77",
    "country_code": "AL",
    "country_name": "Albania",
    "state_code": "TP",
    "latitude": "42.39821510",
    "longitude": "20.16259550"
  },
  {
    "id": "ffebf568-681d-4fdb-b522-935d4e9d92d7",
    "name": "Vlorë County",
    "country_id": "c1b3e9e3-7eab-4516-bf67-82acf4a65c77",
    "country_code": "AL",
    "country_name": "Albania",
    "state_code": "12",
    "latitude": "40.15009600",
    "longitude": "19.80679160"
  },
  {
    "id": "0ffa1be5-8ba8-4a75-9c61-9ee6601e9f84",
    "name": "Vlorë District",
    "country_id": "c1b3e9e3-7eab-4516-bf67-82acf4a65c77",
    "country_code": "AL",
    "country_name": "Albania",
    "state_code": "VL",
    "latitude": "40.46606680",
    "longitude": "19.49135600"
  },
  {
    "id": "de930d69-b22e-45c2-89be-e0433be764d4",
    "name": "Adrar",
    "country_id": "09208ef6-e315-4f56-ab54-87636dde98ab",
    "country_code": "DZ",
    "country_name": "Algeria",
    "state_code": "01",
    "latitude": "26.41813100",
    "longitude": "-0.60147170"
  },
  {
    "id": "5019d0fd-cccc-407c-ab68-0deb06fbaff2",
    "name": "Aïn Defla",
    "country_id": "09208ef6-e315-4f56-ab54-87636dde98ab",
    "country_code": "DZ",
    "country_name": "Algeria",
    "state_code": "44",
    "latitude": "36.25094290",
    "longitude": "1.93938150"
  },
  {
    "id": "e4c6d5a6-63b5-48c2-8119-5e6c5e029c20",
    "name": "Aïn Témouchent",
    "country_id": "09208ef6-e315-4f56-ab54-87636dde98ab",
    "country_code": "DZ",
    "country_name": "Algeria",
    "state_code": "46",
    "latitude": "35.29926980",
    "longitude": "-1.13927920"
  },
  {
    "id": "5db2ab21-10d5-4832-9631-e8a04773e482",
    "name": "Algiers",
    "country_id": "09208ef6-e315-4f56-ab54-87636dde98ab",
    "country_code": "DZ",
    "country_name": "Algeria",
    "state_code": "16",
    "latitude": "36.69972940",
    "longitude": "3.05761990"
  },
  {
    "id": "5acdd940-0407-4d37-b97c-c4e8e0464b64",
    "name": "Annaba",
    "country_id": "09208ef6-e315-4f56-ab54-87636dde98ab",
    "country_code": "DZ",
    "country_name": "Algeria",
    "state_code": "23",
    "latitude": "36.80205080",
    "longitude": "7.52472430"
  },
  {
    "id": "cbc43b33-488d-43cf-9774-eaae44ca51de",
    "name": "Batna",
    "country_id": "09208ef6-e315-4f56-ab54-87636dde98ab",
    "country_code": "DZ",
    "country_name": "Algeria",
    "state_code": "05",
    "latitude": "35.59659540",
    "longitude": "5.89871390"
  },
  {
    "id": "bb6a134a-261a-4904-87f9-178303c49974",
    "name": "Béchar",
    "country_id": "09208ef6-e315-4f56-ab54-87636dde98ab",
    "country_code": "DZ",
    "country_name": "Algeria",
    "state_code": "08",
    "latitude": "31.62380980",
    "longitude": "-2.21624430"
  },
  {
    "id": "ac2abb4d-7ce7-4b96-8308-9ca9f64f106d",
    "name": "Béjaïa",
    "country_id": "09208ef6-e315-4f56-ab54-87636dde98ab",
    "country_code": "DZ",
    "country_name": "Algeria",
    "state_code": "06",
    "latitude": "36.75152580",
    "longitude": "5.05568370"
  },
  {
    "id": "d7d31b96-b3e2-46fd-a4c1-ecd621a42b34",
    "name": "Béni Abbès",
    "country_id": "09208ef6-e315-4f56-ab54-87636dde98ab",
    "country_code": "DZ",
    "country_name": "Algeria",
    "state_code": "53",
    "latitude": "30.08310420",
    "longitude": "-2.83450520"
  },
  {
    "id": "404ebc03-3fbb-4f71-a3f0-c1b70f50892f",
    "name": "Biskra",
    "country_id": "09208ef6-e315-4f56-ab54-87636dde98ab",
    "country_code": "DZ",
    "country_name": "Algeria",
    "state_code": "07",
    "latitude": "34.84494370",
    "longitude": "5.72485670"
  },
  {
    "id": "ad455b21-6369-43db-ae50-21261567767b",
    "name": "Blida",
    "country_id": "09208ef6-e315-4f56-ab54-87636dde98ab",
    "country_code": "DZ",
    "country_name": "Algeria",
    "state_code": "09",
    "latitude": "36.53112300",
    "longitude": "2.89762540"
  },
  {
    "id": "d414aeb8-bc6e-47d1-8717-0bd4f30842cb",
    "name": "Bordj Baji Mokhtar",
    "country_id": "09208ef6-e315-4f56-ab54-87636dde98ab",
    "country_code": "DZ",
    "country_name": "Algeria",
    "state_code": "52",
    "latitude": "22.96633500",
    "longitude": "-3.94727320"
  },
  {
    "id": "c1f1981e-16ce-47d7-bfd4-fe0d56a14f1f",
    "name": "Bordj Bou Arréridj",
    "country_id": "09208ef6-e315-4f56-ab54-87636dde98ab",
    "country_code": "DZ",
    "country_name": "Algeria",
    "state_code": "34",
    "latitude": "36.07399250",
    "longitude": "4.76302710"
  },
  {
    "id": "2783f2d3-87df-4309-9486-a55c22575ff6",
    "name": "Bouïra",
    "country_id": "09208ef6-e315-4f56-ab54-87636dde98ab",
    "country_code": "DZ",
    "country_name": "Algeria",
    "state_code": "10",
    "latitude": "36.36918460",
    "longitude": "3.90061940"
  },
  {
    "id": "732f8298-8170-4efa-899c-db5e1ddddfd9",
    "name": "Boumerdès",
    "country_id": "09208ef6-e315-4f56-ab54-87636dde98ab",
    "country_code": "DZ",
    "country_name": "Algeria",
    "state_code": "35",
    "latitude": "36.68395590",
    "longitude": "3.62178020"
  },
  {
    "id": "20a7c742-dc91-49d0-a059-3984663badf1",
    "name": "Chlef",
    "country_id": "09208ef6-e315-4f56-ab54-87636dde98ab",
    "country_code": "DZ",
    "country_name": "Algeria",
    "state_code": "02",
    "latitude": "36.16935150",
    "longitude": "1.28910360"
  },
  {
    "id": "ce748eae-be65-48db-9b0a-9174abd42722",
    "name": "Constantine",
    "country_id": "09208ef6-e315-4f56-ab54-87636dde98ab",
    "country_code": "DZ",
    "country_name": "Algeria",
    "state_code": "25",
    "latitude": "36.33739110",
    "longitude": "6.66381200"
  },
  {
    "id": "65e06aa5-4dfe-4bb1-8d72-e4772eec76d3",
    "name": "Djanet",
    "country_id": "09208ef6-e315-4f56-ab54-87636dde98ab",
    "country_code": "DZ",
    "country_name": "Algeria",
    "state_code": "56",
    "latitude": "23.83108720",
    "longitude": "8.70046720"
  },
  {
    "id": "e24f44b9-cbd9-4047-8c56-3c03e022bc32",
    "name": "Djelfa",
    "country_id": "09208ef6-e315-4f56-ab54-87636dde98ab",
    "country_code": "DZ",
    "country_name": "Algeria",
    "state_code": "17",
    "latitude": "34.67039560",
    "longitude": "3.25037610"
  },
  {
    "id": "15a673e8-eeaf-4abf-af60-136c7f189288",
    "name": "El Bayadh",
    "country_id": "09208ef6-e315-4f56-ab54-87636dde98ab",
    "country_code": "DZ",
    "country_name": "Algeria",
    "state_code": "32",
    "latitude": "32.71488240",
    "longitude": "0.90566230"
  },
  {
    "id": "8d0cc1df-3bac-411c-8b5e-67a2abe8df9f",
    "name": "El M'ghair",
    "country_id": "09208ef6-e315-4f56-ab54-87636dde98ab",
    "country_code": "DZ",
    "country_name": "Algeria",
    "state_code": "49",
    "latitude": "33.95405610",
    "longitude": "5.13464180"
  },
  {
    "id": "0704c489-eb9e-4678-ba57-3f4c85760eda",
    "name": "El Menia",
    "country_id": "09208ef6-e315-4f56-ab54-87636dde98ab",
    "country_code": "DZ",
    "country_name": "Algeria",
    "state_code": "50",
    "latitude": "31.36422500",
    "longitude": "2.57844950"
  },
  {
    "id": "08b71a4b-f2ec-4fe7-9e25-7575f5322b5d",
    "name": "El Oued",
    "country_id": "09208ef6-e315-4f56-ab54-87636dde98ab",
    "country_code": "DZ",
    "country_name": "Algeria",
    "state_code": "39",
    "latitude": "33.36781100",
    "longitude": "6.85165110"
  },
  {
    "id": "27ca9334-5d8e-4177-a0bd-e887a77693df",
    "name": "El Tarf",
    "country_id": "09208ef6-e315-4f56-ab54-87636dde98ab",
    "country_code": "DZ",
    "country_name": "Algeria",
    "state_code": "36",
    "latitude": "36.75766780",
    "longitude": "8.30763430"
  },
  {
    "id": "933ddc25-5095-49c4-b261-5afea655440d",
    "name": "Ghardaïa",
    "country_id": "09208ef6-e315-4f56-ab54-87636dde98ab",
    "country_code": "DZ",
    "country_name": "Algeria",
    "state_code": "47",
    "latitude": "32.49437410",
    "longitude": "3.64446000"
  },
  {
    "id": "a3573377-0672-4764-a3e5-10a143f8c496",
    "name": "Guelma",
    "country_id": "09208ef6-e315-4f56-ab54-87636dde98ab",
    "country_code": "DZ",
    "country_name": "Algeria",
    "state_code": "24",
    "latitude": "36.46274440",
    "longitude": "7.43308330"
  },
  {
    "id": "c254abb6-aa55-456b-bafc-913f16818900",
    "name": "Illizi",
    "country_id": "09208ef6-e315-4f56-ab54-87636dde98ab",
    "country_code": "DZ",
    "country_name": "Algeria",
    "state_code": "33",
    "latitude": "26.16900050",
    "longitude": "8.48424650"
  },
  {
    "id": "3eeec4a4-418d-46fd-892c-cb48d162208e",
    "name": "In Guezzam",
    "country_id": "09208ef6-e315-4f56-ab54-87636dde98ab",
    "country_code": "DZ",
    "country_name": "Algeria",
    "state_code": "58",
    "latitude": "20.38643230",
    "longitude": "4.77893940"
  },
  {
    "id": "495842bf-d327-4126-9d61-3aed3f2ac5e1",
    "name": "In Salah",
    "country_id": "09208ef6-e315-4f56-ab54-87636dde98ab",
    "country_code": "DZ",
    "country_name": "Algeria",
    "state_code": "57",
    "latitude": "27.21492290",
    "longitude": "1.84843960"
  },
  {
    "id": "e392277e-b9ea-4c13-9b16-94a598646950",
    "name": "Jijel",
    "country_id": "09208ef6-e315-4f56-ab54-87636dde98ab",
    "country_code": "DZ",
    "country_name": "Algeria",
    "state_code": "18",
    "latitude": "36.71796810",
    "longitude": "5.98325770"
  },
  {
    "id": "14a2f426-0ef5-418e-8349-488a03796273",
    "name": "Khenchela",
    "country_id": "09208ef6-e315-4f56-ab54-87636dde98ab",
    "country_code": "DZ",
    "country_name": "Algeria",
    "state_code": "40",
    "latitude": "35.42694040",
    "longitude": "7.14601550"
  },
  {
    "id": "49e2098e-e403-43ee-a65b-e38dbea4fa31",
    "name": "Laghouat",
    "country_id": "09208ef6-e315-4f56-ab54-87636dde98ab",
    "country_code": "DZ",
    "country_name": "Algeria",
    "state_code": "03",
    "latitude": "33.80783410",
    "longitude": "2.86282940"
  },
  {
    "id": "e1cdae90-74d5-4ca6-b546-3061bd197546",
    "name": "M'Sila",
    "country_id": "09208ef6-e315-4f56-ab54-87636dde98ab",
    "country_code": "DZ",
    "country_name": "Algeria",
    "state_code": "28",
    "latitude": "35.71866460",
    "longitude": "4.52334230"
  },
  {
    "id": "75164b8a-fcc5-4106-a8d5-4fb20292d2d4",
    "name": "Mascara",
    "country_id": "09208ef6-e315-4f56-ab54-87636dde98ab",
    "country_code": "DZ",
    "country_name": "Algeria",
    "state_code": "29",
    "latitude": "35.39041250",
    "longitude": "0.14949880"
  },
  {
    "id": "ccd23492-e7ba-4d3d-bdcc-cbe980ca5a9b",
    "name": "Médéa",
    "country_id": "09208ef6-e315-4f56-ab54-87636dde98ab",
    "country_code": "DZ",
    "country_name": "Algeria",
    "state_code": "26",
    "latitude": "36.26370780",
    "longitude": "2.75878570"
  },
  {
    "id": "1fc471e2-8af5-415f-af7c-24de56b5185e",
    "name": "Mila",
    "country_id": "09208ef6-e315-4f56-ab54-87636dde98ab",
    "country_code": "DZ",
    "country_name": "Algeria",
    "state_code": "43",
    "latitude": "36.36479570",
    "longitude": "6.15269850"
  },
  {
    "id": "5063dd18-a3d8-4e7a-852f-085542e3c040",
    "name": "Mostaganem",
    "country_id": "09208ef6-e315-4f56-ab54-87636dde98ab",
    "country_code": "DZ",
    "country_name": "Algeria",
    "state_code": "27",
    "latitude": "35.95830540",
    "longitude": "0.33718890"
  },
  {
    "id": "c7ef5e2d-d00a-4ff6-93ad-c7c0dcbb0775",
    "name": "Naama",
    "country_id": "09208ef6-e315-4f56-ab54-87636dde98ab",
    "country_code": "DZ",
    "country_name": "Algeria",
    "state_code": "45",
    "latitude": "33.26673170",
    "longitude": "-0.31286590"
  },
  {
    "id": "8e545290-1244-48ce-91ea-ba249b247ce3",
    "name": "Oran",
    "country_id": "09208ef6-e315-4f56-ab54-87636dde98ab",
    "country_code": "DZ",
    "country_name": "Algeria",
    "state_code": "31",
    "latitude": "35.60823510",
    "longitude": "-0.56360900"
  },
  {
    "id": "74ae08f3-1923-4548-81c6-5404b3ded078",
    "name": "Ouargla",
    "country_id": "09208ef6-e315-4f56-ab54-87636dde98ab",
    "country_code": "DZ",
    "country_name": "Algeria",
    "state_code": "30",
    "latitude": "32.22648630",
    "longitude": "5.72998210"
  },
  {
    "id": "af3d3ac8-09a1-460e-9d91-e3f369eaf751",
    "name": "Ouled Djellal",
    "country_id": "09208ef6-e315-4f56-ab54-87636dde98ab",
    "country_code": "DZ",
    "country_name": "Algeria",
    "state_code": "51",
    "latitude": "34.41782210",
    "longitude": "4.96858430"
  },
  {
    "id": "53d7751e-d5f2-4a0e-9ab9-4fe3285a05f0",
    "name": "Oum El Bouaghi",
    "country_id": "09208ef6-e315-4f56-ab54-87636dde98ab",
    "country_code": "DZ",
    "country_name": "Algeria",
    "state_code": "04",
    "latitude": "35.86887890",
    "longitude": "7.11082660"
  },
  {
    "id": "512b38f6-1c02-47fe-a34b-3ce17595bb59",
    "name": "Relizane",
    "country_id": "09208ef6-e315-4f56-ab54-87636dde98ab",
    "country_code": "DZ",
    "country_name": "Algeria",
    "state_code": "48",
    "latitude": "35.73834050",
    "longitude": "0.75328090"
  },
  {
    "id": "1309582b-4b85-4657-b921-4960792ccbe9",
    "name": "Saïda",
    "country_id": "09208ef6-e315-4f56-ab54-87636dde98ab",
    "country_code": "DZ",
    "country_name": "Algeria",
    "state_code": "20",
    "latitude": "34.84152070",
    "longitude": "0.14560550"
  },
  {
    "id": "663e7f4c-c009-4269-8705-65d399cc99c5",
    "name": "Sétif",
    "country_id": "09208ef6-e315-4f56-ab54-87636dde98ab",
    "country_code": "DZ",
    "country_name": "Algeria",
    "state_code": "19",
    "latitude": "36.30733890",
    "longitude": "5.56172790"
  },
  {
    "id": "85014bbf-2d50-40df-a6aa-bb75ea2f2561",
    "name": "Sidi Bel Abbès",
    "country_id": "09208ef6-e315-4f56-ab54-87636dde98ab",
    "country_code": "DZ",
    "country_name": "Algeria",
    "state_code": "22",
    "latitude": "34.68060240",
    "longitude": "-1.09994950"
  },
  {
    "id": "84698d1c-5a47-4f38-b960-fdc87dcf9d35",
    "name": "Skikda",
    "country_id": "09208ef6-e315-4f56-ab54-87636dde98ab",
    "country_code": "DZ",
    "country_name": "Algeria",
    "state_code": "21",
    "latitude": "36.67211980",
    "longitude": "6.83509990"
  },
  {
    "id": "9c13d3fd-0313-4ffe-a806-0224dfd6a8bb",
    "name": "Souk Ahras",
    "country_id": "09208ef6-e315-4f56-ab54-87636dde98ab",
    "country_code": "DZ",
    "country_name": "Algeria",
    "state_code": "41",
    "latitude": "36.28010620",
    "longitude": "7.93840330"
  },
  {
    "id": "a058f594-bfc5-43bf-92eb-04341e340517",
    "name": "Tamanghasset",
    "country_id": "09208ef6-e315-4f56-ab54-87636dde98ab",
    "country_code": "DZ",
    "country_name": "Algeria",
    "state_code": "11",
    "latitude": "22.79029720",
    "longitude": "5.51932680"
  },
  {
    "id": "8b26893f-6f05-4c54-bff4-88eebca73351",
    "name": "Tébessa",
    "country_id": "09208ef6-e315-4f56-ab54-87636dde98ab",
    "country_code": "DZ",
    "country_name": "Algeria",
    "state_code": "12",
    "latitude": "35.12906910",
    "longitude": "7.95928630"
  },
  {
    "id": "edcdfcd7-12a5-4659-8fc2-ee00a520b3dc",
    "name": "Tiaret",
    "country_id": "09208ef6-e315-4f56-ab54-87636dde98ab",
    "country_code": "DZ",
    "country_name": "Algeria",
    "state_code": "14",
    "latitude": "35.37086890",
    "longitude": "1.32178520"
  },
  {
    "id": "5273fb26-3607-4d28-bf61-6be53653cf54",
    "name": "Timimoun",
    "country_id": "09208ef6-e315-4f56-ab54-87636dde98ab",
    "country_code": "DZ",
    "country_name": "Algeria",
    "state_code": "54",
    "latitude": "29.67890600",
    "longitude": "0.50046080"
  },
  {
    "id": "f8408623-dc9b-433b-9a4b-0d897a92cd9c",
    "name": "Tindouf",
    "country_id": "09208ef6-e315-4f56-ab54-87636dde98ab",
    "country_code": "DZ",
    "country_name": "Algeria",
    "state_code": "37",
    "latitude": "27.80631190",
    "longitude": "-5.72998210"
  },
  {
    "id": "2b7fe128-f30a-4019-8823-e99ea75e56d2",
    "name": "Tipasa",
    "country_id": "09208ef6-e315-4f56-ab54-87636dde98ab",
    "country_code": "DZ",
    "country_name": "Algeria",
    "state_code": "42",
    "latitude": "36.54626500",
    "longitude": "2.18432850"
  },
  {
    "id": "9aec4443-ad0b-4cf4-9936-6fe21f847482",
    "name": "Tissemsilt",
    "country_id": "09208ef6-e315-4f56-ab54-87636dde98ab",
    "country_code": "DZ",
    "country_name": "Algeria",
    "state_code": "38",
    "latitude": "35.60537810",
    "longitude": "1.81309800"
  },
  {
    "id": "512583f3-75b5-47e7-b9f8-ce1e43f83c8d",
    "name": "Tizi Ouzou",
    "country_id": "09208ef6-e315-4f56-ab54-87636dde98ab",
    "country_code": "DZ",
    "country_name": "Algeria",
    "state_code": "15",
    "latitude": "36.70691100",
    "longitude": "4.23333550"
  },
  {
    "id": "846d608c-fabe-4627-95bd-c77a1047a2e9",
    "name": "Tlemcen",
    "country_id": "09208ef6-e315-4f56-ab54-87636dde98ab",
    "country_code": "DZ",
    "country_name": "Algeria",
    "state_code": "13",
    "latitude": "34.67802840",
    "longitude": "-1.36621600"
  },
  {
    "id": "80dd9b0c-43b8-4c24-b576-ed07ca011820",
    "name": "Touggourt",
    "country_id": "09208ef6-e315-4f56-ab54-87636dde98ab",
    "country_code": "DZ",
    "country_name": "Algeria",
    "state_code": "55",
    "latitude": "33.12484760",
    "longitude": "5.78327150"
  },
  {
    "id": "a3e30996-2a72-4139-a85a-d09ba9ce9d4b",
    "name": "Andorra la Vella",
    "country_id": "acd12261-9e2d-4eb5-b146-27f36a7f56d1",
    "country_code": "AD",
    "country_name": "Andorra",
    "state_code": "07",
    "latitude": "42.50631740",
    "longitude": "1.52183550"
  },
  {
    "id": "ecbc53b2-5a3d-4db3-a893-cbfe49aba44b",
    "name": "Canillo",
    "country_id": "acd12261-9e2d-4eb5-b146-27f36a7f56d1",
    "country_code": "AD",
    "country_name": "Andorra",
    "state_code": "02",
    "latitude": "42.59782490",
    "longitude": "1.65663770"
  },
  {
    "id": "69e7ee1e-bbae-48ea-890c-5986dc84714c",
    "name": "Encamp",
    "country_id": "acd12261-9e2d-4eb5-b146-27f36a7f56d1",
    "country_code": "AD",
    "country_name": "Andorra",
    "state_code": "03",
    "latitude": "42.53597640",
    "longitude": "1.58367730"
  },
  {
    "id": "b055fb7d-7512-4133-84a8-0bab8a5e4d82",
    "name": "Escaldes-Engordany",
    "country_id": "acd12261-9e2d-4eb5-b146-27f36a7f56d1",
    "country_code": "AD",
    "country_name": "Andorra",
    "state_code": "08",
    "latitude": "42.49093790",
    "longitude": "1.58869660"
  },
  {
    "id": "5bccc347-8bda-4616-9dd8-04bf15ad356e",
    "name": "La Massana",
    "country_id": "acd12261-9e2d-4eb5-b146-27f36a7f56d1",
    "country_code": "AD",
    "country_name": "Andorra",
    "state_code": "04",
    "latitude": "42.54562500",
    "longitude": "1.51473920"
  },
  {
    "id": "a6f4df11-b1ac-476c-af2f-e5341bd7ffbd",
    "name": "Ordino",
    "country_id": "acd12261-9e2d-4eb5-b146-27f36a7f56d1",
    "country_code": "AD",
    "country_name": "Andorra",
    "state_code": "05",
    "latitude": "42.59944330",
    "longitude": "1.54023270"
  },
  {
    "id": "581e3a28-e02e-44d2-8b76-ca8914d2d4f9",
    "name": "Sant Julià de Lòria",
    "country_id": "acd12261-9e2d-4eb5-b146-27f36a7f56d1",
    "country_code": "AD",
    "country_name": "Andorra",
    "state_code": "06",
    "latitude": "42.45296310",
    "longitude": "1.49182350"
  },
  {
    "id": "1d3d446b-5001-4ac2-845d-8b9228bc01bf",
    "name": "Bengo Province",
    "country_id": "9d6b7c66-5cdb-4024-a515-4e072ba0b0af",
    "country_code": "AO",
    "country_name": "Angola",
    "state_code": "BGO",
    "latitude": "-9.10422570",
    "longitude": "13.72891670"
  },
  {
    "id": "5a03e70d-5150-4288-9962-1119a59c194e",
    "name": "Benguela Province",
    "country_id": "9d6b7c66-5cdb-4024-a515-4e072ba0b0af",
    "country_code": "AO",
    "country_name": "Angola",
    "state_code": "BGU",
    "latitude": "-12.80037440",
    "longitude": "13.91439900"
  },
  {
    "id": "61591314-2e9e-40d2-912c-77f117d70250",
    "name": "Bié Province",
    "country_id": "9d6b7c66-5cdb-4024-a515-4e072ba0b0af",
    "country_code": "AO",
    "country_name": "Angola",
    "state_code": "BIE",
    "latitude": "-12.57279070",
    "longitude": "17.66888700"
  },
  {
    "id": "5265eddb-ec24-47b3-a5b7-cd66b6b90b61",
    "name": "Cabinda Province",
    "country_id": "9d6b7c66-5cdb-4024-a515-4e072ba0b0af",
    "country_code": "AO",
    "country_name": "Angola",
    "state_code": "CAB",
    "latitude": "-5.02487490",
    "longitude": "12.34638750"
  },
  {
    "id": "c8cd2961-6dc3-420e-aa40-47294aec510c",
    "name": "Cuando Cubango Province",
    "country_id": "9d6b7c66-5cdb-4024-a515-4e072ba0b0af",
    "country_code": "AO",
    "country_name": "Angola",
    "state_code": "CCU",
    "latitude": "-16.41808240",
    "longitude": "18.80761950"
  },
  {
    "id": "0ebf2474-8ae0-445f-9b25-83b7abc6b50f",
    "name": "Cuanza Norte Province",
    "country_id": "9d6b7c66-5cdb-4024-a515-4e072ba0b0af",
    "country_code": "AO",
    "country_name": "Angola",
    "state_code": "CNO",
    "latitude": "-9.23985130",
    "longitude": "14.65878210"
  },
  {
    "id": "353cda79-852b-4683-b39c-00c9b4c544bb",
    "name": "Cuanza Sul",
    "country_id": "9d6b7c66-5cdb-4024-a515-4e072ba0b0af",
    "country_code": "AO",
    "country_name": "Angola",
    "state_code": "CUS",
    "latitude": "-10.59519100",
    "longitude": "15.40680790"
  },
  {
    "id": "8670ee8e-668e-45e0-a15f-d6e8b463c61e",
    "name": "Cunene Province",
    "country_id": "9d6b7c66-5cdb-4024-a515-4e072ba0b0af",
    "country_code": "AO",
    "country_name": "Angola",
    "state_code": "CNN",
    "latitude": "-16.28022210",
    "longitude": "16.15809370"
  },
  {
    "id": "42f3552a-ccf3-47c3-827c-87daf6887ad4",
    "name": "Huambo Province",
    "country_id": "9d6b7c66-5cdb-4024-a515-4e072ba0b0af",
    "country_code": "AO",
    "country_name": "Angola",
    "state_code": "HUA",
    "latitude": "-12.52682210",
    "longitude": "15.59433880"
  },
  {
    "id": "da33116f-363f-4d2b-bc11-40316b6a94b6",
    "name": "Huíla Province",
    "country_id": "9d6b7c66-5cdb-4024-a515-4e072ba0b0af",
    "country_code": "AO",
    "country_name": "Angola",
    "state_code": "HUI",
    "latitude": "-14.92805530",
    "longitude": "14.65878210"
  },
  {
    "id": "4513fa52-44b2-45e4-8073-e61fe14a9fa0",
    "name": "Luanda Province",
    "country_id": "9d6b7c66-5cdb-4024-a515-4e072ba0b0af",
    "country_code": "AO",
    "country_name": "Angola",
    "state_code": "LUA",
    "latitude": "-9.03508800",
    "longitude": "13.26634790"
  },
  {
    "id": "1bd01b2c-eb6d-4c5a-82c6-da8d8b89159f",
    "name": "Lunda Norte Province",
    "country_id": "9d6b7c66-5cdb-4024-a515-4e072ba0b0af",
    "country_code": "AO",
    "country_name": "Angola",
    "state_code": "LNO",
    "latitude": "-8.35250220",
    "longitude": "19.18800470"
  },
  {
    "id": "fa6f994c-019e-41c8-a4c6-f14ee4c4e8af",
    "name": "Lunda Sul Province",
    "country_id": "9d6b7c66-5cdb-4024-a515-4e072ba0b0af",
    "country_code": "AO",
    "country_name": "Angola",
    "state_code": "LSU",
    "latitude": "-10.28665780",
    "longitude": "20.71224650"
  },
  {
    "id": "bf53b7b8-28da-47d4-a288-0d852ffa36f1",
    "name": "Malanje Province",
    "country_id": "9d6b7c66-5cdb-4024-a515-4e072ba0b0af",
    "country_code": "AO",
    "country_name": "Angola",
    "state_code": "MAL",
    "latitude": "-9.82511830",
    "longitude": "16.91225100"
  },
  {
    "id": "b3e83f63-0893-4986-85b6-86f693dd838d",
    "name": "Moxico Province",
    "country_id": "9d6b7c66-5cdb-4024-a515-4e072ba0b0af",
    "country_code": "AO",
    "country_name": "Angola",
    "state_code": "MOX",
    "latitude": "-13.42935790",
    "longitude": "20.33088140"
  },
  {
    "id": "11841d06-a460-4190-97cc-9b7a2a99526a",
    "name": "Uíge Province",
    "country_id": "9d6b7c66-5cdb-4024-a515-4e072ba0b0af",
    "country_code": "AO",
    "country_name": "Angola",
    "state_code": "UIG",
    "latitude": "-7.17367320",
    "longitude": "15.40680790"
  },
  {
    "id": "f9a83d61-93c1-411b-b305-b303c6ad99e1",
    "name": "Zaire Province",
    "country_id": "9d6b7c66-5cdb-4024-a515-4e072ba0b0af",
    "country_code": "AO",
    "country_name": "Angola",
    "state_code": "ZAI",
    "latitude": "-6.57334580",
    "longitude": "13.17403480"
  },
  {
    "id": "ab812486-0ea3-42d5-a4ba-46ea8212d596",
    "name": "Barbuda",
    "country_id": "031169f9-bc09-4717-a6b3-319f6d9f4bc4",
    "country_code": "AG",
    "country_name": "Antigua And Barbuda",
    "state_code": "10",
    "latitude": "17.62662420",
    "longitude": "-61.77130280"
  },
  {
    "id": "430fd3a6-6139-4373-914d-5a04bdfc8a1a",
    "name": "Redonda",
    "country_id": "031169f9-bc09-4717-a6b3-319f6d9f4bc4",
    "country_code": "AG",
    "country_name": "Antigua And Barbuda",
    "state_code": "11",
    "latitude": "16.93841600",
    "longitude": "-62.34551480"
  },
  {
    "id": "571967d4-18ca-4fee-a88a-554350df7699",
    "name": "Saint George Parish",
    "country_id": "031169f9-bc09-4717-a6b3-319f6d9f4bc4",
    "country_code": "AG",
    "country_name": "Antigua And Barbuda",
    "state_code": "03",
    "latitude": null,
    "longitude": null
  },
  {
    "id": "bf8515d3-7e8c-4175-80ce-f70b2c34e6a9",
    "name": "Saint John Parish",
    "country_id": "031169f9-bc09-4717-a6b3-319f6d9f4bc4",
    "country_code": "AG",
    "country_name": "Antigua And Barbuda",
    "state_code": "04",
    "latitude": null,
    "longitude": null
  },
  {
    "id": "e60f8a84-18b6-4bcf-b6ff-33232c772df2",
    "name": "Saint Mary Parish",
    "country_id": "031169f9-bc09-4717-a6b3-319f6d9f4bc4",
    "country_code": "AG",
    "country_name": "Antigua And Barbuda",
    "state_code": "05",
    "latitude": null,
    "longitude": null
  },
  {
    "id": "73361496-6bbe-4f5c-9330-d9b03ca9805b",
    "name": "Saint Paul Parish",
    "country_id": "031169f9-bc09-4717-a6b3-319f6d9f4bc4",
    "country_code": "AG",
    "country_name": "Antigua And Barbuda",
    "state_code": "06",
    "latitude": null,
    "longitude": null
  },
  {
    "id": "d2c6acab-3934-448b-a8df-73bae7ebcab1",
    "name": "Saint Peter Parish",
    "country_id": "031169f9-bc09-4717-a6b3-319f6d9f4bc4",
    "country_code": "AG",
    "country_name": "Antigua And Barbuda",
    "state_code": "07",
    "latitude": null,
    "longitude": null
  },
  {
    "id": "65c7fc9b-96c4-454f-806a-7ec573241e76",
    "name": "Saint Philip Parish",
    "country_id": "031169f9-bc09-4717-a6b3-319f6d9f4bc4",
    "country_code": "AG",
    "country_name": "Antigua And Barbuda",
    "state_code": "08",
    "latitude": "40.43682580",
    "longitude": "-80.06855320"
  },
  {
    "id": "feaeb08e-c2d2-4fc5-aa6d-5a138ff474bd",
    "name": "Buenos Aires",
    "country_id": "13cb8dd3-43e4-4d1a-8a16-69b681b224ee",
    "country_code": "AR",
    "country_name": "Argentina",
    "state_code": "B",
    "latitude": "-37.20172850",
    "longitude": "-59.84106970"
  },
  {
    "id": "9db1acd8-085e-4c4f-a82b-a4b49ce8fd5e",
    "name": "Catamarca",
    "country_id": "13cb8dd3-43e4-4d1a-8a16-69b681b224ee",
    "country_code": "AR",
    "country_name": "Argentina",
    "state_code": "K",
    "latitude": "-28.47158770",
    "longitude": "-65.78772090"
  },
  {
    "id": "0e802000-b390-4bfe-95fa-00aa98a867a0",
    "name": "Chaco",
    "country_id": "13cb8dd3-43e4-4d1a-8a16-69b681b224ee",
    "country_code": "AR",
    "country_name": "Argentina",
    "state_code": "H",
    "latitude": "-27.42571750",
    "longitude": "-59.02437840"
  },
  {
    "id": "36ea6668-5e1d-4a39-bf3e-f3cf0b7aa4f3",
    "name": "Chubut",
    "country_id": "13cb8dd3-43e4-4d1a-8a16-69b681b224ee",
    "country_code": "AR",
    "country_name": "Argentina",
    "state_code": "U",
    "latitude": "-43.29342460",
    "longitude": "-65.11148180"
  },
  {
    "id": "78686b27-9dfb-4cf1-a4ed-a14ba09ed548",
    "name": "Ciudad Autónoma de Buenos Aires",
    "country_id": "13cb8dd3-43e4-4d1a-8a16-69b681b224ee",
    "country_code": "AR",
    "country_name": "Argentina",
    "state_code": "C",
    "latitude": "-34.60368440",
    "longitude": "-58.38155910"
  },
  {
    "id": "79cc9a49-ece5-478d-a717-5f8642850371",
    "name": "Córdoba",
    "country_id": "13cb8dd3-43e4-4d1a-8a16-69b681b224ee",
    "country_code": "AR",
    "country_name": "Argentina",
    "state_code": "X",
    "latitude": "-31.39928760",
    "longitude": "-64.26438420"
  },
  {
    "id": "1405e0a1-82d6-4c18-95e0-ffd264f5525a",
    "name": "Corrientes",
    "country_id": "13cb8dd3-43e4-4d1a-8a16-69b681b224ee",
    "country_code": "AR",
    "country_name": "Argentina",
    "state_code": "W",
    "latitude": "-27.46921310",
    "longitude": "-58.83063490"
  },
  {
    "id": "306ef316-a150-4be5-94c2-e96d33d00c11",
    "name": "Entre Ríos",
    "country_id": "13cb8dd3-43e4-4d1a-8a16-69b681b224ee",
    "country_code": "AR",
    "country_name": "Argentina",
    "state_code": "E",
    "latitude": "-31.77466540",
    "longitude": "-60.49564610"
  },
  {
    "id": "b44d45a4-ed7f-4374-a0b2-e8c05b322b12",
    "name": "Formosa",
    "country_id": "13cb8dd3-43e4-4d1a-8a16-69b681b224ee",
    "country_code": "AR",
    "country_name": "Argentina",
    "state_code": "P",
    "latitude": "-26.18948040",
    "longitude": "-58.22428060"
  },
  {
    "id": "6a65a55a-2d3b-446f-ae98-d7ff977d43f0",
    "name": "Jujuy",
    "country_id": "13cb8dd3-43e4-4d1a-8a16-69b681b224ee",
    "country_code": "AR",
    "country_name": "Argentina",
    "state_code": "Y",
    "latitude": "-24.18433970",
    "longitude": "-65.30217700"
  },
  {
    "id": "e188c88d-5603-428f-a2f7-ca0da4b180c1",
    "name": "La Pampa",
    "country_id": "13cb8dd3-43e4-4d1a-8a16-69b681b224ee",
    "country_code": "AR",
    "country_name": "Argentina",
    "state_code": "L",
    "latitude": "-36.61475730",
    "longitude": "-64.28392090"
  },
  {
    "id": "f125c011-9c4e-429b-9f1e-eda64e5244a0",
    "name": "La Rioja",
    "country_id": "13cb8dd3-43e4-4d1a-8a16-69b681b224ee",
    "country_code": "AR",
    "country_name": "Argentina",
    "state_code": "F",
    "latitude": "-29.41937930",
    "longitude": "-66.85599320"
  },
  {
    "id": "d837cd70-939e-4c58-93c2-f37d8c4cd941",
    "name": "Mendoza",
    "country_id": "13cb8dd3-43e4-4d1a-8a16-69b681b224ee",
    "country_code": "AR",
    "country_name": "Argentina",
    "state_code": "M",
    "latitude": "-32.88945870",
    "longitude": "-68.84583860"
  },
  {
    "id": "8be460c6-c368-465f-b700-ec1c96c5725c",
    "name": "Misiones",
    "country_id": "13cb8dd3-43e4-4d1a-8a16-69b681b224ee",
    "country_code": "AR",
    "country_name": "Argentina",
    "state_code": "N",
    "latitude": "-27.42692550",
    "longitude": "-55.94670760"
  },
  {
    "id": "c4cbb2d2-926f-43ce-b824-259dadc63e46",
    "name": "Neuquén",
    "country_id": "13cb8dd3-43e4-4d1a-8a16-69b681b224ee",
    "country_code": "AR",
    "country_name": "Argentina",
    "state_code": "Q",
    "latitude": "-38.94587000",
    "longitude": "-68.07309250"
  },
  {
    "id": "fdefb5b6-81aa-445a-82ed-f9b02239a7b5",
    "name": "Río Negro",
    "country_id": "13cb8dd3-43e4-4d1a-8a16-69b681b224ee",
    "country_code": "AR",
    "country_name": "Argentina",
    "state_code": "R",
    "latitude": "-40.82614340",
    "longitude": "-63.02663390"
  },
  {
    "id": "ecc18300-6d59-40bb-934a-fb98f55a4ba2",
    "name": "Salta",
    "country_id": "13cb8dd3-43e4-4d1a-8a16-69b681b224ee",
    "country_code": "AR",
    "country_name": "Argentina",
    "state_code": "A",
    "latitude": "-24.79976880",
    "longitude": "-65.41503670"
  },
  {
    "id": "d2f47b00-387e-4daf-a4f9-ef58e2e87f32",
    "name": "San Juan",
    "country_id": "13cb8dd3-43e4-4d1a-8a16-69b681b224ee",
    "country_code": "AR",
    "country_name": "Argentina",
    "state_code": "J",
    "latitude": "-31.53169760",
    "longitude": "-68.56769620"
  },
  {
    "id": "4147b37d-b0e8-49df-b798-6feacb4689df",
    "name": "San Luis",
    "country_id": "13cb8dd3-43e4-4d1a-8a16-69b681b224ee",
    "country_code": "AR",
    "country_name": "Argentina",
    "state_code": "D",
    "latitude": "-33.29620420",
    "longitude": "-66.32949480"
  },
  {
    "id": "31ff24d5-2954-43c6-9cb5-40fa93b448f9",
    "name": "Santa Cruz",
    "country_id": "13cb8dd3-43e4-4d1a-8a16-69b681b224ee",
    "country_code": "AR",
    "country_name": "Argentina",
    "state_code": "Z",
    "latitude": "-51.63528210",
    "longitude": "-69.24743530"
  },
  {
    "id": "8fcfa7d9-4387-44ec-b1a7-7ec1c90fdcec",
    "name": "Santa Fe",
    "country_id": "13cb8dd3-43e4-4d1a-8a16-69b681b224ee",
    "country_code": "AR",
    "country_name": "Argentina",
    "state_code": "S",
    "latitude": "-31.58551090",
    "longitude": "-60.72380160"
  },
  {
    "id": "df185d86-58f6-4ede-b9cc-82746d72d790",
    "name": "Santiago del Estero",
    "country_id": "13cb8dd3-43e4-4d1a-8a16-69b681b224ee",
    "country_code": "AR",
    "country_name": "Argentina",
    "state_code": "G",
    "latitude": "-27.78335740",
    "longitude": "-64.26416700"
  },
  {
    "id": "e4754d62-23fc-4ba5-9591-c6253d4dbad7",
    "name": "Tierra del Fuego",
    "country_id": "13cb8dd3-43e4-4d1a-8a16-69b681b224ee",
    "country_code": "AR",
    "country_name": "Argentina",
    "state_code": "V",
    "latitude": "-54.80539980",
    "longitude": "-68.32420610"
  },
  {
    "id": "b2750936-535b-4d8f-be7c-7752563c6f1c",
    "name": "Tucumán",
    "country_id": "13cb8dd3-43e4-4d1a-8a16-69b681b224ee",
    "country_code": "AR",
    "country_name": "Argentina",
    "state_code": "T",
    "latitude": "-26.82211270",
    "longitude": "-65.21929030"
  },
  {
    "id": "fff7b902-479d-451b-8a4a-ac9ad070ccf7",
    "name": "Aragatsotn Region",
    "country_id": "d4c34601-705a-43ec-8bc4-814461d405b5",
    "country_code": "AM",
    "country_name": "Armenia",
    "state_code": "AG",
    "latitude": "40.33473010",
    "longitude": "44.37482960"
  },
  {
    "id": "fdc444c4-0bf3-4c6d-b395-93a99627fb9c",
    "name": "Ararat Province",
    "country_id": "d4c34601-705a-43ec-8bc4-814461d405b5",
    "country_code": "AM",
    "country_name": "Armenia",
    "state_code": "AR",
    "latitude": "39.91394150",
    "longitude": "44.72000040"
  },
  {
    "id": "c43f9149-cef5-4392-91c6-9752adc9cb16",
    "name": "Armavir Region",
    "country_id": "d4c34601-705a-43ec-8bc4-814461d405b5",
    "country_code": "AM",
    "country_name": "Armenia",
    "state_code": "AV",
    "latitude": "40.15546310",
    "longitude": "44.03724460"
  },
  {
    "id": "bc10a676-0c4f-47a5-bf07-7605c8c389bd",
    "name": "Gegharkunik Province",
    "country_id": "d4c34601-705a-43ec-8bc4-814461d405b5",
    "country_code": "AM",
    "country_name": "Armenia",
    "state_code": "GR",
    "latitude": "40.35264260",
    "longitude": "45.12604140"
  },
  {
    "id": "6d07ed56-3bbd-4102-8847-7fd2bbe6519e",
    "name": "Kotayk Region",
    "country_id": "d4c34601-705a-43ec-8bc4-814461d405b5",
    "country_code": "AM",
    "country_name": "Armenia",
    "state_code": "KT",
    "latitude": "40.54102140",
    "longitude": "44.76901480"
  },
  {
    "id": "edaf5011-489d-4d4d-b9c0-82a2278f6d3d",
    "name": "Lori Region",
    "country_id": "d4c34601-705a-43ec-8bc4-814461d405b5",
    "country_code": "AM",
    "country_name": "Armenia",
    "state_code": "LO",
    "latitude": "40.96984520",
    "longitude": "44.49001380"
  },
  {
    "id": "55ed6fda-2c7c-45eb-882d-e37090306a95",
    "name": "Shirak Region",
    "country_id": "d4c34601-705a-43ec-8bc4-814461d405b5",
    "country_code": "AM",
    "country_name": "Armenia",
    "state_code": "SH",
    "latitude": "40.96308140",
    "longitude": "43.81024610"
  },
  {
    "id": "0e55ea9f-e9f8-4b89-a0d9-528169a1847e",
    "name": "Syunik Province",
    "country_id": "d4c34601-705a-43ec-8bc4-814461d405b5",
    "country_code": "AM",
    "country_name": "Armenia",
    "state_code": "SU",
    "latitude": "39.51331120",
    "longitude": "46.33932340"
  },
  {
    "id": "734f4152-ebf7-41fe-9da4-5310a8d40414",
    "name": "Tavush Region",
    "country_id": "d4c34601-705a-43ec-8bc4-814461d405b5",
    "country_code": "AM",
    "country_name": "Armenia",
    "state_code": "TV",
    "latitude": "40.88662960",
    "longitude": "45.33934900"
  },
  {
    "id": "4446de1e-040c-45e6-8555-64263ba766f6",
    "name": "Vayots Dzor Region",
    "country_id": "d4c34601-705a-43ec-8bc4-814461d405b5",
    "country_code": "AM",
    "country_name": "Armenia",
    "state_code": "VD",
    "latitude": "39.76419960",
    "longitude": "45.33375280"
  },
  {
    "id": "b07eb570-3190-429c-a58f-f21cac9932c7",
    "name": "Yerevan",
    "country_id": "d4c34601-705a-43ec-8bc4-814461d405b5",
    "country_code": "AM",
    "country_name": "Armenia",
    "state_code": "ER",
    "latitude": "40.18720230",
    "longitude": "44.51520900"
  },
  {
    "id": "4acabd38-e2ff-46a8-9e64-107ce9fd34dc",
    "name": "Australian Capital Territory",
    "country_id": "2338faff-c722-40fa-abb4-c73ccfad3153",
    "country_code": "AU",
    "country_name": "Australia",
    "state_code": "ACT",
    "latitude": "-35.47346790",
    "longitude": "149.01236790"
  },
  {
    "id": "ed04ccdc-1e86-46af-b9a1-5baf27819a09",
    "name": "New South Wales",
    "country_id": "2338faff-c722-40fa-abb4-c73ccfad3153",
    "country_code": "AU",
    "country_name": "Australia",
    "state_code": "NSW",
    "latitude": "-31.25321830",
    "longitude": "146.92109900"
  },
  {
    "id": "7b8e388b-f336-4baf-b6d1-12276c03fe8b",
    "name": "Northern Territory",
    "country_id": "2338faff-c722-40fa-abb4-c73ccfad3153",
    "country_code": "AU",
    "country_name": "Australia",
    "state_code": "NT",
    "latitude": "-19.49141080",
    "longitude": "132.55096030"
  },
  {
    "id": "88fb58fc-15ad-4f34-9dab-399443b56470",
    "name": "Queensland",
    "country_id": "2338faff-c722-40fa-abb4-c73ccfad3153",
    "country_code": "AU",
    "country_name": "Australia",
    "state_code": "QLD",
    "latitude": "-20.91757380",
    "longitude": "142.70279560"
  },
  {
    "id": "0dfedb10-b858-42b1-a87b-b25ad98f1c50",
    "name": "South Australia",
    "country_id": "2338faff-c722-40fa-abb4-c73ccfad3153",
    "country_code": "AU",
    "country_name": "Australia",
    "state_code": "SA",
    "latitude": "-30.00023150",
    "longitude": "136.20915470"
  },
  {
    "id": "579fb29a-4f4f-4ca1-959c-63261c2af780",
    "name": "Tasmania",
    "country_id": "2338faff-c722-40fa-abb4-c73ccfad3153",
    "country_code": "AU",
    "country_name": "Australia",
    "state_code": "TAS",
    "latitude": "-41.45451960",
    "longitude": "145.97066470"
  },
  {
    "id": "e99dd0a1-5864-492d-82fb-5652c6fddfec",
    "name": "Victoria",
    "country_id": "2338faff-c722-40fa-abb4-c73ccfad3153",
    "country_code": "AU",
    "country_name": "Australia",
    "state_code": "VIC",
    "latitude": "-36.48564230",
    "longitude": "140.97794250"
  },
  {
    "id": "ffef1820-f7c4-4195-a3b0-0cc444d3f30e",
    "name": "Western Australia",
    "country_id": "2338faff-c722-40fa-abb4-c73ccfad3153",
    "country_code": "AU",
    "country_name": "Australia",
    "state_code": "WA",
    "latitude": "-27.67281680",
    "longitude": "121.62830980"
  },
  {
    "id": "e2f64b5d-5477-4bd5-ae57-4966fa4d19b9",
    "name": "Burgenland",
    "country_id": "3119bac4-dce4-4f02-9e16-da6c0e0c1706",
    "country_code": "AT",
    "country_name": "Austria",
    "state_code": "1",
    "latitude": "47.15371650",
    "longitude": "16.26887970"
  },
  {
    "id": "2da6af49-08fc-4b8f-958d-4611c0ba406a",
    "name": "Carinthia",
    "country_id": "3119bac4-dce4-4f02-9e16-da6c0e0c1706",
    "country_code": "AT",
    "country_name": "Austria",
    "state_code": "2",
    "latitude": "46.72220300",
    "longitude": "14.18058820"
  },
  {
    "id": "5577ba28-89d5-4229-8d8c-616cbbef40c7",
    "name": "Lower Austria",
    "country_id": "3119bac4-dce4-4f02-9e16-da6c0e0c1706",
    "country_code": "AT",
    "country_name": "Austria",
    "state_code": "3",
    "latitude": "48.10807700",
    "longitude": "15.80495580"
  },
  {
    "id": "3e26cd02-a0a8-4d9a-ad49-2e7c7b2b6089",
    "name": "Salzburg",
    "country_id": "3119bac4-dce4-4f02-9e16-da6c0e0c1706",
    "country_code": "AT",
    "country_name": "Austria",
    "state_code": "5",
    "latitude": "47.80949000",
    "longitude": "13.05501000"
  },
  {
    "id": "1254bed5-edc6-4ebb-8d80-bae648b05e37",
    "name": "Styria",
    "country_id": "3119bac4-dce4-4f02-9e16-da6c0e0c1706",
    "country_code": "AT",
    "country_name": "Austria",
    "state_code": "6",
    "latitude": "47.35934420",
    "longitude": "14.46998270"
  },
  {
    "id": "704290af-a9ad-4dac-9dae-14562d735ebb",
    "name": "Tyrol",
    "country_id": "3119bac4-dce4-4f02-9e16-da6c0e0c1706",
    "country_code": "AT",
    "country_name": "Austria",
    "state_code": "7",
    "latitude": "47.25374140",
    "longitude": "11.60148700"
  },
  {
    "id": "8de6e7cd-67f7-41c8-8041-7deda7b4aece",
    "name": "Upper Austria",
    "country_id": "3119bac4-dce4-4f02-9e16-da6c0e0c1706",
    "country_code": "AT",
    "country_name": "Austria",
    "state_code": "4",
    "latitude": "48.02585400",
    "longitude": "13.97236650"
  },
  {
    "id": "6f1fa883-95a1-402a-be1b-c30b6c93b254",
    "name": "Vienna",
    "country_id": "3119bac4-dce4-4f02-9e16-da6c0e0c1706",
    "country_code": "AT",
    "country_name": "Austria",
    "state_code": "9",
    "latitude": "48.20817430",
    "longitude": "16.37381890"
  },
  {
    "id": "c5cccafa-8e37-4073-9e97-247b30c72db9",
    "name": "Vorarlberg",
    "country_id": "3119bac4-dce4-4f02-9e16-da6c0e0c1706",
    "country_code": "AT",
    "country_name": "Austria",
    "state_code": "8",
    "latitude": "47.24974270",
    "longitude": "9.97973730"
  },
  {
    "id": "6d3c282d-7a0e-4dce-bb5a-64cb5861818d",
    "name": "Absheron District",
    "country_id": "a368e86b-e8fd-4c83-a997-7257cd7e0cf3",
    "country_code": "AZ",
    "country_name": "Azerbaijan",
    "state_code": "ABS",
    "latitude": "40.36296930",
    "longitude": "49.27368150"
  },
  {
    "id": "46447012-f49d-4b86-b474-7535b9c0ea6b",
    "name": "Agdam District",
    "country_id": "a368e86b-e8fd-4c83-a997-7257cd7e0cf3",
    "country_code": "AZ",
    "country_name": "Azerbaijan",
    "state_code": "AGM",
    "latitude": "39.99318530",
    "longitude": "46.99495620"
  },
  {
    "id": "85456dc9-49d5-4662-93e7-a655ccf97e05",
    "name": "Agdash District",
    "country_id": "a368e86b-e8fd-4c83-a997-7257cd7e0cf3",
    "country_code": "AZ",
    "country_name": "Azerbaijan",
    "state_code": "AGS",
    "latitude": "40.63354270",
    "longitude": "47.46743100"
  },
  {
    "id": "be576867-7250-4779-97a7-d664cbc18ddf",
    "name": "Aghjabadi District",
    "country_id": "a368e86b-e8fd-4c83-a997-7257cd7e0cf3",
    "country_code": "AZ",
    "country_name": "Azerbaijan",
    "state_code": "AGC",
    "latitude": "28.78918410",
    "longitude": "77.51607880"
  },
  {
    "id": "bd903358-b9e3-425c-830b-aa7d83b0ef6e",
    "name": "Agstafa District",
    "country_id": "a368e86b-e8fd-4c83-a997-7257cd7e0cf3",
    "country_code": "AZ",
    "country_name": "Azerbaijan",
    "state_code": "AGA",
    "latitude": "41.26559330",
    "longitude": "45.51342910"
  },
  {
    "id": "d6fca188-6ab1-4a36-b71f-4f77b77c6a2f",
    "name": "Agsu District",
    "country_id": "a368e86b-e8fd-4c83-a997-7257cd7e0cf3",
    "country_code": "AZ",
    "country_name": "Azerbaijan",
    "state_code": "AGU",
    "latitude": "40.52833390",
    "longitude": "48.36508350"
  },
  {
    "id": "7fc8311a-62e3-4c37-b3e0-17d27e5ffc18",
    "name": "Astara District",
    "country_id": "a368e86b-e8fd-4c83-a997-7257cd7e0cf3",
    "country_code": "AZ",
    "country_name": "Azerbaijan",
    "state_code": "AST",
    "latitude": "38.49378450",
    "longitude": "48.69443650"
  },
  {
    "id": "7dad5e84-804a-4e29-ab2d-c9d194ad99f7",
    "name": "Babek District",
    "country_id": "a368e86b-e8fd-4c83-a997-7257cd7e0cf3",
    "country_code": "AZ",
    "country_name": "Azerbaijan",
    "state_code": "BAB",
    "latitude": "39.15076130",
    "longitude": "45.44853680"
  },
  {
    "id": "acdb8cd8-5729-48f9-91de-ad549c369f3d",
    "name": "Baku",
    "country_id": "a368e86b-e8fd-4c83-a997-7257cd7e0cf3",
    "country_code": "AZ",
    "country_name": "Azerbaijan",
    "state_code": "BA",
    "latitude": "40.40926170",
    "longitude": "49.86709240"
  },
  {
    "id": "702f6344-4832-4e84-b38b-7183c0e13fd8",
    "name": "Balakan District",
    "country_id": "a368e86b-e8fd-4c83-a997-7257cd7e0cf3",
    "country_code": "AZ",
    "country_name": "Azerbaijan",
    "state_code": "BAL",
    "latitude": "41.70375090",
    "longitude": "46.40442130"
  },
  {
    "id": "98a4a8ad-e075-4653-9788-1b7d6e1acd25",
    "name": "Barda District",
    "country_id": "a368e86b-e8fd-4c83-a997-7257cd7e0cf3",
    "country_code": "AZ",
    "country_name": "Azerbaijan",
    "state_code": "BAR",
    "latitude": "40.37065550",
    "longitude": "47.13789090"
  },
  {
    "id": "37fc6acc-708b-4b80-8c53-89d1cafe9940",
    "name": "Beylagan District",
    "country_id": "a368e86b-e8fd-4c83-a997-7257cd7e0cf3",
    "country_code": "AZ",
    "country_name": "Azerbaijan",
    "state_code": "BEY",
    "latitude": "39.77230730",
    "longitude": "47.61541660"
  },
  {
    "id": "4e943491-e778-49fd-aef7-3dfc828229ec",
    "name": "Bilasuvar District",
    "country_id": "a368e86b-e8fd-4c83-a997-7257cd7e0cf3",
    "country_code": "AZ",
    "country_name": "Azerbaijan",
    "state_code": "BIL",
    "latitude": "39.45988330",
    "longitude": "48.55098130"
  },
  {
    "id": "fa70f919-633e-4e1d-a8dd-7c21fb83205c",
    "name": "Dashkasan District",
    "country_id": "a368e86b-e8fd-4c83-a997-7257cd7e0cf3",
    "country_code": "AZ",
    "country_name": "Azerbaijan",
    "state_code": "DAS",
    "latitude": "40.52022570",
    "longitude": "46.07793040"
  },
  {
    "id": "965b6bd7-1e62-42a0-a274-0ccc8b903943",
    "name": "Fizuli District",
    "country_id": "a368e86b-e8fd-4c83-a997-7257cd7e0cf3",
    "country_code": "AZ",
    "country_name": "Azerbaijan",
    "state_code": "FUZ",
    "latitude": "39.53786050",
    "longitude": "47.30338770"
  },
  {
    "id": "9cb04e79-f365-40c2-8b08-fc0e43ff26a3",
    "name": "Ganja",
    "country_id": "a368e86b-e8fd-4c83-a997-7257cd7e0cf3",
    "country_code": "AZ",
    "country_name": "Azerbaijan",
    "state_code": "GA",
    "latitude": "36.36873380",
    "longitude": "-95.99857670"
  },
  {
    "id": "a86e38f2-a31e-4af8-8ea5-19901bc03373",
    "name": "Gədəbəy",
    "country_id": "a368e86b-e8fd-4c83-a997-7257cd7e0cf3",
    "country_code": "AZ",
    "country_name": "Azerbaijan",
    "state_code": "GAD",
    "latitude": "40.56996390",
    "longitude": "45.81068830"
  },
  {
    "id": "e88bcf8a-70ec-40a2-b277-144932be3632",
    "name": "Gobustan District",
    "country_id": "a368e86b-e8fd-4c83-a997-7257cd7e0cf3",
    "country_code": "AZ",
    "country_name": "Azerbaijan",
    "state_code": "QOB",
    "latitude": "40.53261040",
    "longitude": "48.92737500"
  },
  {
    "id": "bf5da309-9c5f-4a33-9412-c0ef68224ef2",
    "name": "Goranboy District",
    "country_id": "a368e86b-e8fd-4c83-a997-7257cd7e0cf3",
    "country_code": "AZ",
    "country_name": "Azerbaijan",
    "state_code": "GOR",
    "latitude": "40.53805060",
    "longitude": "46.59908910"
  },
  {
    "id": "bc3575a0-243a-42a0-ae89-2cd84a8dcc09",
    "name": "Goychay",
    "country_id": "a368e86b-e8fd-4c83-a997-7257cd7e0cf3",
    "country_code": "AZ",
    "country_name": "Azerbaijan",
    "state_code": "GOY",
    "latitude": "40.62361680",
    "longitude": "47.74030340"
  },
  {
    "id": "d83180ba-0073-4d44-a178-c99f4b2550ba",
    "name": "Goygol District",
    "country_id": "a368e86b-e8fd-4c83-a997-7257cd7e0cf3",
    "country_code": "AZ",
    "country_name": "Azerbaijan",
    "state_code": "GYG",
    "latitude": "40.55953780",
    "longitude": "46.33149530"
  },
  {
    "id": "c058f535-412d-4488-ad22-e298e62e5e14",
    "name": "Hajigabul District",
    "country_id": "a368e86b-e8fd-4c83-a997-7257cd7e0cf3",
    "country_code": "AZ",
    "country_name": "Azerbaijan",
    "state_code": "HAC",
    "latitude": "40.03937700",
    "longitude": "48.92025330"
  },
  {
    "id": "433ec4d7-99cc-4aab-9160-988dd5acf3ff",
    "name": "Imishli District",
    "country_id": "a368e86b-e8fd-4c83-a997-7257cd7e0cf3",
    "country_code": "AZ",
    "country_name": "Azerbaijan",
    "state_code": "IMI",
    "latitude": "39.86946860",
    "longitude": "48.06652180"
  },
  {
    "id": "9cdbf623-06fd-409a-acfb-203d46d73ac3",
    "name": "Ismailli District",
    "country_id": "a368e86b-e8fd-4c83-a997-7257cd7e0cf3",
    "country_code": "AZ",
    "country_name": "Azerbaijan",
    "state_code": "ISM",
    "latitude": "40.74299360",
    "longitude": "48.21255560"
  },
  {
    "id": "a2260eaa-b9f7-4ec0-8f29-c4e939f8860b",
    "name": "Jabrayil District",
    "country_id": "a368e86b-e8fd-4c83-a997-7257cd7e0cf3",
    "country_code": "AZ",
    "country_name": "Azerbaijan",
    "state_code": "CAB",
    "latitude": "39.26455440",
    "longitude": "46.96215620"
  },
  {
    "id": "6e1113c2-1686-4f82-9c9d-88acdfaf98d1",
    "name": "Jalilabad District",
    "country_id": "a368e86b-e8fd-4c83-a997-7257cd7e0cf3",
    "country_code": "AZ",
    "country_name": "Azerbaijan",
    "state_code": "CAL",
    "latitude": "39.20516320",
    "longitude": "48.51006040"
  },
  {
    "id": "e9942baa-965a-45df-a5a6-4a8b29131aad",
    "name": "Julfa District",
    "country_id": "a368e86b-e8fd-4c83-a997-7257cd7e0cf3",
    "country_code": "AZ",
    "country_name": "Azerbaijan",
    "state_code": "CUL",
    "latitude": "38.96049830",
    "longitude": "45.62929390"
  },
  {
    "id": "fec844c7-dc17-4aa4-999a-4979dc68f73e",
    "name": "Kalbajar District",
    "country_id": "a368e86b-e8fd-4c83-a997-7257cd7e0cf3",
    "country_code": "AZ",
    "country_name": "Azerbaijan",
    "state_code": "KAL",
    "latitude": "40.10243290",
    "longitude": "46.03648720"
  },
  {
    "id": "2cdcf832-63a6-4c52-a7fb-85d6cb1fc439",
    "name": "Kangarli District",
    "country_id": "a368e86b-e8fd-4c83-a997-7257cd7e0cf3",
    "country_code": "AZ",
    "country_name": "Azerbaijan",
    "state_code": "KAN",
    "latitude": "39.38719400",
    "longitude": "45.16398520"
  },
  {
    "id": "5929657f-c1c8-4c94-91e6-b1219f8d0e23",
    "name": "Khachmaz District",
    "country_id": "a368e86b-e8fd-4c83-a997-7257cd7e0cf3",
    "country_code": "AZ",
    "country_name": "Azerbaijan",
    "state_code": "XAC",
    "latitude": "41.45911680",
    "longitude": "48.80206260"
  },
  {
    "id": "a4cccb65-5550-41ed-9402-efdc805fc2b3",
    "name": "Khizi District",
    "country_id": "a368e86b-e8fd-4c83-a997-7257cd7e0cf3",
    "country_code": "AZ",
    "country_name": "Azerbaijan",
    "state_code": "XIZ",
    "latitude": "40.91094890",
    "longitude": "49.07292640"
  },
  {
    "id": "7e8bec94-e439-4692-aa3c-71e6ae3c6538",
    "name": "Khojali District",
    "country_id": "a368e86b-e8fd-4c83-a997-7257cd7e0cf3",
    "country_code": "AZ",
    "country_name": "Azerbaijan",
    "state_code": "XCI",
    "latitude": "39.91325530",
    "longitude": "46.79430500"
  },
  {
    "id": "39fb35f3-c134-4542-b231-d1fd27b346d4",
    "name": "Kurdamir District",
    "country_id": "a368e86b-e8fd-4c83-a997-7257cd7e0cf3",
    "country_code": "AZ",
    "country_name": "Azerbaijan",
    "state_code": "KUR",
    "latitude": "40.36986510",
    "longitude": "48.16446260"
  },
  {
    "id": "e32134cc-7b94-4750-889e-689e8834f450",
    "name": "Lachin District",
    "country_id": "a368e86b-e8fd-4c83-a997-7257cd7e0cf3",
    "country_code": "AZ",
    "country_name": "Azerbaijan",
    "state_code": "LAC",
    "latitude": "39.63834140",
    "longitude": "46.54608530"
  },
  {
    "id": "c4ce7a9d-c557-4d6d-8de8-1303c72d013a",
    "name": "Lankaran",
    "country_id": "a368e86b-e8fd-4c83-a997-7257cd7e0cf3",
    "country_code": "AZ",
    "country_name": "Azerbaijan",
    "state_code": "LAN",
    "latitude": "38.75286690",
    "longitude": "48.84750150"
  },
  {
    "id": "c3915565-d9d2-4694-8393-37ec42922d25",
    "name": "Lankaran District",
    "country_id": "a368e86b-e8fd-4c83-a997-7257cd7e0cf3",
    "country_code": "AZ",
    "country_name": "Azerbaijan",
    "state_code": "LA",
    "latitude": "38.75286690",
    "longitude": "48.84750150"
  },
  {
    "id": "8ebd14ef-a717-4e3b-bcc2-53226b769c3e",
    "name": "Lerik District",
    "country_id": "a368e86b-e8fd-4c83-a997-7257cd7e0cf3",
    "country_code": "AZ",
    "country_name": "Azerbaijan",
    "state_code": "LER",
    "latitude": "38.77361920",
    "longitude": "48.41514830"
  },
  {
    "id": "75b85005-8f7a-4932-959f-9c6520d0bda4",
    "name": "Martuni",
    "country_id": "a368e86b-e8fd-4c83-a997-7257cd7e0cf3",
    "country_code": "AZ",
    "country_name": "Azerbaijan",
    "state_code": "XVD",
    "latitude": "39.79146930",
    "longitude": "47.11008140"
  },
  {
    "id": "13936f94-3b11-485d-a7d3-0dd96a3be8bd",
    "name": "Masally District",
    "country_id": "a368e86b-e8fd-4c83-a997-7257cd7e0cf3",
    "country_code": "AZ",
    "country_name": "Azerbaijan",
    "state_code": "MAS",
    "latitude": "39.03407220",
    "longitude": "48.65893540"
  },
  {
    "id": "6d42eea8-946f-45c1-a930-3dc9a21b9834",
    "name": "Mingachevir",
    "country_id": "a368e86b-e8fd-4c83-a997-7257cd7e0cf3",
    "country_code": "AZ",
    "country_name": "Azerbaijan",
    "state_code": "MI",
    "latitude": "40.77025630",
    "longitude": "47.04960150"
  },
  {
    "id": "950c28df-5c74-42ac-bca4-569371004e27",
    "name": "Nakhchivan Autonomous Republic",
    "country_id": "a368e86b-e8fd-4c83-a997-7257cd7e0cf3",
    "country_code": "AZ",
    "country_name": "Azerbaijan",
    "state_code": "NX",
    "latitude": "39.32568140",
    "longitude": "45.49126480"
  },
  {
    "id": "ebc3c838-e167-460a-8383-bf7d106cf1c0",
    "name": "Neftchala District",
    "country_id": "a368e86b-e8fd-4c83-a997-7257cd7e0cf3",
    "country_code": "AZ",
    "country_name": "Azerbaijan",
    "state_code": "NEF",
    "latitude": "39.38810520",
    "longitude": "49.24137430"
  },
  {
    "id": "615e6454-875d-4135-b977-bbed279b0d30",
    "name": "Oghuz District",
    "country_id": "a368e86b-e8fd-4c83-a997-7257cd7e0cf3",
    "country_code": "AZ",
    "country_name": "Azerbaijan",
    "state_code": "OGU",
    "latitude": "41.07279240",
    "longitude": "47.46506720"
  },
  {
    "id": "d56d7d21-ceba-4609-9caf-905a355ec5c8",
    "name": "Ordubad District",
    "country_id": "a368e86b-e8fd-4c83-a997-7257cd7e0cf3",
    "country_code": "AZ",
    "country_name": "Azerbaijan",
    "state_code": "ORD",
    "latitude": "38.90216220",
    "longitude": "46.02376250"
  },
  {
    "id": "dfe4fbd0-b381-4cff-a12f-14a1fbf68f6e",
    "name": "Qabala District",
    "country_id": "a368e86b-e8fd-4c83-a997-7257cd7e0cf3",
    "country_code": "AZ",
    "country_name": "Azerbaijan",
    "state_code": "QAB",
    "latitude": "40.92539250",
    "longitude": "47.80161060"
  },
  {
    "id": "e945a812-ee1f-4ebf-bbd6-8ae61c386764",
    "name": "Qakh District",
    "country_id": "a368e86b-e8fd-4c83-a997-7257cd7e0cf3",
    "country_code": "AZ",
    "country_name": "Azerbaijan",
    "state_code": "QAX",
    "latitude": "41.42068270",
    "longitude": "46.93201840"
  },
  {
    "id": "231f68f9-f562-4f60-9d68-b2a039067a8e",
    "name": "Qazakh District",
    "country_id": "a368e86b-e8fd-4c83-a997-7257cd7e0cf3",
    "country_code": "AZ",
    "country_name": "Azerbaijan",
    "state_code": "QAZ",
    "latitude": "41.09710740",
    "longitude": "45.35163310"
  },
  {
    "id": "68385913-e6f9-40a2-a76f-600b89ad9274",
    "name": "Quba District",
    "country_id": "a368e86b-e8fd-4c83-a997-7257cd7e0cf3",
    "country_code": "AZ",
    "country_name": "Azerbaijan",
    "state_code": "QBA",
    "latitude": "41.15642420",
    "longitude": "48.41350210"
  },
  {
    "id": "15e6ee74-bee5-40c8-833c-370a1e49eb43",
    "name": "Qubadli District",
    "country_id": "a368e86b-e8fd-4c83-a997-7257cd7e0cf3",
    "country_code": "AZ",
    "country_name": "Azerbaijan",
    "state_code": "QBI",
    "latitude": "39.27139960",
    "longitude": "46.63543120"
  },
  {
    "id": "33d6e7ef-e370-46fa-b792-68bb450dbdbd",
    "name": "Qusar District",
    "country_id": "a368e86b-e8fd-4c83-a997-7257cd7e0cf3",
    "country_code": "AZ",
    "country_name": "Azerbaijan",
    "state_code": "QUS",
    "latitude": "41.42668860",
    "longitude": "48.43455770"
  },
  {
    "id": "38a1db55-0421-4aad-9ef6-77ca180dbd21",
    "name": "Saatly District",
    "country_id": "a368e86b-e8fd-4c83-a997-7257cd7e0cf3",
    "country_code": "AZ",
    "country_name": "Azerbaijan",
    "state_code": "SAT",
    "latitude": "39.90955030",
    "longitude": "48.35951220"
  },
  {
    "id": "000a0d93-e8d5-4dec-8700-47f2382d1447",
    "name": "Sabirabad District",
    "country_id": "a368e86b-e8fd-4c83-a997-7257cd7e0cf3",
    "country_code": "AZ",
    "country_name": "Azerbaijan",
    "state_code": "SAB",
    "latitude": "39.98706630",
    "longitude": "48.46925450"
  },
  {
    "id": "6c497ddc-1f57-4ff0-a245-8749d75e7467",
    "name": "Sadarak District",
    "country_id": "a368e86b-e8fd-4c83-a997-7257cd7e0cf3",
    "country_code": "AZ",
    "country_name": "Azerbaijan",
    "state_code": "SAD",
    "latitude": "39.71051140",
    "longitude": "44.88642770"
  },
  {
    "id": "1c9d8f78-bacd-4fa6-b387-35c31f9403ef",
    "name": "Salyan District",
    "country_id": "a368e86b-e8fd-4c83-a997-7257cd7e0cf3",
    "country_code": "AZ",
    "country_name": "Azerbaijan",
    "state_code": "SAL",
    "latitude": "28.35248110",
    "longitude": "82.12784000"
  },
  {
    "id": "97b7f485-01d3-4d74-b01d-c2718a355bd2",
    "name": "Samukh District",
    "country_id": "a368e86b-e8fd-4c83-a997-7257cd7e0cf3",
    "country_code": "AZ",
    "country_name": "Azerbaijan",
    "state_code": "SMX",
    "latitude": "40.76046310",
    "longitude": "46.40631810"
  },
  {
    "id": "5c89e53f-8b7c-4c8e-a6ac-f1e1386dd3d1",
    "name": "Shabran District",
    "country_id": "a368e86b-e8fd-4c83-a997-7257cd7e0cf3",
    "country_code": "AZ",
    "country_name": "Azerbaijan",
    "state_code": "SBN",
    "latitude": "41.22283760",
    "longitude": "48.84573040"
  },
  {
    "id": "34198609-590c-4b7a-a4c6-25c1ac8e1e65",
    "name": "Shahbuz District",
    "country_id": "a368e86b-e8fd-4c83-a997-7257cd7e0cf3",
    "country_code": "AZ",
    "country_name": "Azerbaijan",
    "state_code": "SAH",
    "latitude": "39.44521030",
    "longitude": "45.65680090"
  },
  {
    "id": "26bf3666-33a5-4494-9d05-a8ac1f961f0e",
    "name": "Shaki",
    "country_id": "a368e86b-e8fd-4c83-a997-7257cd7e0cf3",
    "country_code": "AZ",
    "country_name": "Azerbaijan",
    "state_code": "SA",
    "latitude": "41.19747530",
    "longitude": "47.15712410"
  },
  {
    "id": "598c852d-8fb9-4ba7-a7cd-ef649cf1f9e6",
    "name": "Shaki District",
    "country_id": "a368e86b-e8fd-4c83-a997-7257cd7e0cf3",
    "country_code": "AZ",
    "country_name": "Azerbaijan",
    "state_code": "SAK",
    "latitude": "41.11346620",
    "longitude": "47.13169270"
  },
  {
    "id": "19ca6fa9-e32e-425d-801c-c92e4de954d1",
    "name": "Shamakhi District",
    "country_id": "a368e86b-e8fd-4c83-a997-7257cd7e0cf3",
    "country_code": "AZ",
    "country_name": "Azerbaijan",
    "state_code": "SMI",
    "latitude": "40.63187310",
    "longitude": "48.63638010"
  },
  {
    "id": "8e027579-28a6-4e91-8aac-df4cb69c6086",
    "name": "Shamkir District",
    "country_id": "a368e86b-e8fd-4c83-a997-7257cd7e0cf3",
    "country_code": "AZ",
    "country_name": "Azerbaijan",
    "state_code": "SKR",
    "latitude": "40.82881440",
    "longitude": "46.01668790"
  },
  {
    "id": "1283be9e-5a37-4d87-9f45-9e8b57c8f9fb",
    "name": "Sharur District",
    "country_id": "a368e86b-e8fd-4c83-a997-7257cd7e0cf3",
    "country_code": "AZ",
    "country_name": "Azerbaijan",
    "state_code": "SAR",
    "latitude": "39.55363320",
    "longitude": "44.98456800"
  },
  {
    "id": "d335233e-4e64-436a-8d64-4d460f59e36c",
    "name": "Shirvan",
    "country_id": "a368e86b-e8fd-4c83-a997-7257cd7e0cf3",
    "country_code": "AZ",
    "country_name": "Azerbaijan",
    "state_code": "SR",
    "latitude": "39.94697070",
    "longitude": "48.92239190"
  },
  {
    "id": "39ecf73f-8242-419a-90b1-ff9d7b6829a8",
    "name": "Shusha District",
    "country_id": "a368e86b-e8fd-4c83-a997-7257cd7e0cf3",
    "country_code": "AZ",
    "country_name": "Azerbaijan",
    "state_code": "SUS",
    "latitude": "39.75374380",
    "longitude": "46.74647550"
  },
  {
    "id": "d03bd582-40f9-4092-8756-90e8fca9ebee",
    "name": "Siazan District",
    "country_id": "a368e86b-e8fd-4c83-a997-7257cd7e0cf3",
    "country_code": "AZ",
    "country_name": "Azerbaijan",
    "state_code": "SIY",
    "latitude": "41.07838330",
    "longitude": "49.11184770"
  },
  {
    "id": "1eee5485-9cd7-4592-8cf7-8d261c047c97",
    "name": "Sumqayit",
    "country_id": "a368e86b-e8fd-4c83-a997-7257cd7e0cf3",
    "country_code": "AZ",
    "country_name": "Azerbaijan",
    "state_code": "SM",
    "latitude": "40.58547650",
    "longitude": "49.63174110"
  },
  {
    "id": "8fd0b4f2-8cf0-4472-aa40-cc00976f4d18",
    "name": "Tartar District",
    "country_id": "a368e86b-e8fd-4c83-a997-7257cd7e0cf3",
    "country_code": "AZ",
    "country_name": "Azerbaijan",
    "state_code": "TAR",
    "latitude": "40.34438750",
    "longitude": "46.93765190"
  },
  {
    "id": "1afb3b19-3491-4b59-8210-9bf194ea1d68",
    "name": "Tovuz District",
    "country_id": "a368e86b-e8fd-4c83-a997-7257cd7e0cf3",
    "country_code": "AZ",
    "country_name": "Azerbaijan",
    "state_code": "TOV",
    "latitude": "40.99545230",
    "longitude": "45.61659070"
  },
  {
    "id": "7a97812d-cbda-4766-b28d-d3e58e2723b8",
    "name": "Ujar District",
    "country_id": "a368e86b-e8fd-4c83-a997-7257cd7e0cf3",
    "country_code": "AZ",
    "country_name": "Azerbaijan",
    "state_code": "UCA",
    "latitude": "40.50675250",
    "longitude": "47.64896410"
  },
  {
    "id": "6cf611de-9f84-4733-b1af-7b8c24c5b00a",
    "name": "Yardymli District",
    "country_id": "a368e86b-e8fd-4c83-a997-7257cd7e0cf3",
    "country_code": "AZ",
    "country_name": "Azerbaijan",
    "state_code": "YAR",
    "latitude": "38.90589170",
    "longitude": "48.24961270"
  },
  {
    "id": "ca17ed84-a86d-4d13-b522-fe8abe24a1e9",
    "name": "Yevlakh",
    "country_id": "a368e86b-e8fd-4c83-a997-7257cd7e0cf3",
    "country_code": "AZ",
    "country_name": "Azerbaijan",
    "state_code": "YE",
    "latitude": "40.61966380",
    "longitude": "47.15003240"
  },
  {
    "id": "86836f16-8507-42ea-b269-56d6296bd549",
    "name": "Yevlakh District",
    "country_id": "a368e86b-e8fd-4c83-a997-7257cd7e0cf3",
    "country_code": "AZ",
    "country_name": "Azerbaijan",
    "state_code": "YEV",
    "latitude": "40.61966380",
    "longitude": "47.15003240"
  },
  {
    "id": "002c8132-b998-4c9d-8cf7-a94607a463eb",
    "name": "Zangilan District",
    "country_id": "a368e86b-e8fd-4c83-a997-7257cd7e0cf3",
    "country_code": "AZ",
    "country_name": "Azerbaijan",
    "state_code": "ZAN",
    "latitude": "39.08568990",
    "longitude": "46.65247280"
  },
  {
    "id": "818a27c5-c879-4039-864f-e1e5eb9e3260",
    "name": "Zaqatala District",
    "country_id": "a368e86b-e8fd-4c83-a997-7257cd7e0cf3",
    "country_code": "AZ",
    "country_name": "Azerbaijan",
    "state_code": "ZAQ",
    "latitude": "41.59068890",
    "longitude": "46.72403730"
  },
  {
    "id": "d9daf462-56f4-4302-b966-191ac03ba859",
    "name": "Zardab District",
    "country_id": "a368e86b-e8fd-4c83-a997-7257cd7e0cf3",
    "country_code": "AZ",
    "country_name": "Azerbaijan",
    "state_code": "ZAR",
    "latitude": "40.21481140",
    "longitude": "47.71494400"
  },
  {
    "id": "c5e99119-02f2-45fb-8aaa-0b6ef2306bbd",
    "name": "Capital",
    "country_id": "4f346d84-599b-4dd3-a0cd-fd8b09e3f28b",
    "country_code": "BH",
    "country_name": "Bahrain",
    "state_code": "13",
    "latitude": null,
    "longitude": null
  },
  {
    "id": "adcbb212-4868-4cc2-a355-9c6376ec8b79",
    "name": "Central",
    "country_id": "4f346d84-599b-4dd3-a0cd-fd8b09e3f28b",
    "country_code": "BH",
    "country_name": "Bahrain",
    "state_code": "16",
    "latitude": "26.14260930",
    "longitude": "50.56532940"
  },
  {
    "id": "12ec37b5-f64d-4e0a-84b2-20557e803eae",
    "name": "Muharraq",
    "country_id": "4f346d84-599b-4dd3-a0cd-fd8b09e3f28b",
    "country_code": "BH",
    "country_name": "Bahrain",
    "state_code": "15",
    "latitude": "26.26856530",
    "longitude": "50.64825170"
  },
  {
    "id": "e8549de0-43ec-40dd-a1d1-6e0c7c3850b9",
    "name": "Northern",
    "country_id": "4f346d84-599b-4dd3-a0cd-fd8b09e3f28b",
    "country_code": "BH",
    "country_name": "Bahrain",
    "state_code": "17",
    "latitude": "26.15519140",
    "longitude": "50.48251730"
  },
  {
    "id": "e0d22ce5-fa97-4317-8f1d-d3f52aab53b6",
    "name": "Southern",
    "country_id": "4f346d84-599b-4dd3-a0cd-fd8b09e3f28b",
    "country_code": "BH",
    "country_name": "Bahrain",
    "state_code": "14",
    "latitude": "25.93810180",
    "longitude": "50.57568870"
  },
  {
    "id": "53ce0156-7c70-42ce-98f4-0d18694ee55a",
    "name": "Bagerhat District",
    "country_id": "6e061bf0-49ad-4336-a7bb-2d4129b35df5",
    "country_code": "BD",
    "country_name": "Bangladesh",
    "state_code": "05",
    "latitude": "22.66024360",
    "longitude": "89.78954780"
  },
  {
    "id": "651327c0-2321-4fad-8ae2-4b7502859ea7",
    "name": "Bahadia",
    "country_id": "6e061bf0-49ad-4336-a7bb-2d4129b35df5",
    "country_code": "BD",
    "country_name": "Bangladesh",
    "state_code": "33",
    "latitude": "23.78987120",
    "longitude": "90.16714830"
  },
  {
    "id": "3861f20e-ddf9-4d15-b013-114f147a1423",
    "name": "Bandarban District",
    "country_id": "6e061bf0-49ad-4336-a7bb-2d4129b35df5",
    "country_code": "BD",
    "country_name": "Bangladesh",
    "state_code": "01",
    "latitude": "21.83110020",
    "longitude": "92.36863210"
  },
  {
    "id": "63127730-f93e-489d-b3df-70c10dc437af",
    "name": "Barguna District",
    "country_id": "6e061bf0-49ad-4336-a7bb-2d4129b35df5",
    "country_code": "BD",
    "country_name": "Bangladesh",
    "state_code": "02",
    "latitude": "22.09529150",
    "longitude": "90.11206960"
  },
  {
    "id": "046a937d-50eb-427c-a764-18c7b9ff39c5",
    "name": "Barisal District",
    "country_id": "6e061bf0-49ad-4336-a7bb-2d4129b35df5",
    "country_code": "BD",
    "country_name": "Bangladesh",
    "state_code": "06",
    "latitude": "22.70220980",
    "longitude": "90.36963160"
  },
  {
    "id": "46ddcb3c-1121-435a-b5a5-410ed251a4c9",
    "name": "Barisal Division",
    "country_id": "6e061bf0-49ad-4336-a7bb-2d4129b35df5",
    "country_code": "BD",
    "country_name": "Bangladesh",
    "state_code": "A",
    "latitude": "22.38111310",
    "longitude": "90.33718890"
  },
  {
    "id": "763b1509-b48c-4f15-b854-7bcaf76372e3",
    "name": "Bhola District",
    "country_id": "6e061bf0-49ad-4336-a7bb-2d4129b35df5",
    "country_code": "BD",
    "country_name": "Bangladesh",
    "state_code": "07",
    "latitude": "22.17853150",
    "longitude": "90.71010230"
  },
  {
    "id": "feeb9dfc-3872-49f1-be12-ce6c4a12f05b",
    "name": "Bogra District",
    "country_id": "6e061bf0-49ad-4336-a7bb-2d4129b35df5",
    "country_code": "BD",
    "country_name": "Bangladesh",
    "state_code": "03",
    "latitude": "24.85104020",
    "longitude": "89.36972250"
  },
  {
    "id": "0c3f7bc9-c9b7-4a1e-b598-b83a8d37b42f",
    "name": "Brahmanbaria District",
    "country_id": "6e061bf0-49ad-4336-a7bb-2d4129b35df5",
    "country_code": "BD",
    "country_name": "Bangladesh",
    "state_code": "04",
    "latitude": "23.96081810",
    "longitude": "91.11150140"
  },
  {
    "id": "44b59722-091c-49af-9e52-39323c477028",
    "name": "Chandpur District",
    "country_id": "6e061bf0-49ad-4336-a7bb-2d4129b35df5",
    "country_code": "BD",
    "country_name": "Bangladesh",
    "state_code": "09",
    "latitude": "23.25131480",
    "longitude": "90.85178460"
  },
  {
    "id": "72d0e458-daba-4b6f-82b6-d57c137a4286",
    "name": "Chapai Nawabganj District",
    "country_id": "6e061bf0-49ad-4336-a7bb-2d4129b35df5",
    "country_code": "BD",
    "country_name": "Bangladesh",
    "state_code": "45",
    "latitude": "24.74131110",
    "longitude": "88.29120690"
  },
  {
    "id": "0ef67d3c-f5f2-40c6-8660-1c28e440fb55",
    "name": "Chittagong District",
    "country_id": "6e061bf0-49ad-4336-a7bb-2d4129b35df5",
    "country_code": "BD",
    "country_name": "Bangladesh",
    "state_code": "10",
    "latitude": "22.51501050",
    "longitude": "91.75388170"
  },
  {
    "id": "2d20f7ea-4a89-476d-9707-d31a6df88b82",
    "name": "Chittagong Division",
    "country_id": "6e061bf0-49ad-4336-a7bb-2d4129b35df5",
    "country_code": "BD",
    "country_name": "Bangladesh",
    "state_code": "B",
    "latitude": "23.17931570",
    "longitude": "91.98815270"
  },
  {
    "id": "a1c01e83-97d8-4a20-91ae-8210ed861eea",
    "name": "Chuadanga District",
    "country_id": "6e061bf0-49ad-4336-a7bb-2d4129b35df5",
    "country_code": "BD",
    "country_name": "Bangladesh",
    "state_code": "12",
    "latitude": "23.61605120",
    "longitude": "88.82630060"
  },
  {
    "id": "0ed80775-2cf2-4c96-9511-0f78adbb6d3a",
    "name": "Comilla District",
    "country_id": "6e061bf0-49ad-4336-a7bb-2d4129b35df5",
    "country_code": "BD",
    "country_name": "Bangladesh",
    "state_code": "08",
    "latitude": "23.45756670",
    "longitude": "91.18089960"
  },
  {
    "id": "5a08d81f-8644-4950-b854-1b43026d089e",
    "name": "Cox's Bazar District",
    "country_id": "6e061bf0-49ad-4336-a7bb-2d4129b35df5",
    "country_code": "BD",
    "country_name": "Bangladesh",
    "state_code": "11",
    "latitude": "21.56406260",
    "longitude": "92.02821290"
  },
  {
    "id": "ce42c1d9-7748-40ad-b355-bcacc5a24732",
    "name": "Dhaka District",
    "country_id": "6e061bf0-49ad-4336-a7bb-2d4129b35df5",
    "country_code": "BD",
    "country_name": "Bangladesh",
    "state_code": "13",
    "latitude": "23.81051400",
    "longitude": "90.33718890"
  },
  {
    "id": "489709f8-c63b-4101-85fd-c95321bc5ade",
    "name": "Dhaka Division",
    "country_id": "6e061bf0-49ad-4336-a7bb-2d4129b35df5",
    "country_code": "BD",
    "country_name": "Bangladesh",
    "state_code": "C",
    "latitude": "23.95357420",
    "longitude": "90.14949880"
  },
  {
    "id": "35025c0f-2e02-4442-9345-ab285c0e860f",
    "name": "Dinajpur District",
    "country_id": "6e061bf0-49ad-4336-a7bb-2d4129b35df5",
    "country_code": "BD",
    "country_name": "Bangladesh",
    "state_code": "14",
    "latitude": "25.62791230",
    "longitude": "88.63317580"
  },
  {
    "id": "3601839c-5e92-4688-88d1-993842a7e9a5",
    "name": "Faridpur District",
    "country_id": "6e061bf0-49ad-4336-a7bb-2d4129b35df5",
    "country_code": "BD",
    "country_name": "Bangladesh",
    "state_code": "15",
    "latitude": "23.54239190",
    "longitude": "89.63089210"
  },
  {
    "id": "459ae54f-9b9a-4acc-b12f-50ff3d78a292",
    "name": "Feni District",
    "country_id": "6e061bf0-49ad-4336-a7bb-2d4129b35df5",
    "country_code": "BD",
    "country_name": "Bangladesh",
    "state_code": "16",
    "latitude": "22.94087840",
    "longitude": "91.40666460"
  },
  {
    "id": "e131273b-40cb-433e-90bd-bad83810e2dc",
    "name": "Gaibandha District",
    "country_id": "6e061bf0-49ad-4336-a7bb-2d4129b35df5",
    "country_code": "BD",
    "country_name": "Bangladesh",
    "state_code": "19",
    "latitude": "25.32969280",
    "longitude": "89.54296520"
  },
  {
    "id": "d4b8709b-e7e1-4dac-9bc9-98e12d13ce5d",
    "name": "Gazipur District",
    "country_id": "6e061bf0-49ad-4336-a7bb-2d4129b35df5",
    "country_code": "BD",
    "country_name": "Bangladesh",
    "state_code": "18",
    "latitude": "24.09581710",
    "longitude": "90.41251810"
  },
  {
    "id": "f5ad0e1d-d425-4b75-a3cf-5059160651ee",
    "name": "Gopalganj District",
    "country_id": "6e061bf0-49ad-4336-a7bb-2d4129b35df5",
    "country_code": "BD",
    "country_name": "Bangladesh",
    "state_code": "17",
    "latitude": "26.48315840",
    "longitude": "84.43655000"
  },
  {
    "id": "d33f6ea5-313c-409c-8ac0-125c369b99e1",
    "name": "Habiganj District",
    "country_id": "6e061bf0-49ad-4336-a7bb-2d4129b35df5",
    "country_code": "BD",
    "country_name": "Bangladesh",
    "state_code": "20",
    "latitude": "24.47712360",
    "longitude": "91.45065650"
  },
  {
    "id": "c438471d-b227-488b-b0a8-740e4cf83125",
    "name": "Jamalpur District",
    "country_id": "6e061bf0-49ad-4336-a7bb-2d4129b35df5",
    "country_code": "BD",
    "country_name": "Bangladesh",
    "state_code": "21",
    "latitude": "25.08309260",
    "longitude": "89.78532180"
  },
  {
    "id": "a109d55d-5323-40c9-9577-4e9a53ba12ae",
    "name": "Jessore District",
    "country_id": "6e061bf0-49ad-4336-a7bb-2d4129b35df5",
    "country_code": "BD",
    "country_name": "Bangladesh",
    "state_code": "22",
    "latitude": "23.16340140",
    "longitude": "89.21816640"
  },
  {
    "id": "4dc55be6-9226-4a62-8375-363f68ed6a4f",
    "name": "Jhalokati District",
    "country_id": "6e061bf0-49ad-4336-a7bb-2d4129b35df5",
    "country_code": "BD",
    "country_name": "Bangladesh",
    "state_code": "25",
    "latitude": "22.57208000",
    "longitude": "90.18696440"
  },
  {
    "id": "d16aa268-c350-42d4-b66f-efd8b3a479d9",
    "name": "Jhenaidah District",
    "country_id": "6e061bf0-49ad-4336-a7bb-2d4129b35df5",
    "country_code": "BD",
    "country_name": "Bangladesh",
    "state_code": "23",
    "latitude": "23.54498730",
    "longitude": "89.17260310"
  },
  {
    "id": "af72403a-fbfa-41d6-89b8-d490eef329bd",
    "name": "Joypurhat District",
    "country_id": "6e061bf0-49ad-4336-a7bb-2d4129b35df5",
    "country_code": "BD",
    "country_name": "Bangladesh",
    "state_code": "24",
    "latitude": "25.09473490",
    "longitude": "89.09449370"
  },
  {
    "id": "66c6fd02-b9d9-431c-b251-dadb29430bac",
    "name": "Khagrachari District",
    "country_id": "6e061bf0-49ad-4336-a7bb-2d4129b35df5",
    "country_code": "BD",
    "country_name": "Bangladesh",
    "state_code": "29",
    "latitude": "23.13217510",
    "longitude": "91.94902100"
  },
  {
    "id": "92699f07-2940-4122-99b3-ec938ddd6fb1",
    "name": "Khulna District",
    "country_id": "6e061bf0-49ad-4336-a7bb-2d4129b35df5",
    "country_code": "BD",
    "country_name": "Bangladesh",
    "state_code": "27",
    "latitude": "22.67377350",
    "longitude": "89.39665810"
  },
  {
    "id": "8d4087c4-b4b2-4d66-bb78-69e0b4cc3ebc",
    "name": "Khulna Division",
    "country_id": "6e061bf0-49ad-4336-a7bb-2d4129b35df5",
    "country_code": "BD",
    "country_name": "Bangladesh",
    "state_code": "D",
    "latitude": "22.80878160",
    "longitude": "89.24671910"
  },
  {
    "id": "be227455-d67f-44bc-b2e5-57c7dea707b8",
    "name": "Kishoreganj District",
    "country_id": "6e061bf0-49ad-4336-a7bb-2d4129b35df5",
    "country_code": "BD",
    "country_name": "Bangladesh",
    "state_code": "26",
    "latitude": "24.42604570",
    "longitude": "90.98206680"
  },
  {
    "id": "9273594d-443c-47b3-9701-cc20e1f75047",
    "name": "Kurigram District",
    "country_id": "6e061bf0-49ad-4336-a7bb-2d4129b35df5",
    "country_code": "BD",
    "country_name": "Bangladesh",
    "state_code": "28",
    "latitude": "25.80724140",
    "longitude": "89.62947460"
  },
  {
    "id": "ceb736bb-2de3-44a0-a12a-8c25ff74052a",
    "name": "Kushtia District",
    "country_id": "6e061bf0-49ad-4336-a7bb-2d4129b35df5",
    "country_code": "BD",
    "country_name": "Bangladesh",
    "state_code": "30",
    "latitude": "23.89069950",
    "longitude": "89.10993680"
  },
  {
    "id": "98708748-0ce1-4b50-bc1b-9f6ce1ed05e2",
    "name": "Lakshmipur District",
    "country_id": "6e061bf0-49ad-4336-a7bb-2d4129b35df5",
    "country_code": "BD",
    "country_name": "Bangladesh",
    "state_code": "31",
    "latitude": "22.94467440",
    "longitude": "90.82819070"
  },
  {
    "id": "3959dde5-bf59-4426-bcb7-6ab62d73dbd8",
    "name": "Lalmonirhat District",
    "country_id": "6e061bf0-49ad-4336-a7bb-2d4129b35df5",
    "country_code": "BD",
    "country_name": "Bangladesh",
    "state_code": "32",
    "latitude": "25.99233980",
    "longitude": "89.28472510"
  },
  {
    "id": "41f8f926-df1c-4ee8-8f92-d7fec00c6ef9",
    "name": "Madaripur District",
    "country_id": "6e061bf0-49ad-4336-a7bb-2d4129b35df5",
    "country_code": "BD",
    "country_name": "Bangladesh",
    "state_code": "36",
    "latitude": "23.23933460",
    "longitude": "90.18696440"
  },
  {
    "id": "d47b085d-3f0e-4463-9106-0188f52ae88a",
    "name": "Meherpur District",
    "country_id": "6e061bf0-49ad-4336-a7bb-2d4129b35df5",
    "country_code": "BD",
    "country_name": "Bangladesh",
    "state_code": "39",
    "latitude": "23.80519910",
    "longitude": "88.67235780"
  },
  {
    "id": "fcb250df-29d2-4202-9eef-1bb09486790a",
    "name": "Moulvibazar District",
    "country_id": "6e061bf0-49ad-4336-a7bb-2d4129b35df5",
    "country_code": "BD",
    "country_name": "Bangladesh",
    "state_code": "38",
    "latitude": "24.30953440",
    "longitude": "91.73149030"
  },
  {
    "id": "e13f20d2-7890-46fd-9276-91638511feb7",
    "name": "Munshiganj District",
    "country_id": "6e061bf0-49ad-4336-a7bb-2d4129b35df5",
    "country_code": "BD",
    "country_name": "Bangladesh",
    "state_code": "35",
    "latitude": "23.49809310",
    "longitude": "90.41266210"
  },