[
  {
    "code": "01001",
    "country_id": 4,
    "country_code": "DZ",
    "state_id": 1118,
    "state_code": "01",
    "locality_name": "Adrar",
    "latitude": 27.976332,
    "longitude": -0.484157,
    "type": "full",
    "source": "algerie-poste-via-badre429"
  },
  {
    "code": "01002",
    "country_id": 4,
    "country_code": "DZ",
    "state_id": 1118,
    "state_code": "01",
    "locality_name": "Tamest",
    "latitude": 27.42572,
    "longitude": -0.280767,
    "type": "full",
    "source": "algerie-poste-via-badre429"
  },
  {
    "code": "01003",
    "country_id": 4,
    "country_code": "DZ",
    "state_id": 1118,
    "state_code": "01",
    "locality_name": "Charouine",
    "latitude": 29.018948,
    "longitude": -0.269079,
    "type": "full",
    "source": "algerie-poste-via-badre429"
  },
  {
    "code": "01004",
    "country_id": 4,
    "country_code": "DZ",
    "state_id": 1118,
    "state_code": "01",
    "locality_name": "Reggane",
    "latitude": 25.477583,
    "longitude": -4.366533,
    "type": "full",
    "source": "algerie-poste-via-badre429"
  },
  {
    "code": "01005",
    "country_id": 4,
    "country_code": "DZ",
    "state_id": 1118,
    "state_code": "01",
    "locality_name": "In Zghmir",
    "latitude": 25.87115,
    "longitude": -6.252223,
    "type": "full",
    "source": "algerie-poste-via-badre429"
  },
  {
    "code": "01006",
    "country_id": 4,
    "country_code": "DZ",
    "state_id": 1118,
    "state_code": "01",
    "locality_name": "Tit",
    "latitude": 26.936838,
    "longitude": 1.481824,
    "type": "full",
    "source": "algerie-poste-via-badre429"
  },
  {
    "code": "01007",
    "country_id": 4,
    "country_code": "DZ",
    "state_id": 1118,
    "state_code": "01",
    "locality_name": "Ksar Kaddour",
    "latitude": 29.579801,
    "longitude": 0.364351,
    "type": "full",
    "source": "algerie-poste-via-badre429"
  },
  {
    "code": "01008",
    "country_id": 4,
    "country_code": "DZ",
    "state_id": 1118,
    "state_code": "01",
    "locality_name": "Tsabit",
    "latitude": 28.353351,
    "longitude": -0.22551,
    "type": "full",
    "source": "algerie-poste-via-badre429"
  },
  {
    "code": "01009",
    "country_id": 4,
    "country_code": "DZ",
    "state_id": 1118,
    "state_code": "01",
    "locality_name": "Timimoun",
    "latitude": 29.253634,
    "longitude": 0.218653,
    "type": "full",
    "source": "algerie-poste-via-badre429"
  },
  {
    "code": "01010",
    "country_id": 4,
    "country_code": "DZ",
    "state_id": 1118,
    "state_code": "01",
    "locality_name": "Ouled Said",
    "latitude": 29.421729,
    "longitude": 0.225434,
    "type": "full",
    "source": "algerie-poste-via-badre429"
  },
  {
    "code": "01011",
    "country_id": 4,
    "country_code": "DZ",
    "state_id": 1118,
    "state_code": "01",
    "locality_name": "Zaouiet Kounta",
    "latitude": 27.229368,
    "longitude": -0.220285,
    "type": "full",
    "source": "algerie-poste-via-badre429"
  },
  {
    "code": "01012",
    "country_id": 4,
    "country_code": "DZ",
    "state_id": 1118,
    "state_code": "01",
    "locality_name": "Aoulef",
    "latitude": 26.971073,
    "longitude": 1.059451,
    "type": "full",
    "source": "algerie-poste-via-badre429"
  },
  {
    "code": "01013",
    "country_id": 4,
    "country_code": "DZ",
    "state_id": 1118,
    "state_code": "01",
    "locality_name": "Timokten",
    "latitude": 27.02216,
    "longitude": 1.025505,
    "type": "full",
    "source": "algerie-poste-via-badre429"
  },
  {
    "code": "01014",
    "country_id": 4,
    "country_code": "DZ",
    "state_id": 1118,
    "state_code": "01",
    "locality_name": "Tamentit",
    "latitude": 27.764557,
    "longitude": -0.272212,
    "type": "full",
    "source": "algerie-poste-via-badre429"
  },
  {
    "code": "01015",
    "country_id": 4,
    "country_code": "DZ",
    "state_id": 1118,
    "state_code": "01",
    "locality_name": "Fenoughil",
    "latitude": 27.648901,
    "longitude": -0.315599,
    "type": "full",
    "source": "algerie-poste-via-badre429"
  },
  {
    "code": "01016",
    "country_id": 4,
    "country_code": "DZ",
    "state_id": 1118,
    "state_code": "01",
    "locality_name": "Tinerkouk",
    "latitude": 29.708777,
    "longitude": 0.695529,
    "type": "full",
    "source": "algerie-poste-via-badre429"
  },
  {
    "code": "01017",
    "country_id": 4,
    "country_code": "DZ",
    "state_id": 1118,
    "state_code": "01",
    "locality_name": "Deldoul",
    "latitude": 34.208051,
    "longitude": 3.254383,
    "type": "full",
    "source": "algerie-poste-via-badre429"
  },
  {
    "code": "01018",
    "country_id": 4,
    "country_code": "DZ",
    "state_id": 1118,
    "state_code": "01",
    "locality_name": "Sali",
    "latitude": 26.737032,
    "longitude": -2.851718,
    "type": "full",
    "source": "algerie-poste-via-badre429"
  },
  {
    "code": "01019",
    "country_id": 4,
    "country_code": "DZ",
    "state_id": 1118,
    "state_code": "01",
    "locality_name": "Akabli",
    "latitude": 26.705706,
    "longitude": 1.344838,
    "type": "full",
    "source": "algerie-poste-via-badre429"
  },
  {
    "code": "01020",
    "country_id": 4,
    "country_code": "DZ",
    "state_id": 1118,
    "state_code": "01",
    "locality_name": "Metarfa",
    "latitude": 28.597821,
    "longitude": -0.158701,
    "type": "full",
    "source": "algerie-poste-via-badre429"
  },
  {
    "code": "01021",
    "country_id": 4,
    "country_code": "DZ",
    "state_id": 1118,
    "state_code": "01",
    "locality_name": "Ouled Ahmed Tammi",
    "latitude": 27.976616,
    "longitude": -0.20396,
    "type": "full",
    "source": "algerie-poste-via-badre429"
  },
  {
    "code": "01022",
    "country_id": 4,
    "country_code": "DZ",
    "state_id": 1118,
    "state_code": "01",
    "locality_name": "Bouda",
    "latitude": 27.977923,
    "longitude": -0.453342,
    "type": "full",
    "source": "algerie-poste-via-badre429"
  },
  {
    "code": "01023",
    "country_id": 4,
    "country_code": "DZ",
    "state_id": 1118,
    "state_code": "01",
    "locality_name": "Aougrout",
    "latitude": 28.749999,
    "longitude": 0.241245,
    "type": "full",
    "source": "algerie-poste-via-badre429"
  },
  {
    "code": "01024",
    "country_id": 4,
    "country_code": "DZ",
    "state_id": 1118,
    "state_code": "01",
    "locality_name": "Talmine",
    "latitude": 27.976616,
    "longitude": -0.20396,
    "type": "full",
    "source": "algerie-poste-via-badre429"
  },
  {
    "code": "01025",
    "country_id": 4,
    "country_code": "DZ",
    "state_id": 1118,
    "state_code": "01",
    "locality_name": "Bordj Badji Mokhtar",
    "latitude": 22.967615,
    "longitude": -3.946422,
    "type": "full",
    "source": "algerie-poste-via-badre429"
  },
  {
    "code": "01026",
    "country_id": 4,
    "country_code": "DZ",
    "state_id": 1118,
    "state_code": "01",
    "locality_name": "Sbaa",
    "latitude": 28.211237,
    "longitude": -0.186253,
    "type": "full",
    "source": "algerie-poste-via-badre429"
  },
  {
    "code": "01027",
    "country_id": 4,
    "country_code": "DZ",
    "state_id": 1118,
    "state_code": "01",
    "locality_name": "Ouled Aissa",
    "latitude": 29.420159,
    "longitude": -0.104542,
    "type": "full",
    "source": "algerie-poste-via-badre429"
  },
  {
    "code": "01028",
    "country_id": 4,
    "country_code": "DZ",
    "state_id": 1118,
    "state_code": "01",
    "locality_name": "Timiaouine",
    "latitude": 20.9259,
    "longitude": 0.795864,
    "type": "full",
    "source": "algerie-poste-via-badre429"
  },
  {
    "code": "02001",
    "country_id": 4,
    "country_code": "DZ",
    "state_id": 1105,
    "state_code": "02",
    "locality_name": "Chlef",
    "latitude": 36.169104,
    "longitude": 1.28386,
    "type": "full",
    "source": "algerie-poste-via-badre429"
  },
  {
    "code": "02002",
    "country_id": 4,
    "country_code": "DZ",
    "state_id": 1105,
    "state_code": "02",
    "locality_name": "Tenes",
    "latitude": 36.508324,
    "longitude": 1.242654,
    "type": "full",
    "source": "algerie-poste-via-badre429"
  },
  {
    "code": "02003",
    "country_id": 4,
    "country_code": "DZ",
    "state_id": 1105,
    "state_code": "02",
    "locality_name": "Benairia",
    "latitude": 36.384973,
    "longitude": 1.315052,
    "type": "full",
    "source": "algerie-poste-via-badre429"
  },
  {
    "code": "02004",
    "country_id": 4,
    "country_code": "DZ",
    "state_id": 1105,
    "state_code": "02",
    "locality_name": "El Karimia",
    "latitude": 36.077409,
    "longitude": 1.51124,
    "type": "full",
    "source": "algerie-poste-via-badre429"
  },
  {
    "code": "02005",
    "country_id": 4,
    "country_code": "DZ",
    "state_id": 1105,
    "state_code": "02",
    "locality_name": "Tadjna",
    "latitude": 36.32408,
    "longitude": 1.13039,
    "type": "full",
    "source": "algerie-poste-via-badre429"
  },
  {
    "code": "02006",
    "country_id": 4,
    "country_code": "DZ",
    "state_id": 1105,
    "state_code": "02",
    "locality_name": "Taougrite",
    "latitude": 36.246088,
    "longitude": 0.899344,
    "type": "full",
    "source": "algerie-poste-via-badre429"
  },
  {
    "code": "02007",
    "country_id": 4,
    "country_code": "DZ",
    "state_id": 1105,
    "state_code": "02",
    "locality_name": "Beni Haoua",
    "latitude": 36.493824,
    "longitude": 1.519887,
    "type": "full",
    "source": "algerie-poste-via-badre429"
  },
  {
    "code": "02008",
    "country_id": 4,
    "country_code": "DZ",
    "state_id": 1105,
    "state_code": "02",
    "locality_name": "Sobha",
    "latitude": 36.108478,
    "longitude": 1.101701,
    "type": "full",
    "source": "algerie-poste-via-badre429"
  },
  {
    "code": "02009",
    "country_id": 4,
    "country_code": "DZ",
    "state_id": 1105,
    "state_code": "02",
    "locality_name": "Harchoun",
    "latitude": 36.118479,
    "longitude": 1.418714,
    "type": "full",
    "source": "algerie-poste-via-badre429"
  },
  {
    "code": "02010",
    "country_id": 4,
    "country_code": "DZ",
    "state_id": 1105,
    "state_code": "02",
    "locality_name": "Ouled Fares",
    "latitude": 36.230213,
    "longitude": 1.095146,
    "type": "full",
    "source": "algerie-poste-via-badre429"
  },
  {
    "code": "02011",
    "country_id": 4,
    "country_code": "DZ",
    "state_id": 1105,
    "state_code": "02",
    "locality_name": "Sidi Akacha",
    "latitude": 36.43578,
    "longitude": 1.255486,
    "type": "full",
    "source": "algerie-poste-via-badre429"
  },
  {
    "code": "02012",
    "country_id": 4,
    "country_code": "DZ",
    "state_id": 1105,
    "state_code": "02",
    "locality_name": "Boukadir",
    "latitude": 36.061795,
    "longitude": 1.108332,
    "type": "full",
    "source": "algerie-poste-via-badre429"
  },
  {
    "code": "02013",
    "country_id": 4,
    "country_code": "DZ",
    "state_id": 1105,
    "state_code": "02",
    "locality_name": "Beni Rached",
    "latitude": 36.293014,
    "longitude": 1.461136,
    "type": "full",
    "source": "algerie-poste-via-badre429"
  },
  {
    "code": "02014",
    "country_id": 4,
    "country_code": "DZ",
    "state_id": 1105,
    "state_code": "02",
    "locality_name": "Talassa",
    "latitude": 36.426634,
    "longitude": 1.079063,
    "type": "full",
    "source": "algerie-poste-via-badre429"
  },
  {
    "code": "02015",
    "country_id": 4,
    "country_code": "DZ",
    "state_id": 1105,
    "state_code": "02",
    "locality_name": "Herenfa",
    "latitude": 36.243857,
    "longitude": 1.044044,
    "type": "full",
    "source": "algerie-poste-via-badre429"
  },
  {
    "code": "02016",
    "country_id": 4,
    "country_code": "DZ",
    "state_id": 1105,
    "state_code": "02",
    "locality_name": "Oued Goussine",
    "latitude": 36.494972,
    "longitude": 1.392858,
    "type": "full",
    "source": "algerie-poste-via-badre429"
  },
  {
    "code": "02017",
    "country_id": 4,
    "country_code": "DZ",
    "state_id": 1105,
    "state_code": "02",
    "locality_name": "Dahra",
    "latitude": 36.25514,
    "longitude": 0.843201,
    "type": "full",
    "source": "algerie-poste-via-badre429"
  },
  {
    "code": "02018",
    "country_id": 4,
    "country_code": "DZ",
    "state_id": 1105,
    "state_code": "02",
    "locality_name": "Ouled Abbes",
    "latitude": 36.213953,
    "longitude": 1.457834,
    "type": "full",
    "source": "algerie-poste-via-badre429"
  },
  {
    "code": "02019",
    "country_id": 4,
    "country_code": "DZ",
    "state_id": 1105,
    "state_code": "02",
    "locality_name": "Sendjas",
    "latitude": 36.039683,
    "longitude": 1.271357,
    "type": "full",
    "source": "algerie-poste-via-badre429"
  },
  {
    "code": "02020",
    "country_id": 4,
    "country_code": "DZ",
    "state_id": 1105,
    "state_code": "02",
    "locality_name": "Zeboudja",
    "latitude": 36.39108,
    "longitude": 1.390777,
    "type": "full",
    "source": "algerie-poste-via-badre429"
  },
  {
    "code": "02021",
    "country_id": 4,
    "country_code": "DZ",
    "state_id": 1105,
    "state_code": "02",
    "locality_name": "Oued Sly",
    "latitude": 36.080654,
    "longitude": 1.144335,
    "type": "full",
    "source": "algerie-poste-via-badre429"
  },
  {
    "code": "02022",
    "country_id": 4,
    "country_code": "DZ",
    "state_id": 1105,
    "state_code": "02",
    "locality_name": "Abou El Hassen",
    "latitude": 36.407875,
    "longitude": 1.118457,
    "type": "full",
    "source": "algerie-poste-via-badre429"
  },
  {
    "code": "02023",
    "country_id": 4,
    "country_code": "DZ",
    "state_id": 1105,
    "state_code": "02",
    "locality_name": "El Marsa",
    "latitude": 36.259995,
    "longitude": 0.722512,
    "type": "full",
    "source": "algerie-poste-via-badre429"
  },
  {
    "code": "02024",
    "country_id": 4,
    "country_code": "DZ",
    "state_id": 1105,
    "state_code": "02",
    "locality_name": "Chettia",
    "latitude": 36.178274,
    "longitude": 1.179139,
    "type": "full",
    "source": "algerie-poste-via-badre429"
  },
  {
    "code": "02025",
    "country_id": 4,
    "country_code": "DZ",
    "state_id": 1105,
    "state_code": "02",
    "locality_name": "Sidi Abderrahmane",
    "latitude": 36.423671,
    "longitude": 1.04923,
    "type": "full",
    "source": "algerie-poste-via-badre429"
  },
  {
    "code": "02026",
    "country_id": 4,
    "country_code": "DZ",
    "state_id": 1105,
    "state_code": "02",
    "locality_name": "Moussadek",
    "latitude": 36.352133,
    "longitude": 1.000432,
    "type": "full",
    "source": "algerie-poste-via-badre429"
  },
  {
    "code": "02027",
    "country_id": 4,
    "country_code": "DZ",
    "state_id": 1105,
    "state_code": "02",
    "locality_name": "El Hadjadj",
    "latitude": 35.690834,
    "longitude": 1.538967,
    "type": "full",
    "source": "algerie-poste-via-badre429"
  },
  {
    "code": "02028",
    "country_id": 4,
    "country_code": "DZ",
    "state_id": 1105,
    "state_code": "02",
    "locality_name": "Labiod Medjadja",
    "latitude": 36.26828,
    "longitude": 1.332562,
    "type": "full",
    "source": "algerie-poste-via-badre429"
  },
  {
    "code": "02029",
    "country_id": 4,
    "country_code": "DZ",
    "state_id": 1105,
    "state_code": "02",
    "locality_name": "Oued Fodda",
    "latitude": 36.199511,
    "longitude": 1.467273,
    "type": "full",
    "source": "algerie-poste-via-badre429"
  },
  {
    "code": "02030",
    "country_id": 4,
    "country_code": "DZ",
    "state_id": 1105,
    "state_code": "02",
    "locality_name": "Ouled Ben Abdelkader",
    "latitude": 35.967037,
    "longitude": 1.192049,
    "type": "full",
    "source": "algerie-poste-via-badre429"
  },
  {
    "code": "02031",
    "country_id": 4,
    "country_code": "DZ",
    "state_id": 1105,
    "state_code": "02",
    "locality_name": "Bouzghaia",
    "latitude": 36.360433,
    "longitude": 1.187165,
    "type": "full",
    "source": "algerie-poste-via-badre429"
  },
  {
    "code": "02032",
    "country_id": 4,
    "country_code": "DZ",
    "state_id": 1105,
    "state_code": "02",
    "locality_name": "Ain Merane",
    "latitude": 36.162564,
    "longitude": 0.965102,
    "type": "full",
    "source": "algerie-poste-via-badre429"
  },
  {
    "code": "02033",
    "country_id": 4,
    "country_code": "DZ",
    "state_id": 1105,
    "state_code": "02",
    "locality_name": "Oum Drou",
    "latitude": 36.203487,
    "longitude": 1.34608,
    "type": "full",
    "source": "algerie-poste-via-badre429"
  },
  {
    "code": "02034",
    "country_id": 4,
    "country_code": "DZ",
    "state_id": 1105,
    "state_code": "02",
    "locality_name": "Breira",
    "latitude": 36.447623,
    "longitude": 1.522119,
    "type": "full",
    "source": "algerie-poste-via-badre429"
  },
  {
    "code": "02035",
    "country_id": 4,
    "country_code": "DZ",
    "state_id": 1105,
    "state_code": "02",
    "locality_name": "Beni Bouateb",
    "latitude": 35.989584,
    "longitude": 1.55894,
    "type": "full",
    "source": "algerie-poste-via-badre429"
  },
  {
    "code": "03001",
    "country_id": 4,
    "country_code": "DZ",
    "state_id": 1138,
    "state_code": "03",
    "locality_name": "Laghouat",
    "latitude": 33.793952,
    "longitude": 2.83685,
    "type": "full",
    "source": "algerie-poste-via-badre429"
  },
  {
    "code": "03002",
    "country_id": 4,
    "country_code": "DZ",
    "state_id": 1138,
    "state_code": "03",
    "locality_name": "Ksar El Hirane",
    "latitude": 33.785548,
    "longitude": 3.119366,
    "type": "full",
    "source": "algerie-poste-via-badre429"
  },
  {
    "code": "03003",
    "country_id": 4,
    "country_code": "DZ",
    "state_id": 1138,
    "state_code": "03",
    "locality_name": "Benacer Ben Chohra",
    "latitude": 33.752291,
    "longitude": 2.993914,
    "type": "full",
    "source": "algerie-poste-via-badre429"
  },
  {
    "code": "03004",
    "country_id": 4,
    "country_code": "DZ",
    "state_id": 1138,
    "state_code": "03",
    "locality_name": "Sidi Makhlouf",
    "latitude": 34.127624,
    "longitude": 3.006026,
    "type": "full",
    "source": "algerie-poste-via-badre429"
  },
  {
    "code": "03005",
    "country_id": 4,
    "country_code": "DZ",
    "state_id": 1138,
    "state_code": "03",
    "locality_name": "Hassi Delaa",
    "latitude": 33.41543,
    "longitude": 3.541031,
    "type": "full",
    "source": "algerie-poste-via-badre429"
  },
  {
    "code": "03006",
    "country_id": 4,
    "country_code": "DZ",
    "state_id": 1138,
    "state_code": "03",
    "locality_name": "Hassi R'Mel",
    "latitude": 32.941296,
    "longitude": 3.244314,
    "type": "full",
    "source": "algerie-poste-via-badre429"
  },
  {
    "code": "03007",
    "country_id": 4,
    "country_code": "DZ",
    "state_id": 1138,
    "state_code": "03",
    "locality_name": "Ain Mahdi",
    "latitude": 33.795518,
    "longitude": 2.292495,
    "type": "full",
    "source": "algerie-poste-via-badre429"
  },
  {
    "code": "03008",
    "country_id": 4,
    "country_code": "DZ",
    "state_id": 1138,
    "state_code": "03",
    "locality_name": "Tadjmout",
    "latitude": 33.837624,
    "longitude": 2.523471,
    "type": "full",
    "source": "algerie-poste-via-badre429"
  },
  {
    "code": "03009",
    "country_id": 4,
    "country_code": "DZ",
    "state_id": 1138,
    "state_code": "03",
    "locality_name": "El Kheneg",
    "latitude": 33.744111,
    "longitude": 2.784176,
    "type": "full",
    "source": "algerie-poste-via-badre429"
  },
  {
    "code": "03010",
    "country_id": 4,
    "country_code": "DZ",
    "state_id": 1138,
    "state_code": "03",
    "locality_name": "Gueltat Sidi Saad",
    "latitude": 34.298351,
    "longitude": 1.932349,
    "type": "full",
    "source": "algerie-poste-via-badre429"
  },
  {
    "code": "03011",
    "country_id": 4,
    "country_code": "DZ",
    "state_id": 1138,
    "state_code": "03",
    "locality_name": "Ain Sidi Ali",
    "latitude": 34.166666,
    "longitude": 1.541245,
    "type": "full",
    "source": "algerie-poste-via-badre429"
  },
  {
    "code": "03012",
    "country_id": 4,
    "country_code": "DZ",
    "state_id": 1138,
    "state_code": "03",
    "locality_name": "Beidha",
    "latitude": 33.787374,
    "longitude": 2.882912,
    "type": "full",
    "source": "algerie-poste-via-badre429"
  },
  {
    "code": "03013",
    "country_id": 4,
    "country_code": "DZ",
    "state_id": 1138,
    "state_code": "03",
    "locality_name": "Brida",
    "latitude": 33.949592,
    "longitude": 1.746547,
    "type": "full",
    "source": "algerie-poste-via-badre429"
  },
  {
    "code": "03014",
    "country_id": 4,
    "country_code": "DZ",
    "state_id": 1138,
    "state_code": "03",
    "locality_name": "El Ghicha",
    "latitude": 33.929772,
    "longitude": 2.13963,
    "type": "full",
    "source": "algerie-poste-via-badre429"
  },
  {
    "code": "03015",
    "country_id": 4,
    "country_code": "DZ",
    "state_id": 1138,
    "state_code": "03",
    "locality_name": "Hadj Mechri",
    "latitude": 33.957284,
    "longitude": 1.590861,
    "type": "full",
    "source": "algerie-poste-via-badre429"
  },
  {
    "code": "03016",
    "country_id": 4,
    "country_code": "DZ",
    "state_id": 1138,
    "state_code": "03",
    "locality_name": "Sebgag",
    "latitude": 34.028538,
    "longitude": 1.929346,
    "type": "full",
    "source": "algerie-poste-via-badre429"
  },
  {
    "code": "03017",
    "country_id": 4,
    "country_code": "DZ",
    "state_id": 1138,
    "state_code": "03",
    "locality_name": "Taouiala",
    "latitude": 33.871559,
    "longitude": 1.853085,
    "type": "full",
    "source": "algerie-poste-via-badre429"
  },
  {
    "code": "03018",
    "country_id": 4,
    "country_code": "DZ",
    "state_id": 1138,
    "state_code": "03",
    "locality_name": "Tadjrouna",
    "latitude": 33.503631,
    "longitude": 2.092462,
    "type": "full",
    "source": "algerie-poste-via-badre429"
  },
  {
    "code": "03019",
    "country_id": 4,
    "country_code": "DZ",
    "state_id": 1138,
    "state_code": "03",
    "locality_name": "Aflou",
    "latitude": 34.112116,
    "longitude": 2.083517,
    "type": "full",
    "source": "algerie-poste-via-badre429"
  },
  {
    "code": "03020",
    "country_id": 4,
    "country_code": "DZ",
    "state_id": 1138,
    "state_code": "03",
    "locality_name": "El Assafia",
    "latitude": 33.826972,
    "longitude": 2.981629,
    "type": "full",
    "source": "algerie-poste-via-badre429"
  },
  {
    "code": "03021",
    "country_id": 4,
    "country_code": "DZ",
    "state_id": 1138,
    "state_code": "03",
    "locality_name": "Oued Morra",
    "latitude": 34.166666,
    "longitude": 2.307912,
    "type": "full",
    "source": "algerie-poste-via-badre429"
  },
  {
    "code": "03022",
    "country_id": 4,
    "country_code": "DZ",
    "state_id": 1138,
    "state_code": "03",
    "locality_name": "Oued M'Zi",
    "latitude": 33.941043,
    "longitude": 2.423113,
    "type": "full",
    "source": "algerie-poste-via-badre429"
  },
  {
    "code": "03023",
    "country_id": 4,
    "country_code": "DZ",
    "state_id": 1138,
    "state_code": "03",
    "locality_name": "El Haouaita",
    "latitude": 37.050576,
    "longitude": 10.990486,
    "type": "full",
    "source": "algerie-poste-via-badre429"
  },
  {
    "code": "03024",
    "country_id": 4,
    "country_code": "DZ",
    "state_id": 1138,
    "state_code": "03",
    "locality_name": "Sidi Bouzid",
    "latitude": 35.036388,
    "longitude": 9.459528,
    "type": "full",
    "source": "algerie-poste-via-badre429"
  },
  {
    "code": "04001",
    "country_id": 4,
    "country_code": "DZ",
    "state_id": 1136,
    "state_code": "04",
    "locality_name": "Oum El Bouaghi",
    "latitude": 35.872596,
    "longitude": 7.083005,
    "type": "full",
    "source": "algerie-poste-via-badre429"
  },
  {
    "code": "04002",
    "country_id": 4,
    "country_code": "DZ",
    "state_id": 1136,
    "state_code": "04",
    "locality_name": "Ain Beida",
    "latitude": 35.794829,
    "longitude": 7.333888,
    "type": "full",
    "source": "algerie-poste-via-badre429"
  },
  {
    "code": "04003",
    "country_id": 4,
    "country_code": "DZ",
    "state_id": 1136,
    "state_code": "04",
    "locality_name": "Ain M'lila",
    "latitude": 36.026087,
    "longitude": 6.423902,
    "type": "full",
    "source": "algerie-poste-via-badre429"
  },
  {
    "code": "04004",
    "country_id": 4,
    "country_code": "DZ",
    "state_id": 1136,
    "state_code": "04",
    "locality_name": "Behir Chergui",
    "latitude": 35.793789,
    "longitude": 7.713271,
    "type": "full",
    "source": "algerie-poste-via-badre429"
  },
  {
    "code": "04005",
    "country_id": 4,
    "country_code": "DZ",
    "state_id": 1136,
    "state_code": "04",
    "locality_name": "El Amiria",
    "latitude": 36.110178,
    "longitude": 6.902643,
    "type": "full",
    "source": "algerie-poste-via-badre429"
  },
  {
    "code": "04006",
    "country_id": 4,
    "country_code": "DZ",
    "state_id": 1136,
    "state_code": "04",
    "locality_name": "Sigus",
    "latitude": 36.10852,
    "longitude": 6.603674,
    "type": "full",
    "source": "algerie-poste-via-badre429"
  },
  {
    "code": "04007",
    "country_id": 4,
    "country_code": "DZ",
    "state_id": 1136,
    "state_code": "04",
    "locality_name": "El Belala",
    "latitude": 35.666091,
    "longitude": 7.78376,
    "type": "full",
    "source": "algerie-poste-via-badre429"
  },
  {
    "code": "04008",
    "country_id": 4,
    "country_code": "DZ",
    "state_id": 1136,
    "state_code": "04",
    "locality_name": "Ain Babouche",
    "latitude": 35.940229,
    "longitude": 7.175102,
    "type": "full",
    "source": "algerie-poste-via-badre429"
  },
  {
    "code": "04009",
    "country_id": 4,
    "country_code": "DZ",
    "state_id": 1136,
    "state_code": "04",
    "locality_name": "Berriche",
    "latitude": 35.915582,
    "longitude": 7.367685,
    "type": "full",
    "source": "algerie-poste-via-badre429"
  },
  {
    "code": "04010",
    "country_id": 4,
    "country_code": "DZ",
    "state_id": 1136,
    "state_code": "04",
    "locality_name": "Ouled Hamla",
    "latitude": 36.081143,
    "longitude": 6.333404,
    "type": "full",
    "source": "algerie-poste-via-badre429"
  },
  {
    "code": "04011",
    "country_id": 4,
    "country_code": "DZ",
    "state_id": 1136,
    "state_code": "04",
    "locality_name": "Dhala",
    "latitude": 35.461089,
    "longitude": 7.537994,
    "type": "full",
    "source": "algerie-poste-via-badre429"
  },
  {
    "code": "04012",
    "country_id": 4,
    "country_code": "DZ",
    "state_id": 1136,
    "state_code": "04",
    "locality_name": "Ain Kercha",
    "latitude": 35.927563,
    "longitude": 6.681143,
    "type": "full",
    "source": "algerie-poste-via-badre429"
  },
  {
    "code": "04013",
    "country_id": 4,
    "country_code": "DZ",
    "state_id": 1136,
    "state_code": "04",
    "locality_name": "Hanchir Toumghani",
    "latitude": 35.937171,
    "longitude": 6.731958,
    "type": "full",
    "source": "algerie-poste-via-badre429"
  },
  {
    "code": "04014",
    "country_id": 4,
    "country_code": "DZ",
    "state_id": 1136,
    "state_code": "04",
    "locality_name": "El Djazia",
    "latitude": 35.663473,
    "longitude": 7.503051,
    "type": "full",
    "source": "algerie-poste-via-badre429"
  },
  {
    "code": "04015",
    "country_id": 4,
    "country_code": "DZ",
    "state_id": 1136,
    "state_code": "04",
    "locality_name": "Ain Diss",
    "latitude": 35.810139,
    "longitude": 7.288855,
    "type": "full",
    "source": "algerie-poste-via-badre429"
  },
  {
    "code": "04016",
    "country_id": 4,
    "country_code": "DZ",
    "state_id": 1136,
    "state_code": "04",
    "locality_name": "Fkirina",
    "latitude": 35.663894,
    "longitude": 7.290974,
    "type": "full",
    "source": "algerie-poste-via-badre429"
  },
  {
    "code": "04017",
    "country_id": 4,
    "country_code": "DZ",
    "state_id": 1136,
    "state_code": "04",
    "locality_name": "Souk Naamane",
    "latitude": 35.93924,
    "longitude": 6.258377,
    "type": "full",
    "source": "algerie-poste-via-badre429"
  },
  {
    "code": "04018",
    "country_id": 4,
    "country_code": "DZ",
    "state_id": 1136,
    "state_code": "04",
    "locality_name": "Zorg",
    "latitude": 35.872601,
    "longitude": 7.118025,
    "type": "full",
    "source": "algerie-poste-via-badre429"
  },
  {
    "code": "04019",
    "country_id": 4,
    "country_code": "DZ",
    "state_id": 1136,
    "state_code": "04",
    "locality_name": "El Fedjoudj Boughrara Saoudi",
    "latitude": 35.709409,
    "longitude": 6.816298,
    "type": "full",
    "source": "algerie-poste-via-badre429"
  },
  {
    "code": "04020",
    "country_id": 4,
    "country_code": "DZ",
    "state_id": 1136,
    "state_code": "04",
    "locality_name": "Ouled Zouai",
    "latitude": 35.855663,
    "longitude": 6.382102,
    "type": "full",
    "source": "algerie-poste-via-badre429"
  },
  {
    "code": "04021",
    "country_id": 4,
    "country_code": "DZ",
    "state_id": 1136,
    "state_code": "04",
    "locality_name": "Bir Chouhada",
    "latitude": 35.900715,
    "longitude": 6.175387,
    "type": "full",
    "source": "algerie-poste-via-badre429"
  },
  {
    "code": "04022",
    "country_id": 4,
    "country_code": "DZ",
    "state_id": 1136,
    "state_code": "04",
    "locality_name": "Ksar Sbahi",
    "latitude": 36.082098,
    "longitude": 7.250204,
    "type": "full",
    "source": "algerie-poste-via-badre429"
  },
  {
    "code": "04023",
    "country_id": 4,
    "country_code": "DZ",
    "state_id": 1136,
    "state_code": "04",
    "locality_name": "Oued Nini",
    "latitude": 35.571698,
    "longitude": 7.337751,
    "type": "full",
    "source": "algerie-poste-via-badre429"
  },
  {
    "code": "04024",
    "country_id": 4,
    "country_code": "DZ",
    "state_id": 1136,
    "state_code": "04",
    "locality_name": "Meskiana",
    "latitude": 35.629742,
    "longitude": 7.652364,
    "type": "full",
    "source": "algerie-poste-via-badre429"
  },
  {
    "code": "04025",
    "country_id": 4,
    "country_code": "DZ",
    "state_id": 1136,
    "state_code": "04",
    "locality_name": "Ain Fekroune",
    "latitude": 35.974599,
    "longitude": 6.851982,
    "type": "full",
    "source": "algerie-poste-via-badre429"
  },
  {
    "code": "04026",
    "country_id": 4,
    "country_code": "DZ",
    "state_id": 1136,
    "state_code": "04",
    "locality_name": "Rahia",
    "latitude": 35.716666,
    "longitude": 7.657912,
    "type": "full",
    "source": "algerie-poste-via-badre429"
  },
  {
    "code": "04027",
    "country_id": 4,
    "country_code": "DZ",
    "state_id": 1136,
    "state_code": "04",
    "locality_name": "Ain Zitoun",
    "latitude": 35.684159,
    "longitude": 6.930978,
    "type": "full",
    "source": "algerie-poste-via-badre429"
  },
  {
    "code": "04028",
    "country_id": 4,
    "country_code": "DZ",
    "state_id": 1136,
    "state_code": "04",
    "locality_name": "Ouled Gacem",
    "latitude": 36.032884,
    "longitude": 6.659474,
    "type": "full",
    "source": "algerie-poste-via-badre429"
  },
  {
    "code": "04029",
    "country_id": 4,
    "country_code": "DZ",
    "state_id": 1136,
    "state_code": "04",
    "locality_name": "El Harmilia",
    "latitude": 35.925748,
    "longitude": 6.617675,
    "type": "full",
    "source": "algerie-poste-via-badre429"
  },
  {
    "code": "05001",
    "country_id": 4,
    "country_code": "DZ",
    "state_id": 1142,
    "state_code": "05",
    "locality_name": "Batna",
    "latitude": 35.578427,
    "longitude": 6.108342,
    "type": "full",
    "source": "algerie-poste-via-badre429"
  },
  {
    "code": "05002",
    "country_id": 4,
    "country_code": "DZ",
    "state_id": 1142,
    "state_code": "05",
    "locality_name": "Ghassira",
    "latitude": 35.062961,
    "longitude": 6.156332,
    "type": "full",
    "source": "algerie-poste-via-badre429"
  },
  {
    "code": "05003",
    "country_id": 4,
    "country_code": "DZ",
    "state_id": 1142,
    "state_code": "05",
    "locality_name": "Maafa",
    "latitude": 35.277036,
    "longitude": 5.815627,
    "type": "full",
    "source": "algerie-poste-via-badre429"
  },
  {
    "code": "05004",
    "country_id": 4,
    "country_code": "DZ",
    "state_id": 1142,
    "state_code": "05",
    "locality_name": "Merouana",
    "latitude": 35.641788,
    "longitude": 5.81729,
    "type": "full",
    "source": "algerie-poste-via-badre429"
  },
  {
    "code": "05005",
    "country_id": 4,
    "country_code": "DZ",
    "state_id": 1142,
    "state_code": "05",
    "locality_name": "Seriana",
    "latitude": 35.716156,
    "longitude": 6.127064,
    "type": "full",
    "source": "algerie-poste-via-badre429"
  },
  {
    "code": "05006",
    "country_id": 4,
    "country_code": "DZ",
    "state_id": 1142,
    "state_code": "05",
    "locality_name": "Menaa",
    "latitude": 35.137324,
    "longitude": 5.998103,
    "type": "full",
    "source": "algerie-poste-via-badre429"
  },
  {
    "code": "05007",
    "country_id": 4,
    "country_code": "DZ",
    "state_id": 1142,
    "state_code": "05",
    "locality_name": "El Madher",
    "latitude": 35.639297,
    "longitude": 6.304219,
    "type": "full",
    "source": "algerie-poste-via-badre429"
  },
  {
    "code": "05008",
    "country_id": 4,
    "country_code": "DZ",
    "state_id": 1142,
    "state_code": "05",
    "locality_name": "Tazoult",
    "latitude": 35.470362,
    "longitude": 6.169464,
    "type": "full",
    "source": "algerie-poste-via-badre429"
  },
  {
    "code": "05009",
    "country_id": 4,
    "country_code": "DZ",
    "state_id": 1142,
    "state_code": "05",
    "locality_name": "Ngaous",
    "latitude": 35.552584,
    "longitude": 5.518997,
    "type": "full",
    "source": "algerie-poste-via-badre429"
  },
  {
    "code": "05010",
    "country_id": 4,
    "country_code": "DZ",
    "state_id": 1142,
    "state_code": "05",
    "locality_name": "Guigba",
    "latitude": 35.740775,
    "longitude": 5.535296,
    "type": "full",
    "source": "algerie-poste-via-badre429"
  },
  {
    "code": "05011",
    "country_id": 4,
    "country_code": "DZ",
    "state_id": 1142,
    "state_code": "05",
    "locality_name": "Inoughissen",
    "latitude": 35.277123,
    "longitude": 6.462877,
    "type": "full",
    "source": "algerie-poste-via-badre429"
  },
  {
    "code": "05012",
    "country_id": 4,
    "country_code": "DZ",
    "state_id": 1142,
    "state_code": "05",
    "locality_name": "Ouyoun El Assafir",
    "latitude": 35.546847,
    "longitude": 6.271045,
    "type": "full",
    "source": "algerie-poste-via-badre429"
  },
  {
    "code": "05013",
    "country_id": 4,
    "country_code": "DZ",
    "state_id": 1142,
    "state_code": "05",
    "locality_name": "Djerma",
    "latitude": 35.685393,
    "longitude": 6.226778,
    "type": "full",
    "source": "algerie-poste-via-badre429"
  },
  {
    "code": "05014",
    "country_id": 4,
    "country_code": "DZ",
    "state_id": 1142,
    "state_code": "05",
    "locality_name": "Bitam",
    "latitude": 35.177225,
    "longitude": 4.99805,
    "type": "full",
    "source": "algerie-poste-via-badre429"
  },
  {
    "code": "05015",
    "country_id": 4,
    "country_code": "DZ",
    "state_id": 1142,
    "state_code": "05",
    "locality_name": "Metkaouak",
    "latitude": 35.323352,
    "longitude": 4.69524,
    "type": "full",
    "source": "algerie-poste-via-badre429"
  },
  {
    "code": "05016",
    "country_id": 4,
    "country_code": "DZ",
    "state_id": 1142,
    "state_code": "05",
    "locality_name": "Arris",
    "latitude": 35.310519,
    "longitude": 6.200752,
    "type": "full",
    "source": "algerie-poste-via-badre429"
  },
  {
    "code": "05017",
    "country_id": 4,
    "country_code": "DZ",
    "state_id": 1142,
    "state_code": "05",
    "locality_name": "Kimmel",
    "latitude": 34.999214,
    "longitude": 6.22088,
    "type": "full",
    "source": "algerie-poste-via-badre429"
  },
  {
    "code": "05018",
    "country_id": 4,
    "country_code": "DZ",
    "state_id": 1142,
    "state_code": "05",
    "locality_name": "Tilatou",
    "latitude": 35.313132,
    "longitude": 5.491137,
    "type": "full",
    "source": "algerie-poste-via-badre429"
  },
  {
    "code": "05019",
    "country_id": 4,
    "country_code": "DZ",
    "state_id": 1142,
    "state_code": "05",
    "locality_name": "Ain Djasser",
    "latitude": 35.831121,
    "longitude": 5.93313,
    "type": "full",
    "source": "algerie-poste-via-badre429"
  },
  {
    "code": "05020",
    "country_id": 4,
    "country_code": "DZ",
    "state_id": 1142,
    "state_code": "05",
    "locality_name": "Ouled Selam",
    "latitude": 35.845748,
    "longitude": 5.727694,
    "type": "full",
    "source": "algerie-poste-via-badre429"
  },
  {
    "code": "05021",
    "country_id": 4,
    "country_code": "DZ",
    "state_id": 1142,
    "state_code": "05",
    "locality_name": "Tigherghar",
    "latitude": 35.076561,
    "longitude": 5.821284,
    "type": "full",
    "source": "algerie-poste-via-badre429"
  },
  {
    "code": "05022",
    "country_id": 4,
    "country_code": "DZ",
    "state_id": 1142,
    "state_code": "05",
    "locality_name": "Ain Yagout",
    "latitude": 35.786448,
    "longitude": 6.267926,
    "type": "full",
    "source": "algerie-poste-via-badre429"
  },
  {
    "code": "05023",
    "country_id": 4,
    "country_code": "DZ",
    "state_id": 1142,
    "state_code": "05",
    "locality_name": "Fesdis",
    "latitude": 35.617923,
    "longitude": 6.169679,
    "type": "full",
    "source": "algerie-poste-via-badre429"
  },
  {
    "code": "05024",
    "country_id": 4,
    "country_code": "DZ",
    "state_id": 1142,
    "state_code": "05",
    "locality_name": "Sefiane",
    "latitude": 35.428085,
    "longitude": 5.518653,
    "type": "full",
    "source": "algerie-poste-via-badre429"
  },
  {
    "code": "05025",
    "country_id": 4,
    "country_code": "DZ",
    "state_id": 1142,
    "state_code": "05",
    "locality_name": "Rahbat",
    "latitude": 35.72578,
    "longitude": 5.557191,
    "type": "full",
    "source": "algerie-poste-via-badre429"
  },
  {
    "code": "05026",
    "country_id": 4,
    "country_code": "DZ",
    "state_id": 1142,
    "state_code": "05",
    "locality_name": "Tighanimine",
    "latitude": 35.185829,
    "longitude": 6.229074,
    "type": "full",
    "source": "algerie-poste-via-badre429"
  },
  {
    "code": "05027",
    "country_id": 4,
    "country_code": "DZ",
    "state_id": 1142,
    "state_code": "05",
    "locality_name": "Lemsane",
    "latitude": 35.638491,
    "longitude": 5.728252,
    "type": "full",
    "source": "algerie-poste-via-badre429"
  },
  {
    "code": "05028",
    "country_id": 4,
    "country_code": "DZ",
    "state_id": 1142,
    "state_code": "05",
    "locality_name": "Ksar Belezma",
    "latitude": 35.728729,
    "longitude": 5.824758,
    "type": "full",
    "source": "algerie-poste-via-badre429"
  },
  {
    "code": "05029",
    "country_id": 4,
    "country_code": "DZ",
    "state_id": 1142,
    "state_code": "05",
    "locality_name": "Seggana",
    "latitude": 35.338036,
    "longitude": 5.407151,
    "type": "full",
    "source": "algerie-poste-via-badre429"
  },
  {
    "code": "05030",
    "country_id": 4,
    "country_code": "DZ",
    "state_id": 1142,
    "state_code": "05",
    "locality_name": "Ichmoul",
    "latitude": 35.305976,
    "longitude": 6.418674,
    "type": "full",
    "source": "algerie-poste-via-badre429"
  },
  {
    "code": "05031",
    "country_id": 4,
    "country_code": "DZ",
    "state_id": 1142,
    "state_code": "05",
    "locality_name": "Foum Toub",
    "latitude": 35.386773,
    "longitude": 6.447835,
    "type": "full",
    "source": "algerie-poste-via-badre429"
  },
  {
    "code": "05032",
    "country_id": 4,
    "country_code": "DZ",
    "state_id": 1142,
    "state_code": "05",
    "locality_name": "Beni Foudhala El Hakania",
    "latitude": 35.379065,
    "longitude": 5.930075,
    "type": "full",
    "source": "algerie-poste-via-badre429"
  },
  {
    "code": "05033",
    "country_id": 4,
    "country_code": "DZ",
    "state_id": 1142,
    "state_code": "05",
    "locality_name": "Oued El Ma",
    "latitude": 35.669626,
    "longitude": 5.952935,
    "type": "full",
    "source": "algerie-poste-via-badre429"
  },
  {
    "code": "05034",
    "country_id": 4,
    "country_code": "DZ",
    "state_id": 1142,
    "state_code": "05",
    "locality_name": "Talkhamt",
    "latitude": 35.722912,
    "longitude": 5.707052,
    "type": "full",
    "source": "algerie-poste-via-badre429"
  },
  {
    "code": "05035",
    "country_id": 4,
    "country_code": "DZ",
    "state_id": 1142,
    "state_code": "05",
    "locality_name": "Bouzina",
    "latitude": 35.275776,
    "longitude": 5.978011,
    "type": "full",
    "source": "algerie-poste-via-badre429"
  },
  {
    "code": "05036",
    "country_id": 4,
    "country_code": "DZ",
    "state_id": 1142,
    "state_code": "05",
    "locality_name": "Chemora",
    "latitude": 35.630119,
    "longitude": 6.474799,
    "type": "full",
    "source": "algerie-poste-via-badre429"
  },
  {
    "code": "05037",
    "country_id": 4,
    "country_code": "DZ",
    "state_id": 1142,
    "state_code": "05",
    "locality_name": "Oued Chaaba",
    "latitude": 35.524338,
    "longitude": 6.011965,
    "type": "full",
    "source": "algerie-poste-via-badre429"
  },
  {
    "code": "05038",
    "country_id": 4,
    "country_code": "DZ",
    "state_id": 1142,
    "state_code": "05",
    "locality_name": "Taxlent",
    "latitude": 35.563541,
    "longitude": 5.738809,
    "type": "full",
    "source": "algerie-poste-via-badre429"
  },
  {
    "code": "05039",
    "country_id": 4,
    "country_code": "DZ",
    "state_id": 1142,
    "state_code": "05",
    "locality_name": "Gosbat",
    "latitude": 35.619831,
    "longitude": 5.339431,
    "type": "full",
    "source": "algerie-poste-via-badre429"
  },
  {
    "code": "05040",
    "country_id": 4,
    "country_code": "DZ",
    "state_id": 1142,
    "state_code": "05",
    "locality_name": "Ouled Aouf",
    "latitude": 35.474037,
    "longitude": 5.717222,
    "type": "full",
    "source": "algerie-poste-via-badre429"
  },
  {
    "code": "05041",
    "country_id": 4,
    "country_code": "DZ",
    "state_id": 1142,
    "state_code": "05",
    "locality_name": "Boumagueur",
    "latitude": 35.497367,
    "longitude": 5.507323,
    "type": "full",
    "source": "algerie-poste-via-badre429"
  },
  {
    "code": "05042",
    "country_id": 4,
    "country_code": "DZ",
    "state_id": 1142,
    "state_code": "05",
    "locality_name": "Barika",
    "latitude": 35.369853,
    "longitude": 5.142449,
    "type": "full",
    "source": "algerie-poste-via-badre429"
  },
  {
    "code": "05043",
    "country_id": 4,
    "country_code": "DZ",
    "state_id": 1142,
    "state_code": "05",
    "locality_name": "Djezzar",
    "latitude": 35.518061,
    "longitude": 5.19472,
    "type": "full",
    "source": "algerie-poste-via-badre429"
  },
  {
    "code": "05044",
    "country_id": 4,
    "country_code": "DZ",
    "state_id": 1142,
    "state_code": "05",
    "locality_name": "Tkout",
    "latitude": 35.153306,
    "longitude": 6.223701,
    "type": "full",
    "source": "algerie-poste-via-badre429"
  },
  {
    "code": "05045",
    "country_id": 4,
    "country_code": "DZ",
    "state_id": 1142,
    "state_code": "05",
    "locality_name": "Ain Touta",
    "latitude": 35.364024,
    "longitude": 5.754079,
    "type": "full",
    "source": "algerie-poste-via-badre429"
  },
  {
    "code": "05046",
    "country_id": 4,
    "country_code": "DZ",
    "state_id": 1142,
    "state_code": "05",
    "locality_name": "Hidoussa",
    "latitude": 35.528608,
    "longitude": 5.781233,
    "type": "full",
    "source": "algerie-poste-via-badre429"
  },
  {
    "code": "05047",
    "country_id": 4,
    "country_code": "DZ",
    "state_id": 1142,
    "state_code": "05",
    "locality_name": "Teniet El Abed",
    "latitude": 35.286932,
    "longitude": 6.192639,
    "type": "full",
    "source": "algerie-poste-via-badre429"
  },
  {
    "code": "05048",
    "country_id": 4,
    "country_code": "DZ",
    "state_id": 1142,
    "state_code": "05",
    "locality_name": "Oued Taga",
    "latitude": 35.418596,
    "longitude": 6.237949,
    "type": "full",
    "source": "algerie-poste-via-badre429"
  },
  {
    "code": "05049",
    "country_id": 4,
    "country_code": "DZ",
    "state_id": 1142,
    "state_code": "05",
    "locality_name": "Ouled Fadel",
    "latitude": 35.555278,
    "longitude": 6.540245,
    "type": "full",
    "source": "algerie-poste-via-badre429"
  },
  {
    "code": "05050",
    "country_id": 4,
    "country_code": "DZ",
    "state_id": 1142,
    "state_code": "05",
    "locality_name": "Timgad",
    "latitude": 35.526924,
    "longitude": 6.37133,
    "type": "full",
    "source": "algerie-poste-via-badre429"
  },
  {
    "code": "05051",
    "country_id": 4,
    "country_code": "DZ",
    "state_id": 1142,
    "state_code": "05",
    "locality_name": "Ras El Aioun",
    "latitude": 35.65476,
    "longitude": 5.53406,
    "type": "full",
    "source": "algerie-poste-via-badre429"
  },
  {
    "code": "05052",
    "country_id": 4,
    "country_code": "DZ",
    "state_id": 1142,
    "state_code": "05",
    "locality_name": "Chir",
    "latitude": 35.218839,
    "longitude": 6.061661,
    "type": "full",
    "source": "algerie-poste-via-badre429"
  },
  {
    "code": "05053",
    "country_id": 4,
    "country_code": "DZ",
    "state_id": 1142,
    "state_code": "05",
    "locality_name": "Ouled Si Slimane",
    "latitude": 35.567111,
    "longitude": 5.550489,
    "type": "full",
    "source": "algerie-poste-via-badre429"
  },
  {
    "code": "05054",
    "country_id": 4,
    "country_code": "DZ",
    "state_id": 1142,
    "state_code": "05",
    "locality_name": "Zanat El Beida",
    "latitude": 35.794707,
    "longitude": 5.95518,
    "type": "full",
    "source": "algerie-poste-via-badre429"
  },
  {
    "code": "05055",
    "country_id": 4,
    "country_code": "DZ",
    "state_id": 1142,
    "state_code": "05",
    "locality_name": "M'doukel",
    "latitude": 35.11322,
    "longitude": 5.006472,
    "type": "full",
    "source": "algerie-poste-via-badre429"
  },
  {
    "code": "05056",
    "country_id": 4,
    "country_code": "DZ",
    "state_id": 1142,
    "state_code": "05",
    "locality_name": "Ouled Ammar",
    "latitude": 35.463777,
    "longitude": 5.122673,
    "type": "full",
    "source": "algerie-poste-via-badre429"
  },
  {
    "code": "05057",
    "country_id": 4,
    "country_code": "DZ",
    "state_id": 1142,
    "state_code": "05",
    "locality_name": "El Hassi",
    "latitude": 35.780512,
    "longitude": 5.878842,
    "type": "full",
    "source": "algerie-poste-via-badre429"
  },
  {
    "code": "05058",
    "country_id": 4,
    "country_code": "DZ",
    "state_id": 1142,
    "state_code": "05",
    "locality_name": "Lazrou",
    "latitude": 35.804257,
    "longitude": 6.200192,
    "type": "full",
    "source": "algerie-poste-via-badre429"
  },
  {
    "code": "05059",
    "country_id": 4,
    "country_code": "DZ",
    "state_id": 1142,
    "state_code": "05",
    "locality_name": "Boumia",
    "latitude": 35.704122,
    "longitude": 6.396358,
    "type": "full",
    "source": "algerie-poste-via-badre429"
  },
  {
    "code": "05060",
    "country_id": 4,
    "country_code": "DZ",
    "state_id": 1142,
    "state_code": "05",
    "locality_name": "Boulhilat",
    "latitude": 35.73748,
    "longitude": 6.588962,
    "type": "full",
    "source": "algerie-poste-via-badre429"
  },
  {
    "code": "05061",
    "country_id": 4,
    "country_code": "DZ",
    "state_id": 1142,
    "state_code": "05",
    "locality_name": "Larbaa",
    "latitude": 36.578708,
    "longitude": 3.103324,
    "type": "full",
    "source": "algerie-poste-via-badre429"
  },
  {
    "code": "06001",
    "country_id": 4,
    "country_code": "DZ",
    "state_id": 1128,
    "state_code": "06",
    "locality_name": "Bejaia",
    "latitude": 36.769576,
    "longitude": 4.938545,
    "type": "full",
    "source": "algerie-poste-via-badre429"
  },
  {
    "code": "06002",
    "country_id": 4,
    "country_code": "DZ",
    "state_id": 1128,
    "state_code": "06",
    "locality_name": "Amizour",
    "latitude": 36.642916,
    "longitude": 4.867971,
    "type": "full",
    "source": "algerie-poste-via-badre429"
  },
  {
    "code": "06003",
    "country_id": 4,
    "country_code": "DZ",
    "state_id": 1128,
    "state_code": "06",
    "locality_name": "Ferraoun",
    "latitude": 36.565431,
    "longitude": 4.841772,
    "type": "full",
    "source": "algerie-poste-via-badre429"
  },
  {
    "code": "06004",
    "country_id": 4,
    "country_code": "DZ",
    "state_id": 1128,
    "state_code": "06",
    "locality_name": "Taourirt Ighil",
    "latitude": 36.732932,
    "longitude": 4.670936,
    "type": "full",
    "source": "algerie-poste-via-badre429"
  },
  {
    "code": "06005",
    "country_id": 4,
    "country_code": "DZ",
    "state_id": 1128,
    "state_code": "06",
    "locality_name": "Chelata",
    "latitude": 36.507984,
    "longitude": 4.489207,
    "type": "full",
    "source": "algerie-poste-via-badre429"
  },
  {
    "code": "06006",
    "country_id": 4,
    "country_code": "DZ",
    "state_id": 1128,
    "state_code": "06",
    "locality_name": "Tamokra",
    "latitude": 36.391634,
    "longitude": 4.581441,
    "type": "full",
    "source": "algerie-poste-via-badre429"
  },
  {
    "code": "06007",
    "country_id": 4,
    "country_code": "DZ",
    "state_id": 1128,
    "state_code": "06",
    "locality_name": "Timzrit",
    "latitude": 36.616145,
    "longitude": 4.734211,
    "type": "full",
    "source": "algerie-poste-via-badre429"
  },
  {
    "code": "06008",
    "country_id": 4,
    "country_code": "DZ",
    "state_id": 1128,
    "state_code": "06",
    "locality_name": "Souk El Thenine",
    "latitude": 36.615027,
    "longitude": 5.277791,
    "type": "full",
    "source": "algerie-poste-via-badre429"
  },
  {
    "code": "06009",
    "country_id": 4,
    "country_code": "DZ",
    "state_id": 1128,
    "state_code": "06",
    "locality_name": "M'cisna",
    "latitude": 36.564652,
    "longitude": 4.692214,
    "type": "full",
    "source": "algerie-poste-via-badre429"
  },
  {
    "code": "06010",
    "country_id": 4,
    "country_code": "DZ",
    "state_id": 1128,
    "state_code": "06",
    "locality_name": "Thinabdher",
    "latitude": 36.633395,
    "longitude": 4.664533,
    "type": "full",
    "source": "algerie-poste-via-badre429"
  },
  {
    "code": "06011",
    "country_id": 4,
    "country_code": "DZ",
    "state_id": 1128,
    "state_code": "06",
    "locality_name": "Tichi",
    "latitude": 36.620329,
    "longitude": 5.094465,
    "type": "full",
    "source": "algerie-poste-via-badre429"
  },
  {
    "code": "06012",
    "country_id": 4,
    "country_code": "DZ",
    "state_id": 1128,
    "state_code": "06",
    "locality_name": "Semaoun",
    "latitude": 36.616312,
    "longitude": 4.802902,
    "type": "full",
    "source": "algerie-poste-via-badre429"
  },
  {
    "code": "06013",
    "country_id": 4,
    "country_code": "DZ",
    "state_id": 1128,
    "state_code": "06",
    "locality_name": "Kendira",
    "latitude": 36.556845,
    "longitude": 4.948437,
    "type": "full",
    "source": "algerie-poste-via-badre429"
  },
  {
    "code": "06014",
    "country_id": 4,
    "country_code": "DZ",
    "state_id": 1128,
    "state_code": "06",
    "locality_name": "Tifra",
    "latitude": 36.662677,
    "longitude": 4.65055,
    "type": "full",
    "source": "algerie-poste-via-badre429"
  },
  {
    "code": "06015",
    "country_id": 4,
    "country_code": "DZ",
    "state_id": 1128,
    "state_code": "06",
    "locality_name": "Ighram",
    "latitude": 36.476546,
    "longitude": 4.392469,
    "type": "full",
    "source": "algerie-poste-via-badre429"
  },
  {
    "code": "06016",
    "country_id": 4,
    "country_code": "DZ",
    "state_id": 1128,
    "state_code": "06",
    "locality_name": "Amalou",
    "latitude": 36.478061,
    "longitude": 4.567451,
    "type": "full",
    "source": "algerie-poste-via-badre429"
  },
  {
    "code": "06017",
    "country_id": 4,
    "country_code": "DZ",
    "state_id": 1128,
    "state_code": "06",
    "locality_name": "Ighil Ali",
    "latitude": 36.29054,
    "longitude": 4.434547,
    "type": "full",
    "source": "algerie-poste-via-badre429"
  },
  {
    "code": "06018",
    "country_id": 4,
    "country_code": "DZ",
    "state_id": 1128,
    "state_code": "06",
    "locality_name": "Ifelain Ilmathen",
    "latitude": 36.667313,
    "longitude": 4.747983,
    "type": "full",
    "source": "algerie-poste-via-badre429"
  },
  {
    "code": "06019",
    "country_id": 4,
    "country_code": "DZ",
    "state_id": 1128,
    "state_code": "06",
    "locality_name": "Toudja",
    "latitude": 36.78625,
    "longitude": 4.720991,
    "type": "full",
    "source": "algerie-poste-via-badre429"
  },
  {
    "code": "06020",
    "country_id": 4,
    "country_code": "DZ",
    "state_id": 1128,
    "state_code": "06",
    "locality_name": "Darguina",
    "latitude": 36.55374,
    "longitude": 5.305707,
    "type": "full",
    "source": "algerie-poste-via-badre429"
  },
  {
    "code": "06021",
    "country_id": 4,
    "country_code": "DZ",
    "state_id": 1128,
    "state_code": "06",
    "locality_name": "Sidi Ayad",
    "latitude": 36.609599,
    "longitude": 4.695668,
    "type": "full",
    "source": "algerie-poste-via-badre429"
  },
  {
    "code": "06022",
    "country_id": 4,
    "country_code": "DZ",
    "state_id": 1128,
    "state_code": "06",
    "locality_name": "Aokas",
    "latitude": 36.619585,
    "longitude": 5.203817,
    "type": "full",
    "source": "algerie-poste-via-badre429"
  },
  {
    "code": "06023",
    "country_id": 4,
    "country_code": "DZ",
    "state_id": 1128,
    "state_code": "06",
    "locality_name": "Ait Djellil",
    "latitude": 36.56268,
    "longitude": 4.764397,
    "type": "full",
    "source": "algerie-poste-via-badre429"
  },
  {
    "code": "06024",
    "country_id": 4,
    "country_code": "DZ",
    "state_id": 1128,
    "state_code": "06",
    "locality_name": "Adekar",
    "latitude": 36.734371,
    "longitude": 4.542029,
    "type": "full",
    "source": "algerie-poste-via-badre429"
  },
  {
    "code": "06025",
    "country_id": 4,
    "country_code": "DZ",
    "state_id": 1128,
    "state_code": "06",
    "locality_name": "Akbou",
    "latitude": 36.45832,
    "longitude": 4.463966,
    "type": "full",
    "source": "algerie-poste-via-badre429"
  },
  {
    "code": "06026",
    "country_id": 4,
    "country_code": "DZ",
    "state_id": 1128,
    "state_code": "06",
    "locality_name": "Seddouk",
    "latitude": 36.536787,
    "longitude": 4.640905,
    "type": "full",
    "source": "algerie-poste-via-badre429"
  },
  {
    "code": "06027",
    "country_id": 4,
    "country_code": "DZ",
    "state_id": 1128,
    "state_code": "06",
    "locality_name": "Tazmalt",
    "latitude": 36.398095,
    "longitude": 4.389231,
    "type": "full",
    "source": "algerie-poste-via-badre429"
  },
  {
    "code": "06028",
    "country_id": 4,
    "country_code": "DZ",
    "state_id": 1128,
    "state_code": "06",
    "locality_name": "Ait R'zine",
    "latitude": 36.386656,
    "longitude": 4.464609,
    "type": "full",
    "source": "algerie-poste-via-badre429"
  },
  {
    "code": "06029",
    "country_id": 4,
    "country_code": "DZ",
    "state_id": 1128,
    "state_code": "06",
    "locality_name": "Chemini",
    "latitude": 36.592835,
    "longitude": 4.560173,
    "type": "full",
    "source": "algerie-poste-via-badre429"
  },
  {
    "code": "06030",
    "country_id": 4,
    "country_code": "DZ",
    "state_id": 1128,
    "state_code": "06",
    "locality_name": "Souk Oufella",
    "latitude": 36.588044,
    "longitude": 4.599205,
    "type": "full",
    "source": "algerie-poste-via-badre429"
  },
  {
    "code": "06031",
    "country_id": 4,
    "country_code": "DZ",
    "state_id": 1128,
    "state_code": "06",
    "locality_name": "Taskriout",
    "latitude": 36.556571,
    "longitude": 5.223762,
    "type": "full",
    "source": "algerie-poste-via-badre429"
  },
  {
    "code": "06032",
    "country_id": 4,
    "country_code": "DZ",
    "state_id": 1128,
    "state_code": "06",
    "locality_name": "Tibane",
    "latitude": 36.613171,
    "longitude": 4.636084,
    "type": "full",
    "source": "algerie-poste-via-badre429"
  },
  {
    "code": "06033",
    "country_id": 4,
    "country_code": "DZ",
    "state_id": 1128,
    "state_code": "06",
    "locality_name": "Tala Hamza",
    "latitude": 36.690461,
    "longitude": 4.943223,
    "type": "full",
    "source": "algerie-poste-via-badre429"
  },
  {
    "code": "06034",
    "country_id": 4,
    "country_code": "DZ",
    "state_id": 1128,
    "state_code": "06",
    "locality_name": "Barbacha",
    "latitude": 36.562819,
    "longitude": 4.886221,
    "type": "full",
    "source": "algerie-poste-via-badre429"
  },
  {
    "code": "06035",
    "country_id": 4,
    "country_code": "DZ",
    "state_id": 1128,
    "state_code": "06",
    "locality_name": "Beni Ksila",
    "latitude": 36.82806,
    "longitude": 4.630971,
    "type": "full",
    "source": "algerie-poste-via-badre429"
  },
  {
    "code": "06036",
    "country_id": 4,
    "country_code": "DZ",
    "state_id": 1128,
    "state_code": "06",
    "locality_name": "Ouzallaguen",
    "latitude": 36.54739,
    "longitude": 4.507521,
    "type": "full",
    "source": "algerie-poste-via-badre429"
  },
  {
    "code": "06037",
    "country_id": 4,
    "country_code": "DZ",
    "state_id": 1128,
    "state_code": "06",
    "locality_name": "Bouhamza",
    "latitude": 36.439323,
    "longitude": 4.570054,
    "type": "full",
    "source": "algerie-poste-via-badre429"
  },
  {
    "code": "06038",
    "country_id": 4,
    "country_code": "DZ",
    "state_id": 1128,
    "state_code": "06",
    "locality_name": "Beni Melikeche",
    "latitude": 36.447515,
    "longitude": 4.38466,
    "type": "full",
    "source": "algerie-poste-via-badre429"
  },
  {
    "code": "06039",
    "country_id": 4,
    "country_code": "DZ",
    "state_id": 1128,
    "state_code": "06",
    "locality_name": "Sidi Aich",
    "latitude": 36.622309,
    "longitude": 4.679259,
    "type": "full",
    "source": "algerie-poste-via-badre429"
  },
  {
    "code": "06040",
    "country_id": 4,
    "country_code": "DZ",
    "state_id": 1128,
    "state_code": "06",
    "locality_name": "El Kseur",
    "latitude": 36.718738,
    "longitude": 4.767825,
    "type": "full",
    "source": "algerie-poste-via-badre429"
  },
  {
    "code": "06041",
    "country_id": 4,
    "country_code": "DZ",
    "state_id": 1128,
    "state_code": "06",
    "locality_name": "Melbou",
    "latitude": 36.621705,
    "longitude": 5.351135,
    "type": "full",
    "source": "algerie-poste-via-badre429"
  },
  {
    "code": "06042",
    "country_id": 4,
    "country_code": "DZ",
    "state_id": 1128,
    "state_code": "06",
    "locality_name": "Akfadou",
    "latitude": 36.658042,
    "longitude": 4.574796,
    "type": "full",
    "source": "algerie-poste-via-badre429"
  },
  {
    "code": "06043",
    "country_id": 4,
    "country_code": "DZ",
    "state_id": 1128,
    "state_code": "06",
    "locality_name": "Leflaye",
    "latitude": 36.597995,
    "longitude": 4.644196,
    "type": "full",
    "source": "algerie-poste-via-badre429"
  },
  {
    "code": "06044",
    "country_id": 4,
    "country_code": "DZ",
    "state_id": 1128,
    "state_code": "06",
    "locality_name": "Kherrata",
    "latitude": 36.471931,
    "longitude": 5.204711,
    "type": "full",
    "source": "algerie-poste-via-badre429"
  },
  {
    "code": "06045",
    "country_id": 4,
    "country_code": "DZ",
    "state_id": 1128,
    "state_code": "06",
    "locality_name": "Draa Kaid",
    "latitude": 36.440597,
    "longitude": 5.168301,
    "type": "full",
    "source": "algerie-poste-via-badre429"
  },
  {
    "code": "06046",
    "country_id": 4,
    "country_code": "DZ",
    "state_id": 1128,
    "state_code": "06",
    "locality_name": "Tamridjet",
    "latitude": 36.572942,
    "longitude": 5.37751,
    "type": "full",
    "source": "algerie-poste-via-badre429"
  },
  {
    "code": "06047",
    "country_id": 4,
    "country_code": "DZ",
    "state_id": 1128,
    "state_code": "06",
    "locality_name": "Ait Smail",
    "latitude": 36.554314,
    "longitude": 5.189226,
    "type": "full",
    "source": "algerie-poste-via-badre429"
  },
  {
    "code": "06048",
    "country_id": 4,
    "country_code": "DZ",
    "state_id": 1128,
    "state_code": "06",
    "locality_name": "Boukhelifa",
    "latitude": 36.636794,
    "longitude": 5.005893,
    "type": "full",
    "source": "algerie-poste-via-badre429"
  },
  {
    "code": "06049",
    "country_id": 4,
    "country_code": "DZ",
    "state_id": 1128,
    "state_code": "06",
    "locality_name": "Tizi N'berber",
    "latitude": 36.58992,
    "longitude": 5.130733,
    "type": "full",
    "source": "algerie-poste-via-badre429"
  },
  {
    "code": "06050",
    "country_id": 4,
    "country_code": "DZ",
    "state_id": 1128,
    "state_code": "06",
    "locality_name": "Beni Maouch",
    "latitude": 36.488146,
    "longitude": 4.72105,
    "type": "full",
    "source": "algerie-poste-via-badre429"
  },
  {
    "code": "06051",
    "country_id": 4,
    "country_code": "DZ",
    "state_id": 1128,
    "state_code": "06",
    "locality_name": "Oued Ghir",
    "latitude": 36.714921,
    "longitude": 4.908593,
    "type": "full",
    "source": "algerie-poste-via-badre429"
  },
  {
    "code": "06052",
    "country_id": 4,
    "country_code": "DZ",
    "state_id": 1128,
    "state_code": "06",
    "locality_name": "Boudjellil",
    "latitude": 36.322397,
    "longitude": 4.347772,
    "type": "full",
    "source": "algerie-poste-via-badre429"
  },
  {
    "code": "07001",
    "country_id": 4,
    "country_code": "DZ",
    "state_id": 1114,
    "state_code": "07",
    "locality_name": "Biskra",
    "latitude": 34.851484,
    "longitude": 5.65463,
    "type": "full",
    "source": "algerie-poste-via-badre429"
  },
  {
    "code": "07002",
    "country_id": 4,
    "country_code": "DZ",
    "state_id": 1114,
    "state_code": "07",
    "locality_name": "Oumache",
    "latitude": 34.586303,
    "longitude": 5.518141,
    "type": "full",
    "source": "algerie-poste-via-badre429"
  },
  {
    "code": "07003",
    "country_id": 4,
    "country_code": "DZ",
    "state_id": 1114,
    "state_code": "07",
    "locality_name": "Branis",
    "latitude": 34.970957,
    "longitude": 5.641254,
    "type": "full",
    "source": "algerie-poste-via-badre429"
  },
  {
    "code": "07004",
    "country_id": 4,
    "country_code": "DZ",
    "state_id": 1114,
    "state_code": "07",
    "locality_name": "Chetma",
    "latitude": 34.865539,
    "longitude": 5.772927,
    "type": "full",
    "source": "algerie-poste-via-badre429"
  },
  {
    "code": "07005",
    "country_id": 4,
    "country_code": "DZ",
    "state_id": 1114,
    "state_code": "07",
    "locality_name": "Ouled Djellal",
    "latitude": 34.417464,
    "longitude": 4.971303,
    "type": "full",
    "source": "algerie-poste-via-badre429"
  },
  {
    "code": "07006",
    "country_id": 4,
    "country_code": "DZ",
    "state_id": 1114,
    "state_code": "07",
    "locality_name": "Ras El Miaad",
    "latitude": 34.0268,
    "longitude": 4.159699,
    "type": "full",
    "source": "algerie-poste-via-badre429"
  },
  {
    "code": "07007",
    "country_id": 4,
    "country_code": "DZ",
    "state_id": 1114,
    "state_code": "07",
    "locality_name": "Besbes",
    "latitude": 36.720403,
    "longitude": 7.754414,
    "type": "full",
    "source": "algerie-poste-via-badre429"
  },
  {
    "code": "07008",
    "country_id": 4,
    "country_code": "DZ",
    "state_id": 1114,
    "state_code": "07",
    "locality_name": "Sidi Khaled",
    "latitude": 34.384559,
    "longitude": 4.840025,
    "type": "full",
    "source": "algerie-poste-via-badre429"
  },
  {
    "code": "07009",
    "country_id": 4,
    "country_code": "DZ",
    "state_id": 1114,
    "state_code": "07",
    "locality_name": "Doucen",
    "latitude": 34.619782,
    "longitude": 4.986323,
    "type": "full",
    "source": "algerie-poste-via-badre429"
  },
  {
    "code": "07010",
    "country_id": 4,
    "country_code": "DZ",
    "state_id": 1114,
    "state_code": "07",
    "locality_name": "Ech Chaiba",
    "latitude": 34.625775,
    "longitude": 4.557224,
    "type": "full",
    "source": "algerie-poste-via-badre429"
  },
  {
    "code": "07011",
    "country_id": 4,
    "country_code": "DZ",
    "state_id": 1114,
    "state_code": "07",
    "locality_name": "Sidi Okba",
    "latitude": 34.776526,
    "longitude": 5.834424,
    "type": "full",
    "source": "algerie-poste-via-badre429"
  },
  {
    "code": "07012",
    "country_id": 4,
    "country_code": "DZ",
    "state_id": 1114,
    "state_code": "07",
    "locality_name": "Mchouneche",
    "latitude": 34.906385,
    "longitude": 5.899304,
    "type": "full",
    "source": "algerie-poste-via-badre429"
  },
  {
    "code": "07013",
    "country_id": 4,
    "country_code": "DZ",
    "state_id": 1114,
    "state_code": "07",
    "locality_name": "El Haouch",
    "latitude": 34.560329,
    "longitude": 5.885228,
    "type": "full",
    "source": "algerie-poste-via-badre429"
  },
  {
    "code": "07014",
    "country_id": 4,
    "country_code": "DZ",
    "state_id": 1114,
    "state_code": "07",
    "locality_name": "Ain Naga",
    "latitude": 34.650823,
    "longitude": 6.018909,
    "type": "full",
    "source": "algerie-poste-via-badre429"
  },
  {
    "code": "07015",
    "country_id": 4,
    "country_code": "DZ",
    "state_id": 1114,
    "state_code": "07",
    "locality_name": "Zeribet El Oued",
    "latitude": 34.683456,
    "longitude": 6.374892,
    "type": "full",
    "source": "algerie-poste-via-badre429"
  },
  {
    "code": "07016",
    "country_id": 4,
    "country_code": "DZ",
    "state_id": 1114,
    "state_code": "07",
    "locality_name": "El Feidh",
    "latitude": 34.499019,
    "longitude": 6.19247,
    "type": "full",
    "source": "algerie-poste-via-badre429"
  },
  {
    "code": "07017",
    "country_id": 4,
    "country_code": "DZ",
    "state_id": 1114,
    "state_code": "07",
    "locality_name": "El Kantara",
    "latitude": 35.205253,
    "longitude": 5.506264,
    "type": "full",
    "source": "algerie-poste-via-badre429"
  },
  {
    "code": "07018",
    "country_id": 4,
    "country_code": "DZ",
    "state_id": 1114,
    "state_code": "07",
    "locality_name": "Ain Zaatout",
    "latitude": 35.170519,
    "longitude": 5.786016,
    "type": "full",
    "source": "algerie-poste-via-badre429"
  },
  {
    "code": "07019",
    "country_id": 4,
    "country_code": "DZ",
    "state_id": 1114,
    "state_code": "07",
    "locality_name": "El Outaya",
    "latitude": 34.977288,
    "longitude": 5.440196,
    "type": "full",
    "source": "algerie-poste-via-badre429"
  },
  {
    "code": "07020",
    "country_id": 4,
    "country_code": "DZ",
    "state_id": 1114,
    "state_code": "07",
    "locality_name": "Djemorah",
    "latitude": 35.098929,
    "longitude": 5.695464,
    "type": "full",
    "source": "algerie-poste-via-badre429"
  },
  {
    "code": "07021",
    "country_id": 4,
    "country_code": "DZ",
    "state_id": 1114,
    "state_code": "07",
    "locality_name": "Tolga",
    "latitude": 34.894129,
    "longitude": 4.948354,
    "type": "full",
    "source": "algerie-poste-via-badre429"
  },
  {
    "code": "07022",
    "country_id": 4,
    "country_code": "DZ",
    "state_id": 1114,
    "state_code": "07",
    "locality_name": "Lioua",
    "latitude": 34.572636,
    "longitude": 5.224675,
    "type": "full",
    "source": "algerie-poste-via-badre429"
  },
  {
    "code": "07023",
    "country_id": 4,
    "country_code": "DZ",
    "state_id": 1114,
    "state_code": "07",
    "locality_name": "Lichana",
    "latitude": 34.73794,
    "longitude": 5.367248,
    "type": "full",
    "source": "algerie-poste-via-badre429"
  },
  {
    "code": "07024",
    "country_id": 4,
    "country_code": "DZ",
    "state_id": 1114,
    "state_code": "07",
    "locality_name": "Ourlal",
    "latitude": 34.563429,
    "longitude": 5.374879,
    "type": "full",
    "source": "algerie-poste-via-badre429"
  },
  {
    "code": "07025",
    "country_id": 4,
    "country_code": "DZ",
    "state_id": 1114,
    "state_code": "07",
    "locality_name": "M'lili",
    "latitude": 34.578162,
    "longitude": 5.461761,
    "type": "full",
    "source": "algerie-poste-via-badre429"
  },
  {
    "code": "07026",
    "country_id": 4,
    "country_code": "DZ",
    "state_id": 1114,
    "state_code": "07",
    "locality_name": "Foughala",
    "latitude": 34.759836,
    "longitude": 5.221207,
    "type": "full",
    "source": "algerie-poste-via-badre429"
  },
  {
    "code": "07027",
    "country_id": 4,
    "country_code": "DZ",
    "state_id": 1114,
    "state_code": "07",
    "locality_name": "Bordj Ben Azzouz",
    "latitude": 34.728194,
    "longitude": 5.281975,
    "type": "full",
    "source": "algerie-poste-via-badre429"
  },
  {
    "code": "07028",
    "country_id": 4,
    "country_code": "DZ",
    "state_id": 1114,
    "state_code": "07",
    "locality_name": "M'ziraa",
    "latitude": 34.885347,
    "longitude": 6.006046,
    "type": "full",
    "source": "algerie-poste-via-badre429"
  },
  {
    "code": "07029",
    "country_id": 4,
    "country_code": "DZ",
    "state_id": 1114,
    "state_code": "07",
    "locality_name": "Bouchagroun",
    "latitude": 34.737886,
    "longitude": 5.416965,
    "type": "full",
    "source": "algerie-poste-via-badre429"
  },
  {
    "code": "07030",
    "country_id": 4,
    "country_code": "DZ",
    "state_id": 1114,
    "state_code": "07",
    "locality_name": "Mekhadma",
    "latitude": 34.563694,
    "longitude": 5.309218,
    "type": "full",
    "source": "algerie-poste-via-badre429"
  },
  {
    "code": "07031",
    "country_id": 4,
    "country_code": "DZ",
    "state_id": 1114,
    "state_code": "07",
    "locality_name": "El Ghrous",
    "latitude": 34.717547,
    "longitude": 5.090393,
    "type": "full",
    "source": "algerie-poste-via-badre429"
  },
  {
    "code": "07032",
    "country_id": 4,
    "country_code": "DZ",
    "state_id": 1114,
    "state_code": "07",
    "locality_name": "El Hadjab",
    "latitude": 34.796789,
    "longitude": 5.455195,
    "type": "full",
    "source": "algerie-poste-via-badre429"
  },
  {
    "code": "07033",
    "country_id": 4,
    "country_code": "DZ",
    "state_id": 1114,
    "state_code": "07",
    "locality_name": "Khanguet Sidinadji",
    "latitude": 34.784537,
    "longitude": 6.632735,
    "type": "full",
    "source": "algerie-poste-via-badre429"
  },
  {
    "code": "08001",
    "country_id": 4,
    "country_code": "DZ",
    "state_id": 1108,
    "state_code": "08",
    "locality_name": "Bechar",
    "latitude": 31.596537,
    "longitude": -2.414525,
    "type": "full",
    "source": "algerie-poste-via-badre429"
  },
  {
    "code": "08002",
    "country_id": 4,
    "country_code": "DZ",
    "state_id": 1108,
    "state_code": "08",
    "locality_name": "Erg Ferradj",
    "latitude": 31.08359,
    "longitude": -2.863092,
    "type": "full",
    "source": "algerie-poste-via-badre429"
  },
  {
    "code": "08003",
    "country_id": 4,
    "country_code": "DZ",
    "state_id": 1108,
    "state_code": "08",
    "locality_name": "Ouled Khoudir",
    "latitude": 29.25587,
    "longitude": -1.06415,
    "type": "full",
    "source": "algerie-poste-via-badre429"
  },
  {
    "code": "08004",
    "country_id": 4,
    "country_code": "DZ",
    "state_id": 1108,
    "state_code": "08",
    "locality_name": "Meridja",
    "latitude": 31.549405,
    "longitude": -2.95583,
    "type": "full",
    "source": "algerie-poste-via-badre429"
  },
  {
    "code": "08005",
    "country_id": 4,
    "country_code": "DZ",
    "state_id": 1108,
    "state_code": "08",
    "locality_name": "Timoudi",
    "latitude": 29.319553,
    "longitude": -1.135803,
    "type": "full",
    "source": "algerie-poste-via-badre429"
  },
  {
    "code": "08006",
    "country_id": 4,
    "country_code": "DZ",
    "state_id": 1108,
    "state_code": "08",
    "locality_name": "Lahmar",
    "latitude": 31.931218,
    "longitude": -2.268156,
    "type": "full",
    "source": "algerie-poste-via-badre429"
  },
  {
    "code": "08007",
    "country_id": 4,
    "country_code": "DZ",
    "state_id": 1108,
    "state_code": "08",
    "locality_name": "Beni Abbes",
    "latitude": 30.13023,
    "longitude": -2.178254,
    "type": "full",
    "source": "algerie-poste-via-badre429"
  },
  {
    "code": "08008",
    "country_id": 4,
    "country_code": "DZ",
    "state_id": 1108,
    "state_code": "08",
    "locality_name": "Beni Ikhlef",
    "latitude": 29.580218,
    "longitude": -1.612809,
    "type": "full",
    "source": "algerie-poste-via-badre429"
  },
  {
    "code": "08009",
    "country_id": 4,
    "country_code": "DZ",
    "state_id": 1108,
    "state_code": "08",
    "locality_name": "Mechraa Houari Boumedienne",
    "latitude": 30.931826,
    "longitude": -2.741164,
    "type": "full",
    "source": "algerie-poste-via-badre429"
  },
  {
    "code": "08010",
    "country_id": 4,
    "country_code": "DZ",
    "state_id": 1108,
    "state_code": "08",
    "locality_name": "Kenedsa",
    "latitude": 31.55706,
    "longitude": -2.43818,
    "type": "full",
    "source": "algerie-poste-via-badre429"
  },
  {
    "code": "08011",
    "country_id": 4,
    "country_code": "DZ",
    "state_id": 1108,
    "state_code": "08",
    "locality_name": "Igli",
    "latitude": 30.452849,
    "longitude": -2.30008,
    "type": "full",
    "source": "algerie-poste-via-badre429"
  },
  {
    "code": "08012",
    "country_id": 4,
    "country_code": "DZ",
    "state_id": 1108,
    "state_code": "08",
    "locality_name": "Tabalbala",
    "latitude": 28.973566,
    "longitude": -5.995764,
    "type": "full",
    "source": "algerie-poste-via-badre429"
  },
  {
    "code": "08013",
    "country_id": 4,
    "country_code": "DZ",
    "state_id": 1108,
    "state_code": "08",
    "locality_name": "Taghit",
    "latitude": 30.915073,
    "longitude": -2.047212,
    "type": "full",
    "source": "algerie-poste-via-badre429"
  },
  {
    "code": "08014",
    "country_id": 4,
    "country_code": "DZ",
    "state_id": 1108,
    "state_code": "08",
    "locality_name": "El Ouata",
    "latitude": 29.854111,
    "longitude": -1.865016,
    "type": "full",
    "source": "algerie-poste-via-badre429"
  },
  {
    "code": "08015",
    "country_id": 4,
    "country_code": "DZ",
    "state_id": 1108,
    "state_code": "08",
    "locality_name": "Boukais",
    "latitude": 31.923018,
    "longitude": -2.471406,
    "type": "full",
    "source": "algerie-poste-via-badre429"
  },
  {
    "code": "08016",
    "country_id": 4,
    "country_code": "DZ",
    "state_id": 1108,
    "state_code": "08",
    "locality_name": "Mogheul",
    "latitude": 32.021994,
    "longitude": -2.222725,
    "type": "full",
    "source": "algerie-poste-via-badre429"
  },
  {
    "code": "08017",
    "country_id": 4,
    "country_code": "DZ",
    "state_id": 1108,
    "state_code": "08",
    "locality_name": "Abadla",
    "latitude": 31.017487,
    "longitude": -2.761549,
    "type": "full",
    "source": "algerie-poste-via-badre429"
  },
  {
    "code": "08018",
    "country_id": 4,
    "country_code": "DZ",
    "state_id": 1108,
    "state_code": "08",
    "locality_name": "Kerzaz",
    "latitude": 29.460223,
    "longitude": -1.455302,
    "type": "full",
    "source": "algerie-poste-via-badre429"
  },
  {
    "code": "08019",
    "country_id": 4,
    "country_code": "DZ",
    "state_id": 1108,
    "state_code": "08",
    "locality_name": "Ksabi",
    "latitude": 29.098424,
    "longitude": -1.002246,
    "type": "full",
    "source": "algerie-poste-via-badre429"
  },
  {
    "code": "08020",
    "country_id": 4,
    "country_code": "DZ",
    "state_id": 1108,
    "state_code": "08",
    "locality_name": "Tamtert",
    "latitude": 29.916666,
    "longitude": -1.908755,
    "type": "full",
    "source": "algerie-poste-via-badre429"
  },
  {
    "code": "08021",
    "country_id": 4,
    "country_code": "DZ",
    "state_id": 1108,
    "state_code": "08",
    "locality_name": "Beni Ounif",
    "latitude": 32.051264,
    "longitude": -1.251905,
    "type": "full",
    "source": "algerie-poste-via-badre429"
  },
  {
    "code": "09001",
    "country_id": 4,
    "country_code": "DZ",
    "state_id": 1111,
    "state_code": "09",
    "locality_name": "Blida",
    "latitude": 36.480297,
    "longitude": 2.765918,
    "type": "full",
    "source": "algerie-poste-via-badre429"
  },
  {
    "code": "09002",
    "country_id": 4,
    "country_code": "DZ",
    "state_id": 1111,
    "state_code": "09",
    "locality_name": "Chebli",
    "latitude": 36.568576,
    "longitude": 2.943346,
    "type": "full",
    "source": "algerie-poste-via-badre429"
  },
  {
    "code": "09003",
    "country_id": 4,
    "country_code": "DZ",
    "state_id": 1111,
    "state_code": "09",
    "locality_name": "Bouinan",
    "latitude": 36.515484,
    "longitude": 2.921824,
    "type": "full",
    "source": "algerie-poste-via-badre429"
  },
  {
    "code": "09004",
    "country_id": 4,
    "country_code": "DZ",
    "state_id": 1111,
    "state_code": "09",
    "locality_name": "Oued El Alleug",
    "latitude": 36.550288,
    "longitude": 2.702613,
    "type": "full",
    "source": "algerie-poste-via-badre429"
  },
  {
    "code": "09007",
    "country_id": 4,
    "country_code": "DZ",
    "state_id": 1111,
    "state_code": "09",
    "locality_name": "Ouled Yaich",
    "latitude": 36.485212,
    "longitude": 2.832574,
    "type": "full",
    "source": "algerie-poste-via-badre429"
  },
  {
    "code": "09008",
    "country_id": 4,
    "country_code": "DZ",
    "state_id": 1111,
    "state_code": "09",
    "locality_name": "Chrea",
    "latitude": 36.42549,
    "longitude": 2.828634,
    "type": "full",
    "source": "algerie-poste-via-badre429"
  },
  {
    "code": "09010",
    "country_id": 4,
    "country_code": "DZ",
    "state_id": 1111,
    "state_code": "09",
    "locality_name": "El Affroun",
    "latitude": 36.446067,
    "longitude": 2.538287,
    "type": "full",
    "source": "algerie-poste-via-badre429"
  },
  {
    "code": "09011",
    "country_id": 4,
    "country_code": "DZ",
    "state_id": 1111,
    "state_code": "09",
    "locality_name": "Chiffa",
    "latitude": 36.444398,
    "longitude": 2.669117,
    "type": "full",
    "source": "algerie-poste-via-badre429"
  },
  {
    "code": "09012",
    "country_id": 4,
    "country_code": "DZ",
    "state_id": 1111,
    "state_code": "09",
    "locality_name": "Hammam Melouane",
    "latitude": 36.436102,
    "longitude": 2.860469,
    "type": "full",
    "source": "algerie-poste-via-badre429"
  },
  {
    "code": "09013",
    "country_id": 4,
    "country_code": "DZ",
    "state_id": 1111,
    "state_code": "09",
    "locality_name": "Ben Khlil",
    "latitude": 36.595959,
    "longitude": 2.783873,
    "type": "full",
    "source": "algerie-poste-via-badre429"
  },
  {
    "code": "09014",
    "country_id": 4,
    "country_code": "DZ",
    "state_id": 1111,
    "state_code": "09",
    "locality_name": "Soumaa",
    "latitude": 36.507015,
    "longitude": 2.850928,
    "type": "full",
    "source": "algerie-poste-via-badre429"
  },
  {
    "code": "09016",
    "country_id": 4,
    "country_code": "DZ",
    "state_id": 1111,
    "state_code": "09",
    "locality_name": "Mouzaia",
    "latitude": 36.50497,
    "longitude": 2.613993,
    "type": "full",
    "source": "algerie-poste-via-badre429"
  },
  {
    "code": "09017",
    "country_id": 4,
    "country_code": "DZ",
    "state_id": 1111,
    "state_code": "09",
    "locality_name": "Souhane",
    "latitude": 36.526331,
    "longitude": 3.170583,
    "type": "full",
    "source": "algerie-poste-via-badre429"
  },
  {
    "code": "09018",
    "country_id": 4,
    "country_code": "DZ",
    "state_id": 1111,
    "state_code": "09",
    "locality_name": "Meftah",
    "latitude": 36.623827,
    "longitude": 3.171184,
    "type": "full",
    "source": "algerie-poste-via-badre429"
  },
  {
    "code": "09019",
    "country_id": 4,
    "country_code": "DZ",
    "state_id": 1111,
    "state_code": "09",
    "locality_name": "Ouled Selama",
    "latitude": 36.514057,
    "longitude": 3.07059,
    "type": "full",
    "source": "algerie-poste-via-badre429"
  },
  {
    "code": "09020",
    "country_id": 4,
    "country_code": "DZ",
    "state_id": 1111,
    "state_code": "09",
    "locality_name": "Boufarik",
    "latitude": 36.573958,
    "longitude": 2.847817,
    "type": "full",
    "source": "algerie-poste-via-badre429"
  },
  {
    "code": "09021",
    "country_id": 4,
    "country_code": "DZ",
    "state_id": 1111,
    "state_code": "09",
    "locality_name": "Larbaa",
    "latitude": 36.578708,
    "longitude": 3.103324,
    "type": "full",
    "source": "algerie-poste-via-badre429"
  },
  {
    "code": "09022",
    "country_id": 4,
    "country_code": "DZ",
    "state_id": 1111,
    "state_code": "09",
    "locality_name": "Oued Djer",
    "latitude": 36.422353,
    "longitude": 2.465791,
    "type": "full",
    "source": "algerie-poste-via-badre429"
  },
  {
    "code": "09023",
    "country_id": 4,
    "country_code": "DZ",
    "state_id": 1111,
    "state_code": "09",
    "locality_name": "Beni Tamou",
    "latitude": 36.540131,
    "longitude": 2.772953,
    "type": "full",
    "source": "algerie-poste-via-badre429"
  },
  {
    "code": "09024",
    "country_id": 4,
    "country_code": "DZ",
    "state_id": 1111,
    "state_code": "09",
    "locality_name": "Bouarfa",
    "latitude": 36.415169,
    "longitude": 2.728469,
    "type": "full",
    "source": "algerie-poste-via-badre429"
  },
  {
    "code": "09025",
    "country_id": 4,
    "country_code": "DZ",
    "state_id": 1111,
    "state_code": "09",
    "locality_name": "Beni Mered",
    "latitude": 36.532765,
    "longitude": 2.819859,
    "type": "full",
    "source": "algerie-poste-via-badre429"
  },
  {
    "code": "09026",
    "country_id": 4,
    "country_code": "DZ",
    "state_id": 1111,
    "state_code": "09",
    "locality_name": "Bougara",
    "latitude": 36.49366,
    "longitude": 2.973186,
    "type": "full",
    "source": "algerie-poste-via-badre429"
  },
  {
    "code": "09027",
    "country_id": 4,
    "country_code": "DZ",
    "state_id": 1111,
    "state_code": "09",
    "locality_name": "Guerrouaou",
    "latitude": 36.501993,
    "longitude": 2.81489,
    "type": "full",
    "source": "algerie-poste-via-badre429"
  },
  {
    "code": "09028",
    "country_id": 4,
    "country_code": "DZ",
    "state_id": 1111,
    "state_code": "09",
    "locality_name": "Ain Romana",
    "latitude": 36.387599,
    "longitude": 2.572214,
    "type": "full",
    "source": "algerie-poste-via-badre429"
  },
  {
    "code": "09029",
    "country_id": 4,
    "country_code": "DZ",
    "state_id": 1111,
    "state_code": "09",
    "locality_name": "Djebabra",
    "latitude": 36.580388,
    "longitude": 3.225259,
    "type": "full",
    "source": "algerie-poste-via-badre429"
  },
  {
    "code": "10001",
    "country_id": 4,
    "country_code": "DZ",
    "state_id": 1104,
    "state_code": "10",
    "locality_name": "Bouira",
    "latitude": 36.372807,
    "longitude": 3.835041,
    "type": "full",
    "source": "algerie-poste-via-badre429"
  },
  {
    "code": "10002",
    "country_id": 4,
    "country_code": "DZ",
    "state_id": 1104,
    "state_code": "10",
    "locality_name": "El Asnam",
    "latitude": 36.370981,
    "longitude": 3.894192,
    "type": "full",
    "source": "algerie-poste-via-badre429"
  },
  {
    "code": "10003",
    "country_id": 4,
    "country_code": "DZ",
    "state_id": 1104,
    "state_code": "10",
    "locality_name": "Guerrouma",
    "latitude": 36.467804,
    "longitude": 3.360355,
    "type": "full",
    "source": "algerie-poste-via-badre429"
  },
  {
    "code": "10004",
    "country_id": 4,
    "country_code": "DZ",
    "state_id": 1104,
    "state_code": "10",
    "locality_name": "Souk El Khemis",
    "latitude": 36.394166,
    "longitude": 3.555019,
    "type": "full",
    "source": "algerie-poste-via-badre429"
  },
  {
    "code": "10005",
    "country_id": 4,
    "country_code": "DZ",
    "state_id": 1104,
    "state_code": "10",
    "locality_name": "Kadiria",
    "latitude": 36.525316,
    "longitude": 3.596368,
    "type": "full",
    "source": "algerie-poste-via-badre429"
  },
  {
    "code": "10006",
    "country_id": 4,
    "country_code": "DZ",
    "state_id": 1104,
    "state_code": "10",
    "locality_name": "Hanif",
    "latitude": 36.263263,
    "longitude": 4.068793,
    "type": "full",
    "source": "algerie-poste-via-badre429"
  },
  {
    "code": "10007",
    "country_id": 4,
    "country_code": "DZ",
    "state_id": 1104,
    "state_code": "10",
    "locality_name": "Dirah",
    "latitude": 36.003898,
    "longitude": 3.583507,
    "type": "full",
    "source": "algerie-poste-via-badre429"
  },
  {
    "code": "10008",
    "country_id": 4,
    "country_code": "DZ",
    "state_id": 1104,
    "state_code": "10",
    "locality_name": "Ait Laaziz",
    "latitude": 36.445338,
    "longitude": 3.848476,
    "type": "full",
    "source": "algerie-poste-via-badre429"
  },
  {
    "code": "10009",
    "country_id": 4,
    "country_code": "DZ",
    "state_id": 1104,
    "state_code": "10",
    "locality_name": "Taghzout",
    "latitude": 36.416118,
    "longitude": 3.903641,
    "type": "full",
    "source": "algerie-poste-via-badre429"
  },
  {
    "code": "10010",
    "country_id": 4,
    "country_code": "DZ",
    "state_id": 1104,
    "state_code": "10",
    "locality_name": "Raouraoua",
    "latitude": 36.216813,
    "longitude": 3.549268,
    "type": "full",
    "source": "algerie-poste-via-badre429"
  },
  {
    "code": "10011",
    "country_id": 4,
    "country_code": "DZ",
    "state_id": 1104,
    "state_code": "10",
    "locality_name": "Mezdour",
    "latitude": 36.072282,
    "longitude": 3.923954,
    "type": "full",
    "source": "algerie-poste-via-badre429"
  },
  {
    "code": "10012",
    "country_id": 4,
    "country_code": "DZ",
    "state_id": 1104,
    "state_code": "10",
    "locality_name": "Haizer",
    "latitude": 36.406871,
    "longitude": 3.948724,
    "type": "full",
    "source": "algerie-poste-via-badre429"
  },
  {
    "code": "10013",
    "country_id": 4,
    "country_code": "DZ",
    "state_id": 1104,
    "state_code": "10",
    "locality_name": "Lakhdaria",
    "latitude": 36.561326,
    "longitude": 3.517382,
    "type": "full",
    "source": "algerie-poste-via-badre429"
  },
  {
    "code": "10014",
    "country_id": 4,
    "country_code": "DZ",
    "state_id": 1104,
    "state_code": "10",
    "locality_name": "Maala",
    "latitude": 36.494558,
    "longitude": 3.488028,
    "type": "full",
    "source": "algerie-poste-via-badre429"
  },
  {
    "code": "10015",
    "country_id": 4,
    "country_code": "DZ",
    "state_id": 1104,
    "state_code": "10",
    "locality_name": "El Hachimia",
    "latitude": 36.222738,
    "longitude": 3.719806,
    "type": "full",
    "source": "algerie-poste-via-badre429"
  },
  {
    "code": "10016",
    "country_id": 4,
    "country_code": "DZ",
    "state_id": 1104,
    "state_code": "10",
    "locality_name": "Aomar",
    "latitude": 36.502214,
    "longitude": 3.712218,
    "type": "full",
    "source": "algerie-poste-via-badre429"
  },
  {
    "code": "10017",
    "country_id": 4,
    "country_code": "DZ",
    "state_id": 1104,
    "state_code": "10",
    "locality_name": "Chorfa",
    "latitude": 36.378249,
    "longitude": 4.308224,
    "type": "full",
    "source": "algerie-poste-via-badre429"
  },
  {
    "code": "10018",
    "country_id": 4,
    "country_code": "DZ",
    "state_id": 1104,
    "state_code": "10",
    "locality_name": "Bordj Oukhriss",
    "latitude": 36.09281,
    "longitude": 3.8468,
    "type": "full",
    "source": "algerie-poste-via-badre429"
  },
  {
    "code": "10019",
    "country_id": 4,
    "country_code": "DZ",
    "state_id": 1104,
    "state_code": "10",
    "locality_name": "El Adjiba",
    "latitude": 36.372304,
    "longitude": 4.013948,
    "type": "full",
    "source": "algerie-poste-via-badre429"
  },
  {
    "code": "10020",
    "country_id": 4,
    "country_code": "DZ",
    "state_id": 1104,
    "state_code": "10",
    "locality_name": "El Hakimia",
    "latitude": 36.09072,
    "longitude": 3.72668,
    "type": "full",
    "source": "algerie-poste-via-badre429"
  },
  {
    "code": "10021",
    "country_id": 4,
    "country_code": "DZ",
    "state_id": 1104,
    "state_code": "10",
    "locality_name": "El Khebouzia",
    "latitude": 36.309127,
    "longitude": 3.559913,
    "type": "full",
    "source": "algerie-poste-via-badre429"
  },
  {
    "code": "10022",
    "country_id": 4,
    "country_code": "DZ",
    "state_id": 1104,
    "state_code": "10",
    "locality_name": "Ahl El Ksar",
    "latitude": 36.242602,
    "longitude": 3.960612,
    "type": "full",
    "source": "algerie-poste-via-badre429"
  },
  {
    "code": "10023",
    "country_id": 4,
    "country_code": "DZ",
    "state_id": 1104,
    "state_code": "10",
    "locality_name": "Bouderbala",
    "latitude": 36.566288,
    "longitude": 3.413741,
    "type": "full",
    "source": "algerie-poste-via-badre429"
  },
  {
    "code": "10024",
    "country_id": 4,
    "country_code": "DZ",
    "state_id": 1104,
    "state_code": "10",
    "locality_name": "Zbarbar",
    "latitude": 36.47329,
    "longitude": 3.445971,
    "type": "full",
    "source": "algerie-poste-via-badre429"
  },
  {
    "code": "10025",
    "country_id": 4,
    "country_code": "DZ",
    "state_id": 1104,
    "state_code": "10",
    "locality_name": "Ain El Hadjar",
    "latitude": 36.359825,
    "longitude": 3.716058,
    "type": "full",
    "source": "algerie-poste-via-badre429"
  },
  {
    "code": "10026",
    "country_id": 4,
    "country_code": "DZ",
    "state_id": 1104,
    "state_code": "10",
    "locality_name": "Djebahia",
    "latitude": 36.460332,
    "longitude": 3.652093,
    "type": "full",
    "source": "algerie-poste-via-badre429"
  },
  {
    "code": "10027",
    "country_id": 4,
    "country_code": "DZ",
    "state_id": 1104,
    "state_code": "10",
    "locality_name": "Aghbalou",
    "latitude": 36.425979,
    "longitude": 4.267928,
    "type": "full",
    "source": "algerie-poste-via-badre429"
  },
  {
    "code": "10028",
    "country_id": 4,
    "country_code": "DZ",
    "state_id": 1104,
    "state_code": "10",
    "locality_name": "Taguedit",
    "latitude": 35.953486,
    "longitude": 3.796968,
    "type": "full",
    "source": "algerie-poste-via-badre429"
  },
  {
    "code": "10029",
    "country_id": 4,
    "country_code": "DZ",
    "state_id": 1104,
    "state_code": "10",
    "locality_name": "Ain Turk",
    "latitude": 36.404914,
    "longitude": 3.744747,
    "type": "full",
    "source": "algerie-poste-via-badre429"
  },
  {
    "code": "10030",
    "country_id": 4,
    "country_code": "DZ",
    "state_id": 1104,
    "state_code": "10",
    "locality_name": "Saharidj",
    "latitude": 36.431053,
    "longitude": 4.182527,
    "type": "full",
    "source": "algerie-poste-via-badre429"
  },
  {
    "code": "10031",
    "country_id": 4,
    "country_code": "DZ",
    "state_id": 1104,
    "state_code": "10",
    "locality_name": "Dechmia",
    "latitude": 36.136644,
    "longitude": 3.503435,
    "type": "full",
    "source": "algerie-poste-via-badre429"
  },
  {
    "code": "10032",
    "country_id": 4,
    "country_code": "DZ",
    "state_id": 1104,
    "state_code": "10",
    "locality_name": "Ridane",
    "latitude": 36.070157,
    "longitude": 3.399751,
    "type": "full",
    "source": "algerie-poste-via-badre429"
  },
  {
    "code": "10033",
    "country_id": 4,
    "country_code": "DZ",
    "state_id": 1104,
    "state_code": "10",
    "locality_name": "Bechloul",
    "latitude": 36.374509,
    "longitude": 3.96073,
    "type": "full",
    "source": "algerie-poste-via-badre429"
  },
  {
    "code": "10034",
    "country_id": 4,
    "country_code": "DZ",
    "state_id": 1104,
    "state_code": "10",
    "locality_name": "Boukram",
    "latitude": 36.517878,
    "longitude": 3.298771,
    "type": "full",
    "source": "algerie-poste-via-badre429"
  },
  {
    "code": "10035",
    "country_id": 4,
    "country_code": "DZ",
    "state_id": 1104,
    "state_code": "10",
    "locality_name": "Ain Bessam",
    "latitude": 36.336446,
    "longitude": 3.556255,
    "type": "full",
    "source": "algerie-poste-via-badre429"
  },
  {
    "code": "10036",
    "country_id": 4,
    "country_code": "DZ",
    "state_id": 1104,
    "state_code": "10",
    "locality_name": "Bir Ghbalou",
    "latitude": 36.268461,
    "longitude": 3.507383,
    "type": "full",
    "source": "algerie-poste-via-badre429"
  },
  {
    "code": "10037",
    "country_id": 4,
    "country_code": "DZ",
    "state_id": 1104,
    "state_code": "10",
    "locality_name": "Mchedallah",
    "latitude": 36.363306,
    "longitude": 4.187183,
    "type": "full",
    "source": "algerie-poste-via-badre429"
  },
  {
    "code": "10038",
    "country_id": 4,
    "country_code": "DZ",
    "state_id": 1104,
    "state_code": "10",
    "locality_name": "Sour El Ghozlane",
    "latitude": 36.169476,
    "longitude": 3.55647,
    "type": "full",
    "source": "algerie-poste-via-badre429"
  },
  {
    "code": "10039",
    "country_id": 4,
    "country_code": "DZ",
    "state_id": 1104,
    "state_code": "10",
    "locality_name": "Maamora",
    "latitude": 35.99794,
    "longitude": 3.525493,
    "type": "full",
    "source": "algerie-poste-via-badre429"
  },
  {
    "code": "10040",
    "country_id": 4,
    "country_code": "DZ",
    "state_id": 1104,
    "state_code": "10",
    "locality_name": "Ouled Rached",
    "latitude": 36.202043,
    "longitude": 3.932151,
    "type": "full",
    "source": "algerie-poste-via-badre429"
  },
  {
    "code": "10041",
    "country_id": 4,
    "country_code": "DZ",
    "state_id": 1104,
    "state_code": "10",
    "locality_name": "Ain Laloui",
    "latitude": 36.306741,
    "longitude": 3.686083,
    "type": "full",
    "source": "algerie-poste-via-badre429"
  },
  {
    "code": "10042",
    "country_id": 4,
    "country_code": "DZ",
    "state_id": 1104,
    "state_code": "10",
    "locality_name": "Hadjera Zerga",
    "latitude": 35.946535,
    "longitude": 3.690623,
    "type": "full",
    "source": "algerie-poste-via-badre429"
  },
  {
    "code": "10043",
    "country_id": 4,
    "country_code": "DZ",
    "state_id": 1104,
    "state_code": "10",
    "locality_name": "Ath Mansour",
    "latitude": 36.299177,
    "longitude": 4.248445,
    "type": "full",
    "source": "algerie-poste-via-badre429"
  },
  {
    "code": "10044",
    "country_id": 4,
    "country_code": "DZ",
    "state_id": 1104,
    "state_code": "10",
    "locality_name": "El Mokrani",
    "latitude": 36.424977,
    "longitude": 3.534162,
    "type": "full",
    "source": "algerie-poste-via-badre429"
  },
  {
    "code": "10045",
    "country_id": 4,
    "country_code": "DZ",
    "state_id": 1104,
    "state_code": "10",
    "locality_name": "Oued El Berdi",
    "latitude": 36.257285,
    "longitude": 3.854697,
    "type": "full",
    "source": "algerie-poste-via-badre429"
  },
  {
    "code": "11001",
    "country_id": 4,
    "country_code": "DZ",
    "state_id": 1135,
    "state_code": "11",
    "locality_name": "Tamanghasset",
    "latitude": 22.270773,
    "longitude": 4.554057,
    "type": "full",
    "source": "algerie-poste-via-badre429"
  },
  {
    "code": "11002",
    "country_id": 4,
    "country_code": "DZ",
    "state_id": 1135,
    "state_code": "11",
    "locality_name": "Abalessa",
    "latitude": 21.984742,
    "longitude": 2.207787,
    "type": "full",
    "source": "algerie-poste-via-badre429"
  },
  {
    "code": "11003",
    "country_id": 4,
    "country_code": "DZ",
    "state_id": 1135,
    "state_code": "11",
    "locality_name": "In Ghar",
    "latitude": 27.103791,
    "longitude": 1.890464,
    "type": "full",
    "source": "algerie-poste-via-badre429"
  },
  {
    "code": "11004",
    "country_id": 4,
    "country_code": "DZ",
    "state_id": 1135,
    "state_code": "11",
    "locality_name": "In Guezzam",
    "latitude": 20.387549,
    "longitude": 4.789219,
    "type": "full",
    "source": "algerie-poste-via-badre429"
  },
  {
    "code": "11005",
    "country_id": 4,
    "country_code": "DZ",
    "state_id": 1135,
    "state_code": "11",
    "locality_name": "Idles",
    "latitude": 23.817483,
    "longitude": 5.925042,
    "type": "full",
    "source": "algerie-poste-via-badre429"
  },
  {
    "code": "11006",
    "country_id": 4,
    "country_code": "DZ",
    "state_id": 1135,
    "state_code": "11",
    "locality_name": "Tazouk",
    "latitude": 23.424127,
    "longitude": 6.24252,
    "type": "full",
    "source": "algerie-poste-via-badre429"
  },
  {
    "code": "11007",
    "country_id": 4,
    "country_code": "DZ",
    "state_id": 1135,
    "state_code": "11",
    "locality_name": "Tinzaouatine",
    "latitude": 20.428142,
    "longitude": 2.090702,
    "type": "full",
    "source": "algerie-poste-via-badre429"
  },
  {
    "code": "11008",
    "country_id": 4,
    "country_code": "DZ",
    "state_id": 1135,
    "state_code": "11",
    "locality_name": "In Salah",
    "latitude": 27.195536,
    "longitude": 2.466622,
    "type": "full",
    "source": "algerie-poste-via-badre429"
  },
  {
    "code": "11009",
    "country_id": 4,
    "country_code": "DZ",
    "state_id": 1135,
    "state_code": "11",
    "locality_name": "In Amguel",
    "latitude": 24.909856,
    "longitude": 1.218958,
    "type": "full",
    "source": "algerie-poste-via-badre429"
  },
  {
    "code": "11010",
    "country_id": 4,
    "country_code": "DZ",
    "state_id": 1135,
    "state_code": "11",
    "locality_name": "Foggaret Ezzaouia",
    "latitude": 27.360414,
    "longitude": 2.838464,
    "type": "full",
    "source": "algerie-poste-via-badre429"
  },
  {
    "code": "12001",
    "country_id": 4,
    "country_code": "DZ",
    "state_id": 1117,
    "state_code": "12",
    "locality_name": "Tebessa",
    "latitude": 35.411721,
    "longitude": 8.075525,
    "type": "full",
    "source": "algerie-poste-via-badre429"
  },
  {
    "code": "12002",
    "country_id": 4,
    "country_code": "DZ",
    "state_id": 1117,
    "state_code": "12",
    "locality_name": "Bir El Ater",
    "latitude": 34.754613,
    "longitude": 8.023431,
    "type": "full",
    "source": "algerie-poste-via-badre429"
  },