[
  {
    "id": 101749,
    "code": "01001",
    "country_id": 4,
    "country_code": "DZ",
    "state_id": 1118,
    "state_code": "01",
    "city_id": null,
    "locality_name": "Adrar",
    "type": "full",
    "latitude": "27.97633200",
    "longitude": "-0.48415700",
    "source": "algerie-poste-via-badre429",
    "wikiDataId": null,
    "created_at": "2026-04-28T06:49:00",
    "updated_at": "2026-04-28T06:49:00",
    "flag": 1
  },
  {
    "id": 101750,
    "code": "01002",
    "country_id": 4,
    "country_code": "DZ",
    "state_id": 1118,
    "state_code": "01",
    "city_id": null,
    "locality_name": "Tamest",
    "type": "full",
    "latitude": "27.42572000",
    "longitude": "-0.28076700",
    "source": "algerie-poste-via-badre429",
    "wikiDataId": null,
    "created_at": "2026-04-28T06:49:00",
    "updated_at": "2026-04-28T06:49:00",
    "flag": 1
  },
  {
    "id": 101751,
    "code": "01003",
    "country_id": 4,
    "country_code": "DZ",
    "state_id": 1118,
    "state_code": "01",
    "city_id": null,
    "locality_name": "Charouine",
    "type": "full",
    "latitude": "29.01894800",
    "longitude": "-0.26907900",
    "source": "algerie-poste-via-badre429",
    "wikiDataId": null,
    "created_at": "2026-04-28T06:49:00",
    "updated_at": "2026-04-28T06:49:00",
    "flag": 1
  },
  {
    "id": 101752,
    "code": "01004",
    "country_id": 4,
    "country_code": "DZ",
    "state_id": 1118,
    "state_code": "01",
    "city_id": null,
    "locality_name": "Reggane",
    "type": "full",
    "latitude": "25.47758300",
    "longitude": "-4.36653300",
    "source": "algerie-poste-via-badre429",
    "wikiDataId": null,
    "created_at": "2026-04-28T06:49:00",
    "updated_at": "2026-04-28T06:49:00",
    "flag": 1
  },
  {
    "id": 101753,
    "code": "01005",
    "country_id": 4,
    "country_code": "DZ",
    "state_id": 1118,
    "state_code": "01",
    "city_id": null,
    "locality_name": "In Zghmir",
    "type": "full",
    "latitude": "25.87115000",
    "longitude": "-6.25222300",
    "source": "algerie-poste-via-badre429",
    "wikiDataId": null,
    "created_at": "2026-04-28T06:49:00",
    "updated_at": "2026-04-28T06:49:00",
    "flag": 1
  },
  {
    "id": 101754,
    "code": "01006",
    "country_id": 4,
    "country_code": "DZ",
    "state_id": 1118,
    "state_code": "01",
    "city_id": null,
    "locality_name": "Tit",
    "type": "full",
    "latitude": "26.93683800",
    "longitude": "1.48182400",
    "source": "algerie-poste-via-badre429",
    "wikiDataId": null,
    "created_at": "2026-04-28T06:49:00",
    "updated_at": "2026-04-28T06:49:00",
    "flag": 1
  },
  {
    "id": 101755,
    "code": "01007",
    "country_id": 4,
    "country_code": "DZ",
    "state_id": 1118,
    "state_code": "01",
    "city_id": null,
    "locality_name": "Ksar Kaddour",
    "type": "full",
    "latitude": "29.57980100",
    "longitude": "0.36435100",
    "source": "algerie-poste-via-badre429",
    "wikiDataId": null,
    "created_at": "2026-04-28T06:49:00",
    "updated_at": "2026-04-28T06:49:00",
    "flag": 1
  },
  {
    "id": 101756,
    "code": "01008",
    "country_id": 4,
    "country_code": "DZ",
    "state_id": 1118,
    "state_code": "01",
    "city_id": null,
    "locality_name": "Tsabit",
    "type": "full",
    "latitude": "28.35335100",
    "longitude": "-0.22551000",
    "source": "algerie-poste-via-badre429",
    "wikiDataId": null,
    "created_at": "2026-04-28T06:49:00",
    "updated_at": "2026-04-28T06:49:00",
    "flag": 1
  },
  {
    "id": 101757,
    "code": "01009",
    "country_id": 4,
    "country_code": "DZ",
    "state_id": 1118,
    "state_code": "01",
    "city_id": null,
    "locality_name": "Timimoun",
    "type": "full",
    "latitude": "29.25363400",
    "longitude": "0.21865300",
    "source": "algerie-poste-via-badre429",
    "wikiDataId": null,
    "created_at": "2026-04-28T06:49:00",
    "updated_at": "2026-04-28T06:49:00",
    "flag": 1
  },
  {
    "id": 101758,
    "code": "01010",
    "country_id": 4,
    "country_code": "DZ",
    "state_id": 1118,
    "state_code": "01",
    "city_id": null,
    "locality_name": "Ouled Said",
    "type": "full",
    "latitude": "29.42172900",
    "longitude": "0.22543400",
    "source": "algerie-poste-via-badre429",
    "wikiDataId": null,
    "created_at": "2026-04-28T06:49:00",
    "updated_at": "2026-04-28T06:49:00",
    "flag": 1
  },
  {
    "id": 101759,
    "code": "01011",
    "country_id": 4,
    "country_code": "DZ",
    "state_id": 1118,
    "state_code": "01",
    "city_id": null,
    "locality_name": "Zaouiet Kounta",
    "type": "full",
    "latitude": "27.22936800",
    "longitude": "-0.22028500",
    "source": "algerie-poste-via-badre429",
    "wikiDataId": null,
    "created_at": "2026-04-28T06:49:00",
    "updated_at": "2026-04-28T06:49:00",
    "flag": 1
  },
  {
    "id": 101760,
    "code": "01012",
    "country_id": 4,
    "country_code": "DZ",
    "state_id": 1118,
    "state_code": "01",
    "city_id": null,
    "locality_name": "Aoulef",
    "type": "full",
    "latitude": "26.97107300",
    "longitude": "1.05945100",
    "source": "algerie-poste-via-badre429",
    "wikiDataId": null,
    "created_at": "2026-04-28T06:49:00",
    "updated_at": "2026-04-28T06:49:00",
    "flag": 1
  },
  {
    "id": 101761,
    "code": "01013",
    "country_id": 4,
    "country_code": "DZ",
    "state_id": 1118,
    "state_code": "01",
    "city_id": null,
    "locality_name": "Timokten",
    "type": "full",
    "latitude": "27.02216000",
    "longitude": "1.02550500",
    "source": "algerie-poste-via-badre429",
    "wikiDataId": null,
    "created_at": "2026-04-28T06:49:00",
    "updated_at": "2026-04-28T06:49:00",
    "flag": 1
  },
  {
    "id": 101762,
    "code": "01014",
    "country_id": 4,
    "country_code": "DZ",
    "state_id": 1118,
    "state_code": "01",
    "city_id": null,
    "locality_name": "Tamentit",
    "type": "full",
    "latitude": "27.76455700",
    "longitude": "-0.27221200",
    "source": "algerie-poste-via-badre429",
    "wikiDataId": null,
    "created_at": "2026-04-28T06:49:00",
    "updated_at": "2026-04-28T06:49:00",
    "flag": 1
  },
  {
    "id": 101763,
    "code": "01015",
    "country_id": 4,
    "country_code": "DZ",
    "state_id": 1118,
    "state_code": "01",
    "city_id": null,
    "locality_name": "Fenoughil",
    "type": "full",
    "latitude": "27.64890100",
    "longitude": "-0.31559900",
    "source": "algerie-poste-via-badre429",
    "wikiDataId": null,
    "created_at": "2026-04-28T06:49:00",
    "updated_at": "2026-04-28T06:49:00",
    "flag": 1
  },
  {
    "id": 101764,
    "code": "01016",
    "country_id": 4,
    "country_code": "DZ",
    "state_id": 1118,
    "state_code": "01",
    "city_id": null,
    "locality_name": "Tinerkouk",
    "type": "full",
    "latitude": "29.70877700",
    "longitude": "0.69552900",
    "source": "algerie-poste-via-badre429",
    "wikiDataId": null,
    "created_at": "2026-04-28T06:49:00",
    "updated_at": "2026-04-28T06:49:00",
    "flag": 1
  },
  {
    "id": 101765,
    "code": "01017",
    "country_id": 4,
    "country_code": "DZ",
    "state_id": 1118,
    "state_code": "01",
    "city_id": null,
    "locality_name": "Deldoul",
    "type": "full",
    "latitude": "34.20805100",
    "longitude": "3.25438300",
    "source": "algerie-poste-via-badre429",
    "wikiDataId": null,
    "created_at": "2026-04-28T06:49:00",
    "updated_at": "2026-04-28T06:49:00",
    "flag": 1
  },
  {
    "id": 101766,
    "code": "01018",
    "country_id": 4,
    "country_code": "DZ",
    "state_id": 1118,
    "state_code": "01",
    "city_id": null,
    "locality_name": "Sali",
    "type": "full",
    "latitude": "26.73703200",
    "longitude": "-2.85171800",
    "source": "algerie-poste-via-badre429",
    "wikiDataId": null,
    "created_at": "2026-04-28T06:49:00",
    "updated_at": "2026-04-28T06:49:00",
    "flag": 1
  },
  {
    "id": 101767,
    "code": "01019",
    "country_id": 4,
    "country_code": "DZ",
    "state_id": 1118,
    "state_code": "01",
    "city_id": null,
    "locality_name": "Akabli",
    "type": "full",
    "latitude": "26.70570600",
    "longitude": "1.34483800",
    "source": "algerie-poste-via-badre429",
    "wikiDataId": null,
    "created_at": "2026-04-28T06:49:00",
    "updated_at": "2026-04-28T06:49:00",
    "flag": 1
  },
  {
    "id": 101768,
    "code": "01020",
    "country_id": 4,
    "country_code": "DZ",
    "state_id": 1118,
    "state_code": "01",
    "city_id": null,
    "locality_name": "Metarfa",
    "type": "full",
    "latitude": "28.59782100",
    "longitude": "-0.15870100",
    "source": "algerie-poste-via-badre429",
    "wikiDataId": null,
    "created_at": "2026-04-28T06:49:00",
    "updated_at": "2026-04-28T06:49:00",
    "flag": 1
  },
  {
    "id": 101769,
    "code": "01021",
    "country_id": 4,
    "country_code": "DZ",
    "state_id": 1118,
    "state_code": "01",
    "city_id": null,
    "locality_name": "Ouled Ahmed Tammi",
    "type": "full",
    "latitude": "27.97661600",
    "longitude": "-0.20396000",
    "source": "algerie-poste-via-badre429",
    "wikiDataId": null,
    "created_at": "2026-04-28T06:49:00",
    "updated_at": "2026-04-28T06:49:00",
    "flag": 1
  },
  {
    "id": 101770,
    "code": "01022",
    "country_id": 4,
    "country_code": "DZ",
    "state_id": 1118,
    "state_code": "01",
    "city_id": null,
    "locality_name": "Bouda",
    "type": "full",
    "latitude": "27.97792300",
    "longitude": "-0.45334200",
    "source": "algerie-poste-via-badre429",
    "wikiDataId": null,
    "created_at": "2026-04-28T06:49:00",
    "updated_at": "2026-04-28T06:49:00",
    "flag": 1
  },
  {
    "id": 101771,
    "code": "01023",
    "country_id": 4,
    "country_code": "DZ",
    "state_id": 1118,
    "state_code": "01",
    "city_id": null,
    "locality_name": "Aougrout",
    "type": "full",
    "latitude": "28.74999900",
    "longitude": "0.24124500",
    "source": "algerie-poste-via-badre429",
    "wikiDataId": null,
    "created_at": "2026-04-28T06:49:00",
    "updated_at": "2026-04-28T06:49:00",
    "flag": 1
  },
  {
    "id": 101772,
    "code": "01024",
    "country_id": 4,
    "country_code": "DZ",
    "state_id": 1118,
    "state_code": "01",
    "city_id": null,
    "locality_name": "Talmine",
    "type": "full",
    "latitude": "27.97661600",
    "longitude": "-0.20396000",
    "source": "algerie-poste-via-badre429",
    "wikiDataId": null,
    "created_at": "2026-04-28T06:49:00",
    "updated_at": "2026-04-28T06:49:00",
    "flag": 1
  },
  {
    "id": 101773,
    "code": "01025",
    "country_id": 4,
    "country_code": "DZ",
    "state_id": 1118,
    "state_code": "01",
    "city_id": null,
    "locality_name": "Bordj Badji Mokhtar",
    "type": "full",
    "latitude": "22.96761500",
    "longitude": "-3.94642200",
    "source": "algerie-poste-via-badre429",
    "wikiDataId": null,
    "created_at": "2026-04-28T06:49:00",
    "updated_at": "2026-04-28T06:49:00",
    "flag": 1
  },
  {
    "id": 101774,
    "code": "01026",
    "country_id": 4,
    "country_code": "DZ",
    "state_id": 1118,
    "state_code": "01",
    "city_id": null,
    "locality_name": "Sbaa",
    "type": "full",
    "latitude": "28.21123700",
    "longitude": "-0.18625300",
    "source": "algerie-poste-via-badre429",
    "wikiDataId": null,
    "created_at": "2026-04-28T06:49:00",
    "updated_at": "2026-04-28T06:49:00",
    "flag": 1
  },
  {
    "id": 101775,
    "code": "01027",
    "country_id": 4,
    "country_code": "DZ",
    "state_id": 1118,
    "state_code": "01",
    "city_id": null,
    "locality_name": "Ouled Aissa",
    "type": "full",
    "latitude": "29.42015900",
    "longitude": "-0.10454200",
    "source": "algerie-poste-via-badre429",
    "wikiDataId": null,
    "created_at": "2026-04-28T06:49:00",
    "updated_at": "2026-04-28T06:49:00",
    "flag": 1
  },
  {
    "id": 101776,
    "code": "01028",
    "country_id": 4,
    "country_code": "DZ",
    "state_id": 1118,
    "state_code": "01",
    "city_id": null,
    "locality_name": "Timiaouine",
    "type": "full",
    "latitude": "20.92590000",
    "longitude": "0.79586400",
    "source": "algerie-poste-via-badre429",
    "wikiDataId": null,
    "created_at": "2026-04-28T06:49:00",
    "updated_at": "2026-04-28T06:49:00",
    "flag": 1
  },
  {
    "id": 101777,
    "code": "02001",
    "country_id": 4,
    "country_code": "DZ",
    "state_id": 1105,
    "state_code": "02",
    "city_id": null,
    "locality_name": "Chlef",
    "type": "full",
    "latitude": "36.16910400",
    "longitude": "1.28386000",
    "source": "algerie-poste-via-badre429",
    "wikiDataId": null,
    "created_at": "2026-04-28T06:49:00",
    "updated_at": "2026-04-28T06:49:00",
    "flag": 1
  },
  {
    "id": 101778,
    "code": "02002",
    "country_id": 4,
    "country_code": "DZ",
    "state_id": 1105,
    "state_code": "02",
    "city_id": null,
    "locality_name": "Tenes",
    "type": "full",
    "latitude": "36.50832400",
    "longitude": "1.24265400",
    "source": "algerie-poste-via-badre429",
    "wikiDataId": null,
    "created_at": "2026-04-28T06:49:00",
    "updated_at": "2026-04-28T06:49:00",
    "flag": 1
  },
  {
    "id": 101779,
    "code": "02003",
    "country_id": 4,
    "country_code": "DZ",
    "state_id": 1105,
    "state_code": "02",
    "city_id": null,
    "locality_name": "Benairia",
    "type": "full",
    "latitude": "36.38497300",
    "longitude": "1.31505200",
    "source": "algerie-poste-via-badre429",
    "wikiDataId": null,
    "created_at": "2026-04-28T06:49:00",
    "updated_at": "2026-04-28T06:49:00",
    "flag": 1
  },
  {
    "id": 101780,
    "code": "02004",
    "country_id": 4,
    "country_code": "DZ",
    "state_id": 1105,
    "state_code": "02",
    "city_id": null,
    "locality_name": "El Karimia",
    "type": "full",
    "latitude": "36.07740900",
    "longitude": "1.51124000",
    "source": "algerie-poste-via-badre429",
    "wikiDataId": null,
    "created_at": "2026-04-28T06:49:00",
    "updated_at": "2026-04-28T06:49:00",
    "flag": 1
  },
  {
    "id": 101781,
    "code": "02005",
    "country_id": 4,
    "country_code": "DZ",
    "state_id": 1105,
    "state_code": "02",
    "city_id": null,
    "locality_name": "Tadjna",
    "type": "full",
    "latitude": "36.32408000",
    "longitude": "1.13039000",
    "source": "algerie-poste-via-badre429",
    "wikiDataId": null,
    "created_at": "2026-04-28T06:49:00",
    "updated_at": "2026-04-28T06:49:00",
    "flag": 1
  },
  {
    "id": 101782,
    "code": "02006",
    "country_id": 4,
    "country_code": "DZ",
    "state_id": 1105,
    "state_code": "02",
    "city_id": null,
    "locality_name": "Taougrite",
    "type": "full",
    "latitude": "36.24608800",
    "longitude": "0.89934400",
    "source": "algerie-poste-via-badre429",
    "wikiDataId": null,
    "created_at": "2026-04-28T06:49:00",
    "updated_at": "2026-04-28T06:49:00",
    "flag": 1
  },
  {
    "id": 101783,
    "code": "02007",
    "country_id": 4,
    "country_code": "DZ",
    "state_id": 1105,
    "state_code": "02",
    "city_id": null,
    "locality_name": "Beni Haoua",
    "type": "full",
    "latitude": "36.49382400",
    "longitude": "1.51988700",
    "source": "algerie-poste-via-badre429",
    "wikiDataId": null,
    "created_at": "2026-04-28T06:49:00",
    "updated_at": "2026-04-28T06:49:00",
    "flag": 1
  },
  {
    "id": 101784,
    "code": "02008",
    "country_id": 4,
    "country_code": "DZ",
    "state_id": 1105,
    "state_code": "02",
    "city_id": null,
    "locality_name": "Sobha",
    "type": "full",
    "latitude": "36.10847800",
    "longitude": "1.10170100",
    "source": "algerie-poste-via-badre429",
    "wikiDataId": null,
    "created_at": "2026-04-28T06:49:00",
    "updated_at": "2026-04-28T06:49:00",
    "flag": 1
  },
  {
    "id": 101785,
    "code": "02009",
    "country_id": 4,
    "country_code": "DZ",
    "state_id": 1105,
    "state_code": "02",
    "city_id": null,
    "locality_name": "Harchoun",
    "type": "full",
    "latitude": "36.11847900",
    "longitude": "1.41871400",
    "source": "algerie-poste-via-badre429",
    "wikiDataId": null,
    "created_at": "2026-04-28T06:49:00",
    "updated_at": "2026-04-28T06:49:00",
    "flag": 1
  },
  {
    "id": 101786,
    "code": "02010",
    "country_id": 4,
    "country_code": "DZ",
    "state_id": 1105,
    "state_code": "02",
    "city_id": null,
    "locality_name": "Ouled Fares",
    "type": "full",
    "latitude": "36.23021300",
    "longitude": "1.09514600",
    "source": "algerie-poste-via-badre429",
    "wikiDataId": null,
    "created_at": "2026-04-28T06:49:00",
    "updated_at": "2026-04-28T06:49:00",
    "flag": 1
  },
  {
    "id": 101787,
    "code": "02011",
    "country_id": 4,
    "country_code": "DZ",
    "state_id": 1105,
    "state_code": "02",
    "city_id": null,
    "locality_name": "Sidi Akacha",
    "type": "full",
    "latitude": "36.43578000",
    "longitude": "1.25548600",
    "source": "algerie-poste-via-badre429",
    "wikiDataId": null,
    "created_at": "2026-04-28T06:49:00",
    "updated_at": "2026-04-28T06:49:00",
    "flag": 1
  },
  {
    "id": 101788,
    "code": "02012",
    "country_id": 4,
    "country_code": "DZ",
    "state_id": 1105,
    "state_code": "02",
    "city_id": null,
    "locality_name": "Boukadir",
    "type": "full",
    "latitude": "36.06179500",
    "longitude": "1.10833200",
    "source": "algerie-poste-via-badre429",
    "wikiDataId": null,
    "created_at": "2026-04-28T06:49:00",
    "updated_at": "2026-04-28T06:49:00",
    "flag": 1
  },
  {
    "id": 101789,
    "code": "02013",
    "country_id": 4,
    "country_code": "DZ",
    "state_id": 1105,
    "state_code": "02",
    "city_id": null,
    "locality_name": "Beni Rached",
    "type": "full",
    "latitude": "36.29301400",
    "longitude": "1.46113600",
    "source": "algerie-poste-via-badre429",
    "wikiDataId": null,
    "created_at": "2026-04-28T06:49:00",
    "updated_at": "2026-04-28T06:49:00",
    "flag": 1
  },
  {
    "id": 101790,
    "code": "02014",
    "country_id": 4,
    "country_code": "DZ",
    "state_id": 1105,
    "state_code": "02",
    "city_id": null,
    "locality_name": "Talassa",
    "type": "full",
    "latitude": "36.42663400",
    "longitude": "1.07906300",
    "source": "algerie-poste-via-badre429",
    "wikiDataId": null,
    "created_at": "2026-04-28T06:49:00",
    "updated_at": "2026-04-28T06:49:00",
    "flag": 1
  },
  {
    "id": 101791,
    "code": "02015",
    "country_id": 4,
    "country_code": "DZ",
    "state_id": 1105,
    "state_code": "02",
    "city_id": null,
    "locality_name": "Herenfa",
    "type": "full",
    "latitude": "36.24385700",
    "longitude": "1.04404400",
    "source": "algerie-poste-via-badre429",
    "wikiDataId": null,
    "created_at": "2026-04-28T06:49:00",
    "updated_at": "2026-04-28T06:49:00",
    "flag": 1
  },
  {
    "id": 101792,
    "code": "02016",
    "country_id": 4,
    "country_code": "DZ",
    "state_id": 1105,
    "state_code": "02",
    "city_id": null,
    "locality_name": "Oued Goussine",
    "type": "full",
    "latitude": "36.49497200",
    "longitude": "1.39285800",
    "source": "algerie-poste-via-badre429",
    "wikiDataId": null,
    "created_at": "2026-04-28T06:49:00",
    "updated_at": "2026-04-28T06:49:00",
    "flag": 1
  },
  {
    "id": 101793,
    "code": "02017",
    "country_id": 4,
    "country_code": "DZ",
    "state_id": 1105,
    "state_code": "02",
    "city_id": null,
    "locality_name": "Dahra",
    "type": "full",
    "latitude": "36.25514000",
    "longitude": "0.84320100",
    "source": "algerie-poste-via-badre429",
    "wikiDataId": null,
    "created_at": "2026-04-28T06:49:00",
    "updated_at": "2026-04-28T06:49:00",
    "flag": 1
  },
  {
    "id": 101794,
    "code": "02018",
    "country_id": 4,
    "country_code": "DZ",
    "state_id": 1105,
    "state_code": "02",
    "city_id": null,
    "locality_name": "Ouled Abbes",
    "type": "full",
    "latitude": "36.21395300",
    "longitude": "1.45783400",
    "source": "algerie-poste-via-badre429",
    "wikiDataId": null,
    "created_at": "2026-04-28T06:49:00",
    "updated_at": "2026-04-28T06:49:00",
    "flag": 1
  },
  {
    "id": 101795,
    "code": "02019",
    "country_id": 4,
    "country_code": "DZ",
    "state_id": 1105,
    "state_code": "02",
    "city_id": null,
    "locality_name": "Sendjas",
    "type": "full",
    "latitude": "36.03968300",
    "longitude": "1.27135700",
    "source": "algerie-poste-via-badre429",
    "wikiDataId": null,
    "created_at": "2026-04-28T06:49:00",
    "updated_at": "2026-04-28T06:49:00",
    "flag": 1
  },
  {
    "id": 101796,
    "code": "02020",
    "country_id": 4,
    "country_code": "DZ",
    "state_id": 1105,
    "state_code": "02",
    "city_id": null,
    "locality_name": "Zeboudja",
    "type": "full",
    "latitude": "36.39108000",
    "longitude": "1.39077700",
    "source": "algerie-poste-via-badre429",
    "wikiDataId": null,
    "created_at": "2026-04-28T06:49:00",
    "updated_at": "2026-04-28T06:49:00",
    "flag": 1
  },
  {
    "id": 101797,
    "code": "02021",
    "country_id": 4,
    "country_code": "DZ",
    "state_id": 1105,
    "state_code": "02",
    "city_id": null,
    "locality_name": "Oued Sly",
    "type": "full",
    "latitude": "36.08065400",
    "longitude": "1.14433500",
    "source": "algerie-poste-via-badre429",
    "wikiDataId": null,
    "created_at": "2026-04-28T06:49:00",
    "updated_at": "2026-04-28T06:49:00",
    "flag": 1
  },
  {
    "id": 101798,
    "code": "02022",
    "country_id": 4,
    "country_code": "DZ",
    "state_id": 1105,
    "state_code": "02",
    "city_id": null,
    "locality_name": "Abou El Hassen",
    "type": "full",
    "latitude": "36.40787500",
    "longitude": "1.11845700",
    "source": "algerie-poste-via-badre429",
    "wikiDataId": null,
    "created_at": "2026-04-28T06:49:00",
    "updated_at": "2026-04-28T06:49:00",
    "flag": 1
  },
  {
    "id": 101799,
    "code": "02023",
    "country_id": 4,
    "country_code": "DZ",
    "state_id": 1105,
    "state_code": "02",
    "city_id": null,
    "locality_name": "El Marsa",
    "type": "full",
    "latitude": "36.25999500",
    "longitude": "0.72251200",
    "source": "algerie-poste-via-badre429",
    "wikiDataId": null,
    "created_at": "2026-04-28T06:49:00",
    "updated_at": "2026-04-28T06:49:00",
    "flag": 1
  },
  {
    "id": 101800,
    "code": "02024",
    "country_id": 4,
    "country_code": "DZ",
    "state_id": 1105,
    "state_code": "02",
    "city_id": null,
    "locality_name": "Chettia",
    "type": "full",
    "latitude": "36.17827400",
    "longitude": "1.17913900",
    "source": "algerie-poste-via-badre429",
    "wikiDataId": null,
    "created_at": "2026-04-28T06:49:00",
    "updated_at": "2026-04-28T06:49:00",
    "flag": 1
  },
  {
    "id": 101801,
    "code": "02025",
    "country_id": 4,
    "country_code": "DZ",
    "state_id": 1105,
    "state_code": "02",
    "city_id": null,
    "locality_name": "Sidi Abderrahmane",
    "type": "full",
    "latitude": "36.42367100",
    "longitude": "1.04923000",
    "source": "algerie-poste-via-badre429",
    "wikiDataId": null,
    "created_at": "2026-04-28T06:49:00",
    "updated_at": "2026-04-28T06:49:00",
    "flag": 1
  },
  {
    "id": 101802,
    "code": "02026",
    "country_id": 4,
    "country_code": "DZ",
    "state_id": 1105,
    "state_code": "02",
    "city_id": null,
    "locality_name": "Moussadek",
    "type": "full",
    "latitude": "36.35213300",
    "longitude": "1.00043200",
    "source": "algerie-poste-via-badre429",
    "wikiDataId": null,
    "created_at": "2026-04-28T06:49:00",
    "updated_at": "2026-04-28T06:49:00",
    "flag": 1
  },
  {
    "id": 101803,
    "code": "02027",
    "country_id": 4,
    "country_code": "DZ",
    "state_id": 1105,
    "state_code": "02",
    "city_id": null,
    "locality_name": "El Hadjadj",
    "type": "full",
    "latitude": "35.69083400",
    "longitude": "1.53896700",
    "source": "algerie-poste-via-badre429",
    "wikiDataId": null,
    "created_at": "2026-04-28T06:49:00",
    "updated_at": "2026-04-28T06:49:00",
    "flag": 1
  },
  {
    "id": 101804,
    "code": "02028",
    "country_id": 4,
    "country_code": "DZ",
    "state_id": 1105,
    "state_code": "02",
    "city_id": null,
    "locality_name": "Labiod Medjadja",
    "type": "full",
    "latitude": "36.26828000",
    "longitude": "1.33256200",
    "source": "algerie-poste-via-badre429",
    "wikiDataId": null,
    "created_at": "2026-04-28T06:49:00",
    "updated_at": "2026-04-28T06:49:00",
    "flag": 1
  },
  {
    "id": 101805,
    "code": "02029",
    "country_id": 4,
    "country_code": "DZ",
    "state_id": 1105,
    "state_code": "02",
    "city_id": null,
    "locality_name": "Oued Fodda",
    "type": "full",
    "latitude": "36.19951100",
    "longitude": "1.46727300",
    "source": "algerie-poste-via-badre429",
    "wikiDataId": null,
    "created_at": "2026-04-28T06:49:00",
    "updated_at": "2026-04-28T06:49:00",
    "flag": 1
  },
  {
    "id": 101806,
    "code": "02030",
    "country_id": 4,
    "country_code": "DZ",
    "state_id": 1105,
    "state_code": "02",
    "city_id": null,
    "locality_name": "Ouled Ben Abdelkader",
    "type": "full",
    "latitude": "35.96703700",
    "longitude": "1.19204900",
    "source": "algerie-poste-via-badre429",
    "wikiDataId": null,
    "created_at": "2026-04-28T06:49:00",
    "updated_at": "2026-04-28T06:49:00",
    "flag": 1
  },
  {
    "id": 101807,
    "code": "02031",
    "country_id": 4,
    "country_code": "DZ",
    "state_id": 1105,
    "state_code": "02",
    "city_id": null,
    "locality_name": "Bouzghaia",
    "type": "full",
    "latitude": "36.36043300",
    "longitude": "1.18716500",
    "source": "algerie-poste-via-badre429",
    "wikiDataId": null,
    "created_at": "2026-04-28T06:49:00",
    "updated_at": "2026-04-28T06:49:00",
    "flag": 1
  },
  {
    "id": 101808,
    "code": "02032",
    "country_id": 4,
    "country_code": "DZ",
    "state_id": 1105,
    "state_code": "02",
    "city_id": null,
    "locality_name": "Ain Merane",
    "type": "full",
    "latitude": "36.16256400",
    "longitude": "0.96510200",
    "source": "algerie-poste-via-badre429",
    "wikiDataId": null,
    "created_at": "2026-04-28T06:49:00",
    "updated_at": "2026-04-28T06:49:00",
    "flag": 1
  },
  {
    "id": 101809,
    "code": "02033",
    "country_id": 4,
    "country_code": "DZ",
    "state_id": 1105,
    "state_code": "02",
    "city_id": null,
    "locality_name": "Oum Drou",
    "type": "full",
    "latitude": "36.20348700",
    "longitude": "1.34608000",
    "source": "algerie-poste-via-badre429",
    "wikiDataId": null,
    "created_at": "2026-04-28T06:49:00",
    "updated_at": "2026-04-28T06:49:00",
    "flag": 1
  },
  {
    "id": 101810,
    "code": "02034",
    "country_id": 4,
    "country_code": "DZ",
    "state_id": 1105,
    "state_code": "02",
    "city_id": null,
    "locality_name": "Breira",
    "type": "full",
    "latitude": "36.44762300",
    "longitude": "1.52211900",
    "source": "algerie-poste-via-badre429",
    "wikiDataId": null,
    "created_at": "2026-04-28T06:49:00",
    "updated_at": "2026-04-28T06:49:00",
    "flag": 1
  },
  {
    "id": 101811,
    "code": "02035",
    "country_id": 4,
    "country_code": "DZ",
    "state_id": 1105,
    "state_code": "02",
    "city_id": null,
    "locality_name": "Beni Bouateb",
    "type": "full",
    "latitude": "35.98958400",
    "longitude": "1.55894000",
    "source": "algerie-poste-via-badre429",
    "wikiDataId": null,
    "created_at": "2026-04-28T06:49:00",
    "updated_at": "2026-04-28T06:49:00",
    "flag": 1
  },
  {
    "id": 101812,
    "code": "03001",
    "country_id": 4,
    "country_code": "DZ",
    "state_id": 1138,
    "state_code": "03",
    "city_id": null,
    "locality_name": "Laghouat",
    "type": "full",
    "latitude": "33.79395200",
    "longitude": "2.83685000",
    "source": "algerie-poste-via-badre429",
    "wikiDataId": null,
    "created_at": "2026-04-28T06:49:00",
    "updated_at": "2026-04-28T06:49:00",
    "flag": 1
  },
  {
    "id": 101813,
    "code": "03002",
    "country_id": 4,
    "country_code": "DZ",
    "state_id": 1138,
    "state_code": "03",
    "city_id": null,
    "locality_name": "Ksar El Hirane",
    "type": "full",
    "latitude": "33.78554800",
    "longitude": "3.11936600",
    "source": "algerie-poste-via-badre429",
    "wikiDataId": null,
    "created_at": "2026-04-28T06:49:00",
    "updated_at": "2026-04-28T06:49:00",
    "flag": 1
  },
  {
    "id": 101814,
    "code": "03003",
    "country_id": 4,
    "country_code": "DZ",
    "state_id": 1138,
    "state_code": "03",
    "city_id": null,
    "locality_name": "Benacer Ben Chohra",
    "type": "full",
    "latitude": "33.75229100",
    "longitude": "2.99391400",
    "source": "algerie-poste-via-badre429",
    "wikiDataId": null,
    "created_at": "2026-04-28T06:49:00",
    "updated_at": "2026-04-28T06:49:00",
    "flag": 1
  },
  {
    "id": 101815,
    "code": "03004",
    "country_id": 4,
    "country_code": "DZ",
    "state_id": 1138,
    "state_code": "03",
    "city_id": null,
    "locality_name": "Sidi Makhlouf",
    "type": "full",
    "latitude": "34.12762400",
    "longitude": "3.00602600",
    "source": "algerie-poste-via-badre429",
    "wikiDataId": null,
    "created_at": "2026-04-28T06:49:00",
    "updated_at": "2026-04-28T06:49:00",
    "flag": 1
  },
  {
    "id": 101816,
    "code": "03005",
    "country_id": 4,
    "country_code": "DZ",
    "state_id": 1138,
    "state_code": "03",
    "city_id": null,
    "locality_name": "Hassi Delaa",
    "type": "full",
    "latitude": "33.41543000",
    "longitude": "3.54103100",
    "source": "algerie-poste-via-badre429",
    "wikiDataId": null,
    "created_at": "2026-04-28T06:49:00",
    "updated_at": "2026-04-28T06:49:00",
    "flag": 1
  },
  {
    "id": 101817,
    "code": "03006",
    "country_id": 4,
    "country_code": "DZ",
    "state_id": 1138,
    "state_code": "03",
    "city_id": null,
    "locality_name": "Hassi R'Mel",
    "type": "full",
    "latitude": "32.94129600",
    "longitude": "3.24431400",
    "source": "algerie-poste-via-badre429",
    "wikiDataId": null,
    "created_at": "2026-04-28T06:49:00",
    "updated_at": "2026-04-28T06:49:00",
    "flag": 1
  },
  {
    "id": 101818,
    "code": "03007",
    "country_id": 4,
    "country_code": "DZ",
    "state_id": 1138,
    "state_code": "03",
    "city_id": null,
    "locality_name": "Ain Mahdi",
    "type": "full",
    "latitude": "33.79551800",
    "longitude": "2.29249500",
    "source": "algerie-poste-via-badre429",
    "wikiDataId": null,
    "created_at": "2026-04-28T06:49:00",
    "updated_at": "2026-04-28T06:49:00",
    "flag": 1
  },
  {
    "id": 101819,
    "code": "03008",
    "country_id": 4,
    "country_code": "DZ",
    "state_id": 1138,
    "state_code": "03",
    "city_id": null,
    "locality_name": "Tadjmout",
    "type": "full",
    "latitude": "33.83762400",
    "longitude": "2.52347100",
    "source": "algerie-poste-via-badre429",
    "wikiDataId": null,
    "created_at": "2026-04-28T06:49:00",
    "updated_at": "2026-04-28T06:49:00",
    "flag": 1
  },
  {
    "id": 101820,
    "code": "03009",
    "country_id": 4,
    "country_code": "DZ",
    "state_id": 1138,
    "state_code": "03",
    "city_id": null,
    "locality_name": "El Kheneg",
    "type": "full",
    "latitude": "33.74411100",
    "longitude": "2.78417600",
    "source": "algerie-poste-via-badre429",
    "wikiDataId": null,
    "created_at": "2026-04-28T06:49:00",
    "updated_at": "2026-04-28T06:49:00",
    "flag": 1
  },
  {
    "id": 101821,
    "code": "03010",
    "country_id": 4,
    "country_code": "DZ",
    "state_id": 1138,
    "state_code": "03",
    "city_id": null,
    "locality_name": "Gueltat Sidi Saad",
    "type": "full",
    "latitude": "34.29835100",
    "longitude": "1.93234900",
    "source": "algerie-poste-via-badre429",
    "wikiDataId": null,
    "created_at": "2026-04-28T06:49:00",
    "updated_at": "2026-04-28T06:49:00",
    "flag": 1
  },
  {
    "id": 101822,
    "code": "03011",
    "country_id": 4,
    "country_code": "DZ",
    "state_id": 1138,
    "state_code": "03",
    "city_id": null,
    "locality_name": "Ain Sidi Ali",
    "type": "full",
    "latitude": "34.16666600",
    "longitude": "1.54124500",
    "source": "algerie-poste-via-badre429",
    "wikiDataId": null,
    "created_at": "2026-04-28T06:49:00",
    "updated_at": "2026-04-28T06:49:00",
    "flag": 1
  },
  {
    "id": 101823,
    "code": "03012",
    "country_id": 4,
    "country_code": "DZ",
    "state_id": 1138,
    "state_code": "03",
    "city_id": null,
    "locality_name": "Beidha",
    "type": "full",
    "latitude": "33.78737400",
    "longitude": "2.88291200",
    "source": "algerie-poste-via-badre429",
    "wikiDataId": null,
    "created_at": "2026-04-28T06:49:00",
    "updated_at": "2026-04-28T06:49:00",
    "flag": 1
  },
  {
    "id": 101824,
    "code": "03013",
    "country_id": 4,
    "country_code": "DZ",
    "state_id": 1138,
    "state_code": "03",
    "city_id": null,
    "locality_name": "Brida",
    "type": "full",
    "latitude": "33.94959200",
    "longitude": "1.74654700",
    "source": "algerie-poste-via-badre429",
    "wikiDataId": null,
    "created_at": "2026-04-28T06:49:00",
    "updated_at": "2026-04-28T06:49:00",
    "flag": 1
  },
  {
    "id": 101825,
    "code": "03014",
    "country_id": 4,
    "country_code": "DZ",
    "state_id": 1138,
    "state_code": "03",
    "city_id": null,
    "locality_name": "El Ghicha",
    "type": "full",
    "latitude": "33.92977200",
    "longitude": "2.13963000",
    "source": "algerie-poste-via-badre429",
    "wikiDataId": null,
    "created_at": "2026-04-28T06:49:00",
    "updated_at": "2026-04-28T06:49:00",
    "flag": 1
  },
  {
    "id": 101826,
    "code": "03015",
    "country_id": 4,
    "country_code": "DZ",
    "state_id": 1138,
    "state_code": "03",
    "city_id": null,
    "locality_name": "Hadj Mechri",
    "type": "full",
    "latitude": "33.95728400",
    "longitude": "1.59086100",
    "source": "algerie-poste-via-badre429",
    "wikiDataId": null,
    "created_at": "2026-04-28T06:49:00",
    "updated_at": "2026-04-28T06:49:00",
    "flag": 1
  },
  {
    "id": 101827,
    "code": "03016",
    "country_id": 4,
    "country_code": "DZ",
    "state_id": 1138,
    "state_code": "03",
    "city_id": null,
    "locality_name": "Sebgag",
    "type": "full",
    "latitude": "34.02853800",
    "longitude": "1.92934600",
    "source": "algerie-poste-via-badre429",
    "wikiDataId": null,
    "created_at": "2026-04-28T06:49:00",
    "updated_at": "2026-04-28T06:49:00",
    "flag": 1
  },
  {
    "id": 101828,
    "code": "03017",
    "country_id": 4,
    "country_code": "DZ",
    "state_id": 1138,
    "state_code": "03",
    "city_id": null,
    "locality_name": "Taouiala",
    "type": "full",
    "latitude": "33.87155900",
    "longitude": "1.85308500",
    "source": "algerie-poste-via-badre429",
    "wikiDataId": null,
    "created_at": "2026-04-28T06:49:00",
    "updated_at": "2026-04-28T06:49:00",
    "flag": 1
  },
  {
    "id": 101829,
    "code": "03018",
    "country_id": 4,
    "country_code": "DZ",
    "state_id": 1138,
    "state_code": "03",
    "city_id": null,
    "locality_name": "Tadjrouna",
    "type": "full",
    "latitude": "33.50363100",
    "longitude": "2.09246200",
    "source": "algerie-poste-via-badre429",
    "wikiDataId": null,
    "created_at": "2026-04-28T06:49:00",
    "updated_at": "2026-04-28T06:49:00",
    "flag": 1
  },
  {
    "id": 101830,
    "code": "03019",
    "country_id": 4,
    "country_code": "DZ",
    "state_id": 1138,
    "state_code": "03",
    "city_id": null,
    "locality_name": "Aflou",
    "type": "full",
    "latitude": "34.11211600",
    "longitude": "2.08351700",
    "source": "algerie-poste-via-badre429",
    "wikiDataId": null,
    "created_at": "2026-04-28T06:49:00",
    "updated_at": "2026-04-28T06:49:00",
    "flag": 1
  },
  {
    "id": 101831,
    "code": "03020",
    "country_id": 4,
    "country_code": "DZ",
    "state_id": 1138,
    "state_code": "03",
    "city_id": null,
    "locality_name": "El Assafia",
    "type": "full",
    "latitude": "33.82697200",
    "longitude": "2.98162900",
    "source": "algerie-poste-via-badre429",
    "wikiDataId": null,
    "created_at": "2026-04-28T06:49:00",
    "updated_at": "2026-04-28T06:49:00",
    "flag": 1
  },
  {
    "id": 101832,
    "code": "03021",
    "country_id": 4,
    "country_code": "DZ",
    "state_id": 1138,
    "state_code": "03",
    "city_id": null,
    "locality_name": "Oued Morra",
    "type": "full",
    "latitude": "34.16666600",
    "longitude": "2.30791200",
    "source": "algerie-poste-via-badre429",
    "wikiDataId": null,
    "created_at": "2026-04-28T06:49:00",
    "updated_at": "2026-04-28T06:49:00",
    "flag": 1
  },
  {
    "id": 101833,
    "code": "03022",
    "country_id": 4,
    "country_code": "DZ",
    "state_id": 1138,
    "state_code": "03",
    "city_id": null,
    "locality_name": "Oued M'Zi",
    "type": "full",
    "latitude": "33.94104300",
    "longitude": "2.42311300",
    "source": "algerie-poste-via-badre429",
    "wikiDataId": null,
    "created_at": "2026-04-28T06:49:00",
    "updated_at": "2026-04-28T06:49:00",
    "flag": 1
  },
  {
    "id": 101834,
    "code": "03023",
    "country_id": 4,
    "country_code": "DZ",
    "state_id": 1138,
    "state_code": "03",
    "city_id": null,
    "locality_name": "El Haouaita",
    "type": "full",
    "latitude": "37.05057600",
    "longitude": "10.99048600",
    "source": "algerie-poste-via-badre429",
    "wikiDataId": null,
    "created_at": "2026-04-28T06:49:00",
    "updated_at": "2026-04-28T06:49:00",
    "flag": 1
  },
  {
    "id": 101835,
    "code": "03024",
    "country_id": 4,
    "country_code": "DZ",
    "state_id": 1138,
    "state_code": "03",
    "city_id": null,
    "locality_name": "Sidi Bouzid",
    "type": "full",
    "latitude": "35.03638800",
    "longitude": "9.45952800",
    "source": "algerie-poste-via-badre429",
    "wikiDataId": null,
    "created_at": "2026-04-28T06:49:00",
    "updated_at": "2026-04-28T06:49:00",
    "flag": 1
  },
  {
    "id": 101836,
    "code": "04001",
    "country_id": 4,
    "country_code": "DZ",
    "state_id": 1136,
    "state_code": "04",
    "city_id": null,
    "locality_name": "Oum El Bouaghi",
    "type": "full",
    "latitude": "35.87259600",
    "longitude": "7.08300500",
    "source": "algerie-poste-via-badre429",
    "wikiDataId": null,
    "created_at": "2026-04-28T06:49:00",
    "updated_at": "2026-04-28T06:49:00",
    "flag": 1
  },
  {
    "id": 101837,
    "code": "04002",
    "country_id": 4,
    "country_code": "DZ",
    "state_id": 1136,
    "state_code": "04",
    "city_id": null,
    "locality_name": "Ain Beida",
    "type": "full",
    "latitude": "35.79482900",
    "longitude": "7.33388800",
    "source": "algerie-poste-via-badre429",
    "wikiDataId": null,
    "created_at": "2026-04-28T06:49:00",
    "updated_at": "2026-04-28T06:49:00",
    "flag": 1
  },
  {
    "id": 101838,
    "code": "04003",
    "country_id": 4,
    "country_code": "DZ",
    "state_id": 1136,
    "state_code": "04",
    "city_id": null,
    "locality_name": "Ain M'lila",
    "type": "full",
    "latitude": "36.02608700",
    "longitude": "6.42390200",
    "source": "algerie-poste-via-badre429",
    "wikiDataId": null,
    "created_at": "2026-04-28T06:49:00",
    "updated_at": "2026-04-28T06:49:00",
    "flag": 1
  },
  {
    "id": 101839,
    "code": "04004",
    "country_id": 4,
    "country_code": "DZ",
    "state_id": 1136,
    "state_code": "04",
    "city_id": null,
    "locality_name": "Behir Chergui",
    "type": "full",
    "latitude": "35.79378900",
    "longitude": "7.71327100",
    "source": "algerie-poste-via-badre429",
    "wikiDataId": null,
    "created_at": "2026-04-28T06:49:00",
    "updated_at": "2026-04-28T06:49:00",
    "flag": 1
  },
  {
    "id": 101840,
    "code": "04005",
    "country_id": 4,
    "country_code": "DZ",
    "state_id": 1136,
    "state_code": "04",
    "city_id": null,
    "locality_name": "El Amiria",
    "type": "full",
    "latitude": "36.11017800",
    "longitude": "6.90264300",
    "source": "algerie-poste-via-badre429",
    "wikiDataId": null,
    "created_at": "2026-04-28T06:49:00",
    "updated_at": "2026-04-28T06:49:00",
    "flag": 1
  },
  {
    "id": 101841,
    "code": "04006",
    "country_id": 4,
    "country_code": "DZ",
    "state_id": 1136,
    "state_code": "04",
    "city_id": null,
    "locality_name": "Sigus",
    "type": "full",
    "latitude": "36.10852000",
    "longitude": "6.60367400",
    "source": "algerie-poste-via-badre429",
    "wikiDataId": null,
    "created_at": "2026-04-28T06:49:00",
    "updated_at": "2026-04-28T06:49:00",
    "flag": 1
  },
  {
    "id": 101842,
    "code": "04007",
    "country_id": 4,
    "country_code": "DZ",
    "state_id": 1136,
    "state_code": "04",
    "city_id": null,
    "locality_name": "El Belala",
    "type": "full",
    "latitude": "35.66609100",
    "longitude": "7.78376000",
    "source": "algerie-poste-via-badre429",
    "wikiDataId": null,
    "created_at": "2026-04-28T06:49:00",
    "updated_at": "2026-04-28T06:49:00",
    "flag": 1
  },
  {
    "id": 101843,
    "code": "04008",
    "country_id": 4,
    "country_code": "DZ",
    "state_id": 1136,
    "state_code": "04",
    "city_id": null,
    "locality_name": "Ain Babouche",
    "type": "full",
    "latitude": "35.94022900",
    "longitude": "7.17510200",
    "source": "algerie-poste-via-badre429",
    "wikiDataId": null,
    "created_at": "2026-04-28T06:49:00",
    "updated_at": "2026-04-28T06:49:00",
    "flag": 1
  },
  {
    "id": 101844,
    "code": "04009",
    "country_id": 4,
    "country_code": "DZ",
    "state_id": 1136,
    "state_code": "04",
    "city_id": null,
    "locality_name": "Berriche",
    "type": "full",
    "latitude": "35.91558200",
    "longitude": "7.36768500",
    "source": "algerie-poste-via-badre429",
    "wikiDataId": null,
    "created_at": "2026-04-28T06:49:00",
    "updated_at": "2026-04-28T06:49:00",
    "flag": 1
  },
  {
    "id": 101845,
    "code": "04010",
    "country_id": 4,
    "country_code": "DZ",
    "state_id": 1136,
    "state_code": "04",
    "city_id": null,
    "locality_name": "Ouled Hamla",
    "type": "full",
    "latitude": "36.08114300",
    "longitude": "6.33340400",
    "source": "algerie-poste-via-badre429",
    "wikiDataId": null,
    "created_at": "2026-04-28T06:49:00",
    "updated_at": "2026-04-28T06:49:00",
    "flag": 1
  },
  {
    "id": 101846,
    "code": "04011",
    "country_id": 4,
    "country_code": "DZ",
    "state_id": 1136,
    "state_code": "04",
    "city_id": null,
    "locality_name": "Dhala",
    "type": "full",
    "latitude": "35.46108900",
    "longitude": "7.53799400",
    "source": "algerie-poste-via-badre429",
    "wikiDataId": null,
    "created_at": "2026-04-28T06:49:00",
    "updated_at": "2026-04-28T06:49:00",
    "flag": 1
  },
  {
    "id": 101847,
    "code": "04012",
    "country_id": 4,
    "country_code": "DZ",
    "state_id": 1136,
    "state_code": "04",
    "city_id": null,
    "locality_name": "Ain Kercha",
    "type": "full",
    "latitude": "35.92756300",
    "longitude": "6.68114300",
    "source": "algerie-poste-via-badre429",
    "wikiDataId": null,
    "created_at": "2026-04-28T06:49:00",
    "updated_at": "2026-04-28T06:49:00",
    "flag": 1
  },
  {
    "id": 101848,
    "code": "04013",
    "country_id": 4,
    "country_code": "DZ",
    "state_id": 1136,
    "state_code": "04",
    "city_id": null,
    "locality_name": "Hanchir Toumghani",
    "type": "full",
    "latitude": "35.93717100",
    "longitude": "6.73195800",
    "source": "algerie-poste-via-badre429",
    "wikiDataId": null,
    "created_at": "2026-04-28T06:49:00",
    "updated_at": "2026-04-28T06:49:00",
    "flag": 1
  },
  {
    "id": 101849,
    "code": "04014",
    "country_id": 4,
    "country_code": "DZ",
    "state_id": 1136,
    "state_code": "04",
    "city_id": null,
    "locality_name": "El Djazia",
    "type": "full",
    "latitude": "35.66347300",
    "longitude": "7.50305100",
    "source": "algerie-poste-via-badre429",
    "wikiDataId": null,
    "created_at": "2026-04-28T06:49:00",
    "updated_at": "2026-04-28T06:49:00",
    "flag": 1
  },
  {
    "id": 101850,
    "code": "04015",
    "country_id": 4,
    "country_code": "DZ",
    "state_id": 1136,
    "state_code": "04",
    "city_id": null,
    "locality_name": "Ain Diss",
    "type": "full",
    "latitude": "35.81013900",
    "longitude": "7.28885500",
    "source": "algerie-poste-via-badre429",
    "wikiDataId": null,
    "created_at": "2026-04-28T06:49:00",
    "updated_at": "2026-04-28T06:49:00",
    "flag": 1
  },
  {
    "id": 101851,
    "code": "04016",
    "country_id": 4,
    "country_code": "DZ",
    "state_id": 1136,
    "state_code": "04",
    "city_id": null,
    "locality_name": "Fkirina",
    "type": "full",
    "latitude": "35.66389400",
    "longitude": "7.29097400",
    "source": "algerie-poste-via-badre429",
    "wikiDataId": null,
    "created_at": "2026-04-28T06:49:00",
    "updated_at": "2026-04-28T06:49:00",
    "flag": 1
  },
  {
    "id": 101852,
    "code": "04017",
    "country_id": 4,
    "country_code": "DZ",
    "state_id": 1136,
    "state_code": "04",
    "city_id": null,
    "locality_name": "Souk Naamane",
    "type": "full",
    "latitude": "35.93924000",
    "longitude": "6.25837700",
    "source": "algerie-poste-via-badre429",
    "wikiDataId": null,
    "created_at": "2026-04-28T06:49:00",
    "updated_at": "2026-04-28T06:49:00",
    "flag": 1
  },
  {
    "id": 101853,
    "code": "04018",
    "country_id": 4,
    "country_code": "DZ",
    "state_id": 1136,
    "state_code": "04",
    "city_id": null,
    "locality_name": "Zorg",
    "type": "full",
    "latitude": "35.87260100",
    "longitude": "7.11802500",
    "source": "algerie-poste-via-badre429",
    "wikiDataId": null,
    "created_at": "2026-04-28T06:49:00",
    "updated_at": "2026-04-28T06:49:00",
    "flag": 1
  },
  {
    "id": 101854,
    "code": "04019",
    "country_id": 4,
    "country_code": "DZ",
    "state_id": 1136,
    "state_code": "04",
    "city_id": null,
    "locality_name": "El Fedjoudj Boughrara Saoudi",
    "type": "full",
    "latitude": "35.70940900",
    "longitude": "6.81629800",
    "source": "algerie-poste-via-badre429",
    "wikiDataId": null,
    "created_at": "2026-04-28T06:49:00",
    "updated_at": "2026-04-28T06:49:00",
    "flag": 1
  },
  {
    "id": 101855,
    "code": "04020",
    "country_id": 4,
    "country_code": "DZ",
    "state_id": 1136,
    "state_code": "04",
    "city_id": null,
    "locality_name": "Ouled Zouai",
    "type": "full",
    "latitude": "35.85566300",
    "longitude": "6.38210200",
    "source": "algerie-poste-via-badre429",
    "wikiDataId": null,
    "created_at": "2026-04-28T06:49:00",
    "updated_at": "2026-04-28T06:49:00",
    "flag": 1
  },
  {
    "id": 101856,
    "code": "04021",
    "country_id": 4,
    "country_code": "DZ",
    "state_id": 1136,
    "state_code": "04",
    "city_id": null,
    "locality_name": "Bir Chouhada",
    "type": "full",
    "latitude": "35.90071500",
    "longitude": "6.17538700",
    "source": "algerie-poste-via-badre429",
    "wikiDataId": null,
    "created_at": "2026-04-28T06:49:00",
    "updated_at": "2026-04-28T06:49:00",
    "flag": 1
  },
  {
    "id": 101857,
    "code": "04022",
    "country_id": 4,
    "country_code": "DZ",
    "state_id": 1136,
    "state_code": "04",
    "city_id": null,
    "locality_name": "Ksar Sbahi",
    "type": "full",
    "latitude": "36.08209800",
    "longitude": "7.25020400",
    "source": "algerie-poste-via-badre429",
    "wikiDataId": null,
    "created_at": "2026-04-28T06:49:00",
    "updated_at": "2026-04-28T06:49:00",
    "flag": 1
  },
  {
    "id": 101858,
    "code": "04023",
    "country_id": 4,
    "country_code": "DZ",
    "state_id": 1136,
    "state_code": "04",
    "city_id": null,
    "locality_name": "Oued Nini",
    "type": "full",
    "latitude": "35.57169800",
    "longitude": "7.33775100",
    "source": "algerie-poste-via-badre429",
    "wikiDataId": null,
    "created_at": "2026-04-28T06:49:00",
    "updated_at": "2026-04-28T06:49:00",
    "flag": 1
  },
  {
    "id": 101859,
    "code": "04024",
    "country_id": 4,
    "country_code": "DZ",
    "state_id": 1136,
    "state_code": "04",
    "city_id": null,
    "locality_name": "Meskiana",
    "type": "full",
    "latitude": "35.62974200",
    "longitude": "7.65236400",
    "source": "algerie-poste-via-badre429",
    "wikiDataId": null,
    "created_at": "2026-04-28T06:49:00",
    "updated_at": "2026-04-28T06:49:00",
    "flag": 1
  },
  {
    "id": 101860,
    "code": "04025",
    "country_id": 4,
    "country_code": "DZ",
    "state_id": 1136,
    "state_code": "04",
    "city_id": null,
    "locality_name": "Ain Fekroune",
    "type": "full",
    "latitude": "35.97459900",
    "longitude": "6.85198200",
    "source": "algerie-poste-via-badre429",
    "wikiDataId": null,
    "created_at": "2026-04-28T06:49:00",
    "updated_at": "2026-04-28T06:49:00",
    "flag": 1
  },
  {
    "id": 101861,
    "code": "04026",
    "country_id": 4,
    "country_code": "DZ",
    "state_id": 1136,
    "state_code": "04",
    "city_id": null,
    "locality_name": "Rahia",
    "type": "full",
    "latitude": "35.71666600",
    "longitude": "7.65791200",
    "source": "algerie-poste-via-badre429",
    "wikiDataId": null,
    "created_at": "2026-04-28T06:49:00",
    "updated_at": "2026-04-28T06:49:00",
    "flag": 1
  },
  {
    "id": 101862,
    "code": "04027",
    "country_id": 4,
    "country_code": "DZ",
    "state_id": 1136,
    "state_code": "04",
    "city_id": null,
    "locality_name": "Ain Zitoun",
    "type": "full",
    "latitude": "35.68415900",
    "longitude": "6.93097800",
    "source": "algerie-poste-via-badre429",
    "wikiDataId": null,
    "created_at": "2026-04-28T06:49:00",
    "updated_at": "2026-04-28T06:49:00",
    "flag": 1
  },
  {
    "id": 101863,
    "code": "04028",
    "country_id": 4,
    "country_code": "DZ",
    "state_id": 1136,
    "state_code": "04",
    "city_id": null,
    "locality_name": "Ouled Gacem",
    "type": "full",
    "latitude": "36.03288400",
    "longitude": "6.65947400",
    "source": "algerie-poste-via-badre429",
    "wikiDataId": null,
    "created_at": "2026-04-28T06:49:00",
    "updated_at": "2026-04-28T06:49:00",
    "flag": 1
  },
  {
    "id": 101864,
    "code": "04029",
    "country_id": 4,
    "country_code": "DZ",
    "state_id": 1136,
    "state_code": "04",
    "city_id": null,
    "locality_name": "El Harmilia",
    "type": "full",
    "latitude": "35.92574800",
    "longitude": "6.61767500",
    "source": "algerie-poste-via-badre429",
    "wikiDataId": null,
    "created_at": "2026-04-28T06:49:00",
    "updated_at": "2026-04-28T06:49:00",
    "flag": 1
  },
  {
    "id": 101865,
    "code": "05001",
    "country_id": 4,
    "country_code": "DZ",
    "state_id": 1142,
    "state_code": "05",
    "city_id": null,
    "locality_name": "Batna",
    "type": "full",
    "latitude": "35.57842700",
    "longitude": "6.10834200",
    "source": "algerie-poste-via-badre429",
    "wikiDataId": null,
    "created_at": "2026-04-28T06:49:00",
    "updated_at": "2026-04-28T06:49:00",
    "flag": 1
  },
  {
    "id": 101866,
    "code": "05002",
    "country_id": 4,
    "country_code": "DZ",
    "state_id": 1142,
    "state_code": "05",
    "city_id": null,
    "locality_name": "Ghassira",
    "type": "full",
    "latitude": "35.06296100",
    "longitude": "6.15633200",
    "source": "algerie-poste-via-badre429",
    "wikiDataId": null,
    "created_at": "2026-04-28T06:49:00",
    "updated_at": "2026-04-28T06:49:00",
    "flag": 1
  },
  {
    "id": 101867,
    "code": "05003",
    "country_id": 4,
    "country_code": "DZ",
    "state_id": 1142,
    "state_code": "05",
    "city_id": null,
    "locality_name": "Maafa",
    "type": "full",
    "latitude": "35.27703600",
    "longitude": "5.81562700",
    "source": "algerie-poste-via-badre429",
    "wikiDataId": null,
    "created_at": "2026-04-28T06:49:00",
    "updated_at": "2026-04-28T06:49:00",
    "flag": 1
  },
  {
    "id": 101868,
    "code": "05004",
    "country_id": 4,
    "country_code": "DZ",
    "state_id": 1142,
    "state_code": "05",
    "city_id": null,
    "locality_name": "Merouana",
    "type": "full",
    "latitude": "35.64178800",
    "longitude": "5.81729000",
    "source": "algerie-poste-via-badre429",
    "wikiDataId": null,
    "created_at": "2026-04-28T06:49:00",
    "updated_at": "2026-04-28T06:49:00",
    "flag": 1
  },
  {
    "id": 101869,
    "code": "05005",
    "country_id": 4,
    "country_code": "DZ",
    "state_id": 1142,
    "state_code": "05",
    "city_id": null,
    "locality_name": "Seriana",
    "type": "full",
    "latitude": "35.71615600",
    "longitude": "6.12706400",
    "source": "algerie-poste-via-badre429",
    "wikiDataId": null,
    "created_at": "2026-04-28T06:49:00",
    "updated_at": "2026-04-28T06:49:00",
    "flag": 1
  },
  {
    "id": 101870,
    "code": "05006",
    "country_id": 4,
    "country_code": "DZ",
    "state_id": 1142,
    "state_code": "05",
    "city_id": null,
    "locality_name": "Menaa",
    "type": "full",
    "latitude": "35.13732400",
    "longitude": "5.99810300",
    "source": "algerie-poste-via-badre429",
    "wikiDataId": null,
    "created_at": "2026-04-28T06:49:00",
    "updated_at": "2026-04-28T06:49:00",
    "flag": 1
  },
  {
    "id": 101871,
    "code": "05007",
    "country_id": 4,
    "country_code": "DZ",
    "state_id": 1142,
    "state_code": "05",
    "city_id": null,
    "locality_name": "El Madher",
    "type": "full",
    "latitude": "35.63929700",
    "longitude": "6.30421900",
    "source": "algerie-poste-via-badre429",
    "wikiDataId": null,
    "created_at": "2026-04-28T06:49:00",
    "updated_at": "2026-04-28T06:49:00",
    "flag": 1
  },
  {
    "id": 101872,
    "code": "05008",
    "country_id": 4,
    "country_code": "DZ",
    "state_id": 1142,
    "state_code": "05",
    "city_id": null,
    "locality_name": "Tazoult",
    "type": "full",
    "latitude": "35.47036200",
    "longitude": "6.16946400",
    "source": "algerie-poste-via-badre429",
    "wikiDataId": null,
    "created_at": "2026-04-28T06:49:00",
    "updated_at": "2026-04-28T06:49:00",
    "flag": 1
  },
  {
    "id": 101873,
    "code": "05009",
    "country_id": 4,
    "country_code": "DZ",
    "state_id": 1142,
    "state_code": "05",
    "city_id": null,
    "locality_name": "Ngaous",
    "type": "full",
    "latitude": "35.55258400",
    "longitude": "5.51899700",
    "source": "algerie-poste-via-badre429",
    "wikiDataId": null,
    "created_at": "2026-04-28T06:49:00",
    "updated_at": "2026-04-28T06:49:00",
    "flag": 1
  },
  {
    "id": 101874,
    "code": "05010",
    "country_id": 4,
    "country_code": "DZ",
    "state_id": 1142,
    "state_code": "05",
    "city_id": null,
    "locality_name": "Guigba",
    "type": "full",
    "latitude": "35.74077500",
    "longitude": "5.53529600",
    "source": "algerie-poste-via-badre429",
    "wikiDataId": null,
    "created_at": "2026-04-28T06:49:00",
    "updated_at": "2026-04-28T06:49:00",
    "flag": 1
  },
  {
    "id": 101875,
    "code": "05011",
    "country_id": 4,
    "country_code": "DZ",
    "state_id": 1142,
    "state_code": "05",
    "city_id": null,
    "locality_name": "Inoughissen",
    "type": "full",
    "latitude": "35.27712300",
    "longitude": "6.46287700",
    "source": "algerie-poste-via-badre429",
    "wikiDataId": null,
    "created_at": "2026-04-28T06:49:00",
    "updated_at": "2026-04-28T06:49:00",
    "flag": 1
  },
  {
    "id": 101876,
    "code": "05012",
    "country_id": 4,
    "country_code": "DZ",
    "state_id": 1142,
    "state_code": "05",
    "city_id": null,
    "locality_name": "Ouyoun El Assafir",
    "type": "full",
    "latitude": "35.54684700",
    "longitude": "6.27104500",
    "source": "algerie-poste-via-badre429",
    "wikiDataId": null,
    "created_at": "2026-04-28T06:49:00",
    "updated_at": "2026-04-28T06:49:00",
    "flag": 1
  },
  {
    "id": 101877,
    "code": "05013",
    "country_id": 4,
    "country_code": "DZ",
    "state_id": 1142,
    "state_code": "05",
    "city_id": null,
    "locality_name": "Djerma",
    "type": "full",
    "latitude": "35.68539300",
    "longitude": "6.22677800",
    "source": "algerie-poste-via-badre429",
    "wikiDataId": null,
    "created_at": "2026-04-28T06:49:00",
    "updated_at": "2026-04-28T06:49:00",
    "flag": 1
  },
  {
    "id": 101878,
    "code": "05014",
    "country_id": 4,
    "country_code": "DZ",
    "state_id": 1142,
    "state_code": "05",
    "city_id": null,
    "locality_name": "Bitam",
    "type": "full",
    "latitude": "35.17722500",
    "longitude": "4.99805000",
    "source": "algerie-poste-via-badre429",
    "wikiDataId": null,
    "created_at": "2026-04-28T06:49:00",
    "updated_at": "2026-04-28T06:49:00",
    "flag": 1
  },
  {
    "id": 101879,
    "code": "05015",
    "country_id": 4,
    "country_code": "DZ",
    "state_id": 1142,
    "state_code": "05",
    "city_id": null,
    "locality_name": "Metkaouak",
    "type": "full",
    "latitude": "35.32335200",
    "longitude": "4.69524000",
    "source": "algerie-poste-via-badre429",
    "wikiDataId": null,
    "created_at": "2026-04-28T06:49:00",
    "updated_at": "2026-04-28T06:49:00",
    "flag": 1
  },
  {
    "id": 101880,
    "code": "05016",
    "country_id": 4,
    "country_code": "DZ",
    "state_id": 1142,
    "state_code": "05",
    "city_id": null,
    "locality_name": "Arris",
    "type": "full",
    "latitude": "35.31051900",
    "longitude": "6.20075200",
    "source": "algerie-poste-via-badre429",
    "wikiDataId": null,
    "created_at": "2026-04-28T06:49:00",
    "updated_at": "2026-04-28T06:49:00",
    "flag": 1
  },
  {
    "id": 101881,
    "code": "05017",
    "country_id": 4,
    "country_code": "DZ",
    "state_id": 1142,
    "state_code": "05",
    "city_id": null,
    "locality_name": "Kimmel",
    "type": "full",
    "latitude": "34.99921400",
    "longitude": "6.22088000",
    "source": "algerie-poste-via-badre429",
    "wikiDataId": null,
    "created_at": "2026-04-28T06:49:00",
    "updated_at": "2026-04-28T06:49:00",
    "flag": 1
  },
  {
    "id": 101882,
    "code": "05018",
    "country_id": 4,
    "country_code": "DZ",
    "state_id": 1142,
    "state_code": "05",
    "city_id": null,
    "locality_name": "Tilatou",
    "type": "full",
    "latitude": "35.31313200",
    "longitude": "5.49113700",
    "source": "algerie-poste-via-badre429",
    "wikiDataId": null,
    "created_at": "2026-04-28T06:49:00",
    "updated_at": "2026-04-28T06:49:00",
    "flag": 1
  },
  {
    "id": 101883,
    "code": "05019",
    "country_id": 4,
    "country_code": "DZ",
    "state_id": 1142,
    "state_code": "05",
    "city_id": null,
    "locality_name": "Ain Djasser",
    "type": "full",
    "latitude": "35.83112100",
    "longitude": "5.93313000",
    "source": "algerie-poste-via-badre429",
    "wikiDataId": null,
    "created_at": "2026-04-28T06:49:00",
    "updated_at": "2026-04-28T06:49:00",
    "flag": 1
  },
  {
    "id": 101884,
    "code": "05020",
    "country_id": 4,
    "country_code": "DZ",
    "state_id": 1142,
    "state_code": "05",
    "city_id": null,
    "locality_name": "Ouled Selam",
    "type": "full",
    "latitude": "35.84574800",
    "longitude": "5.72769400",
    "source": "algerie-poste-via-badre429",
    "wikiDataId": null,
    "created_at": "2026-04-28T06:49:00",
    "updated_at": "2026-04-28T06:49:00",
    "flag": 1
  },
  {
    "id": 101885,
    "code": "05021",
    "country_id": 4,
    "country_code": "DZ",
    "state_id": 1142,
    "state_code": "05",
    "city_id": null,
    "locality_name": "Tigherghar",
    "type": "full",
    "latitude": "35.07656100",
    "longitude": "5.82128400",
    "source": "algerie-poste-via-badre429",
    "wikiDataId": null,
    "created_at": "2026-04-28T06:49:00",
    "updated_at": "2026-04-28T06:49:00",
    "flag": 1
  },
  {
    "id": 101886,
    "code": "05022",
    "country_id": 4,
    "country_code": "DZ",
    "state_id": 1142,
    "state_code": "05",
    "city_id": null,
    "locality_name": "Ain Yagout",
    "type": "full",
    "latitude": "35.78644800",
    "longitude": "6.26792600",
    "source": "algerie-poste-via-badre429",
    "wikiDataId": null,
    "created_at": "2026-04-28T06:49:00",
    "updated_at": "2026-04-28T06:49:00",
    "flag": 1
  },
  {
    "id": 101887,
    "code": "05023",
    "country_id": 4,
    "country_code": "DZ",
    "state_id": 1142,
    "state_code": "05",
    "city_id": null,
    "locality_name": "Fesdis",
    "type": "full",
    "latitude": "35.61792300",
    "longitude": "6.16967900",
    "source": "algerie-poste-via-badre429",
    "wikiDataId": null,
    "created_at": "2026-04-28T06:49:00",
    "updated_at": "2026-04-28T06:49:00",
    "flag": 1
  },
  {
    "id": 101888,
    "code": "05024",
    "country_id": 4,
    "country_code": "DZ",
    "state_id": 1142,
    "state_code": "05",
    "city_id": null,
    "locality_name": "Sefiane",
    "type": "full",
    "latitude": "35.42808500",
    "longitude": "5.51865300",
    "source": "algerie-poste-via-badre429",
    "wikiDataId": null,
    "created_at": "2026-04-28T06:49:00",
    "updated_at": "2026-04-28T06:49:00",
    "flag": 1
  },
  {
    "id": 101889,
    "code": "05025",
    "country_id": 4,
    "country_code": "DZ",
    "state_id": 1142,
    "state_code": "05",
    "city_id": null,
    "locality_name": "Rahbat",
    "type": "full",
    "latitude": "35.72578000",
    "longitude": "5.55719100",
    "source": "algerie-poste-via-badre429",
    "wikiDataId": null,
    "created_at": "2026-04-28T06:49:00",
    "updated_at": "2026-04-28T06:49:00",
    "flag": 1
  },
  {
    "id": 101890,
    "code": "05026",
    "country_id": 4,
    "country_code": "DZ",
    "state_id": 1142,
    "state_code": "05",
    "city_id": null,
    "locality_name": "Tighanimine",
    "type": "full",
    "latitude": "35.18582900",
    "longitude": "6.22907400",
    "source": "algerie-poste-via-badre429",
    "wikiDataId": null,
    "created_at": "2026-04-28T06:49:00",
    "updated_at": "2026-04-28T06:49:00",
    "flag": 1
  },
  {
    "id": 101891,
    "code": "05027",
    "country_id": 4,
    "country_code": "DZ",
    "state_id": 1142,
    "state_code": "05",
    "city_id": null,
    "locality_name": "Lemsane",
    "type": "full",
    "latitude": "35.63849100",
    "longitude": "5.72825200",
    "source": "algerie-poste-via-badre429",
    "wikiDataId": null,
    "created_at": "2026-04-28T06:49:00",
    "updated_at": "2026-04-28T06:49:00",
    "flag": 1
  },
  {
    "id": 101892,
    "code": "05028",
    "country_id": 4,
    "country_code": "DZ",
    "state_id": 1142,
    "state_code": "05",
    "city_id": null,
    "locality_name": "Ksar Belezma",
    "type": "full",
    "latitude": "35.72872900",
    "longitude": "5.82475800",
    "source": "algerie-poste-via-badre429",
    "wikiDataId": null,
    "created_at": "2026-04-28T06:49:00",
    "updated_at": "2026-04-28T06:49:00",
    "flag": 1
  },
  {
    "id": 101893,
    "code": "05029",
    "country_id": 4,
    "country_code": "DZ",
    "state_id": 1142,
    "state_code": "05",
    "city_id": null,
    "locality_name": "Seggana",
    "type": "full",
    "latitude": "35.33803600",
    "longitude": "5.40715100",
    "source": "algerie-poste-via-badre429",
    "wikiDataId": null,
    "created_at": "2026-04-28T06:49:00",
    "updated_at": "2026-04-28T06:49:00",
    "flag": 1
  },
  {
    "id": 101894,
    "code": "05030",
    "country_id": 4,
    "country_code": "DZ",
    "state_id": 1142,
    "state_code": "05",
    "city_id": null,
    "locality_name": "Ichmoul",
    "type": "full",
    "latitude": "35.30597600",
    "longitude": "6.41867400",
    "source": "algerie-poste-via-badre429",
    "wikiDataId": null,
    "created_at": "2026-04-28T06:49:00",
    "updated_at": "2026-04-28T06:49:00",
    "flag": 1
  },
  {
    "id": 101895,
    "code": "05031",
    "country_id": 4,
    "country_code": "DZ",
    "state_id": 1142,
    "state_code": "05",
    "city_id": null,
    "locality_name": "Foum Toub",
    "type": "full",
    "latitude": "35.38677300",
    "longitude": "6.44783500",
    "source": "algerie-poste-via-badre429",
    "wikiDataId": null,
    "created_at": "2026-04-28T06:49:00",
    "updated_at": "2026-04-28T06:49:00",
    "flag": 1
  },
  {
    "id": 101896,
    "code": "05032",
    "country_id": 4,
    "country_code": "DZ",
    "state_id": 1142,
    "state_code": "05",
    "city_id": null,
    "locality_name": "Beni Foudhala El Hakania",
    "type": "full",
    "latitude": "35.37906500",
    "longitude": "5.93007500",
    "source": "algerie-poste-via-badre429",
    "wikiDataId": null,
    "created_at": "2026-04-28T06:49:00",
    "updated_at": "2026-04-28T06:49:00",
    "flag": 1
  },
  {
    "id": 101897,
    "code": "05033",
    "country_id": 4,
    "country_code": "DZ",
    "state_id": 1142,
    "state_code": "05",
    "city_id": null,
    "locality_name": "Oued El Ma",
    "type": "full",
    "latitude": "35.66962600",
    "longitude": "5.95293500",
    "source": "algerie-poste-via-badre429",
    "wikiDataId": null,
    "created_at": "2026-04-28T06:49:00",
    "updated_at": "2026-04-28T06:49:00",
    "flag": 1
  },
  {
    "id": 101898,
    "code": "05034",
    "country_id": 4,
    "country_code": "DZ",
    "state_id": 1142,
    "state_code": "05",
    "city_id": null,
    "locality_name": "Talkhamt",
    "type": "full",
    "latitude": "35.72291200",
    "longitude": "5.70705200",
    "source": "algerie-poste-via-badre429",
    "wikiDataId": null,
    "created_at": "2026-04-28T06:49:00",
    "updated_at": "2026-04-28T06:49:00",
    "flag": 1
  },
  {
    "id": 101899,
    "code": "05035",
    "country_id": 4,
    "country_code": "DZ",
    "state_id": 1142,
    "state_code": "05",
    "city_id": null,
    "locality_name": "Bouzina",
    "type": "full",
    "latitude": "35.27577600",
    "longitude": "5.97801100",
    "source": "algerie-poste-via-badre429",
    "wikiDataId": null,
    "created_at": "2026-04-28T06:49:00",
    "updated_at": "2026-04-28T06:49:00",
    "flag": 1
  },
  {
    "id": 101900,
    "code": "05036",
    "country_id": 4,
    "country_code": "DZ",
    "state_id": 1142,
    "state_code": "05",
    "city_id": null,
    "locality_name": "Chemora",
    "type": "full",
    "latitude": "35.63011900",
    "longitude": "6.47479900",
    "source": "algerie-poste-via-badre429",
    "wikiDataId": null,
    "created_at": "2026-04-28T06:49:00",
    "updated_at": "2026-04-28T06:49:00",
    "flag": 1
  },
  {
    "id": 101901,
    "code": "05037",
    "country_id": 4,
    "country_code": "DZ",
    "state_id": 1142,
    "state_code": "05",
    "city_id": null,
    "locality_name": "Oued Chaaba",
    "type": "full",
    "latitude": "35.52433800",
    "longitude": "6.01196500",
    "source": "algerie-poste-via-badre429",
    "wikiDataId": null,
    "created_at": "2026-04-28T06:49:00",
    "updated_at": "2026-04-28T06:49:00",
    "flag": 1
  },
  {
    "id": 101902,
    "code": "05038",
    "country_id": 4,
    "country_code": "DZ",
    "state_id": 1142,
    "state_code": "05",
    "city_id": null,
    "locality_name": "Taxlent",
    "type": "full",
    "latitude": "35.56354100",
    "longitude": "5.73880900",
    "source": "algerie-poste-via-badre429",
    "wikiDataId": null,
    "created_at": "2026-04-28T06:49:00",
    "updated_at": "2026-04-28T06:49:00",
    "flag": 1
  },
  {
    "id": 101903,
    "code": "05039",
    "country_id": 4,
    "country_code": "DZ",
    "state_id": 1142,
    "state_code": "05",
    "city_id": null,
    "locality_name": "Gosbat",
    "type": "full",
    "latitude": "35.61983100",
    "longitude": "5.33943100",
    "source": "algerie-poste-via-badre429",
    "wikiDataId": null,
    "created_at": "2026-04-28T06:49:00",
    "updated_at": "2026-04-28T06:49:00",
    "flag": 1
  },
  {
    "id": 101904,
    "code": "05040",
    "country_id": 4,
    "country_code": "DZ",
    "state_id": 1142,
    "state_code": "05",
    "city_id": null,
    "locality_name": "Ouled Aouf",
    "type": "full",
    "latitude": "35.47403700",
    "longitude": "5.71722200",
    "source": "algerie-poste-via-badre429",
    "wikiDataId": null,
    "created_at": "2026-04-28T06:49:00",
    "updated_at": "2026-04-28T06:49:00",
    "flag": 1
  },
  {
    "id": 101905,
    "code": "05041",
    "country_id": 4,
    "country_code": "DZ",
    "state_id": 1142,
    "state_code": "05",
    "city_id": null,
    "locality_name": "Boumagueur",
    "type": "full",
    "latitude": "35.49736700",
    "longitude": "5.50732300",
    "source": "algerie-poste-via-badre429",
    "wikiDataId": null,
    "created_at": "2026-04-28T06:49:00",
    "updated_at": "2026-04-28T06:49:00",
    "flag": 1
  },
  {
    "id": 101906,
    "code": "05042",
    "country_id": 4,
    "country_code": "DZ",
    "state_id": 1142,
    "state_code": "05",
    "city_id": null,
    "locality_name": "Barika",
    "type": "full",
    "latitude": "35.36985300",
    "longitude": "5.14244900",
    "source": "algerie-poste-via-badre429",
    "wikiDataId": null,
    "created_at": "2026-04-28T06:49:00",
    "updated_at": "2026-04-28T06:49:00",
    "flag": 1
  },
  {
    "id": 101907,
    "code": "05043",
    "country_id": 4,
    "country_code": "DZ",
    "state_id": 1142,
    "state_code": "05",
    "city_id": null,
    "locality_name": "Djezzar",
    "type": "full",
    "latitude": "35.51806100",
    "longitude": "5.19472000",
    "source": "algerie-poste-via-badre429",
    "wikiDataId": null,
    "created_at": "2026-04-28T06:49:00",
    "updated_at": "2026-04-28T06:49:00",
    "flag": 1
  },
  {
    "id": 101908,
    "code": "05044",
    "country_id": 4,
    "country_code": "DZ",
    "state_id": 1142,
    "state_code": "05",
    "city_id": null,
    "locality_name": "Tkout",
    "type": "full",
    "latitude": "35.15330600",
    "longitude": "6.22370100",
    "source": "algerie-poste-via-badre429",
    "wikiDataId": null,
    "created_at": "2026-04-28T06:49:00",
    "updated_at": "2026-04-28T06:49:00",
    "flag": 1
  },
  {
    "id": 101909,
    "code": "05045",
    "country_id": 4,
    "country_code": "DZ",
    "state_id": 1142,
    "state_code": "05",
    "city_id": null,
    "locality_name": "Ain Touta",
    "type": "full",
    "latitude": "35.36402400",
    "longitude": "5.75407900",
    "source": "algerie-poste-via-badre429",
    "wikiDataId": null,
    "created_at": "2026-04-28T06:49:00",
    "updated_at": "2026-04-28T06:49:00",
    "flag": 1
  },
  {
    "id": 101910,
    "code": "05046",
    "country_id": 4,
    "country_code": "DZ",
    "state_id": 1142,
    "state_code": "05",
    "city_id": null,
    "locality_name": "Hidoussa",
    "type": "full",
    "latitude": "35.52860800",
    "longitude": "5.78123300",
    "source": "algerie-poste-via-badre429",
    "wikiDataId": null,
    "created_at": "2026-04-28T06:49:00",
    "updated_at": "2026-04-28T06:49:00",
    "flag": 1
  },
  {
    "id": 101911,
    "code": "05047",
    "country_id": 4,
    "country_code": "DZ",
    "state_id": 1142,
    "state_code": "05",
    "city_id": null,
    "locality_name": "Teniet El Abed",
    "type": "full",
    "latitude": "35.28693200",
    "longitude": "6.19263900",
    "source": "algerie-poste-via-badre429",
    "wikiDataId": null,
    "created_at": "2026-04-28T06:49:00",
    "updated_at": "2026-04-28T06:49:00",
    "flag": 1
  },
  {
    "id": 101912,
    "code": "05048",
    "country_id": 4,
    "country_code": "DZ",
    "state_id": 1142,
    "state_code": "05",
    "city_id": null,
    "locality_name": "Oued Taga",
    "type": "full",
    "latitude": "35.41859600",
    "longitude": "6.23794900",
    "source": "algerie-poste-via-badre429",
    "wikiDataId": null,
    "created_at": "2026-04-28T06:49:00",
    "updated_at": "2026-04-28T06:49:00",
    "flag": 1
  },
  {
    "id": 101913,
    "code": "05049",
    "country_id": 4,
    "country_code": "DZ",
    "state_id": 1142,
    "state_code": "05",
    "city_id": null,
    "locality_name": "Ouled Fadel",
    "type": "full",
    "latitude": "35.55527800",
    "longitude": "6.54024500",
    "source": "algerie-poste-via-badre429",
    "wikiDataId": null,
    "created_at": "2026-04-28T06:49:00",
    "updated_at": "2026-04-28T06:49:00",
    "flag": 1
  },
  {
    "id": 101914,
    "code": "05050",
    "country_id": 4,
    "country_code": "DZ",
    "state_id": 1142,
    "state_code": "05",
    "city_id": null,
    "locality_name": "Timgad",
    "type": "full",
    "latitude": "35.52692400",
    "longitude": "6.37133000",
    "source": "algerie-poste-via-badre429",
    "wikiDataId": null,
    "created_at": "2026-04-28T06:49:00",
    "updated_at": "2026-04-28T06:49:00",
    "flag": 1
  },
  {
    "id": 101915,
    "code": "05051",
    "country_id": 4,
    "country_code": "DZ",
    "state_id": 1142,
    "state_code": "05",
    "city_id": null,
    "locality_name": "Ras El Aioun",
    "type": "full",
    "latitude": "35.65476000",
    "longitude": "5.53406000",
    "source": "algerie-poste-via-badre429",
    "wikiDataId": null,
    "created_at": "2026-04-28T06:49:00",
    "updated_at": "2026-04-28T06:49:00",
    "flag": 1
  },
  {
    "id": 101916,
    "code": "05052",
    "country_id": 4,
    "country_code": "DZ",
    "state_id": 1142,
    "state_code": "05",
    "city_id": null,
    "locality_name": "Chir",
    "type": "full",
    "latitude": "35.21883900",
    "longitude": "6.06166100",
    "source": "algerie-poste-via-badre429",
    "wikiDataId": null,
    "created_at": "2026-04-28T06:49:00",
    "updated_at": "2026-04-28T06:49:00",
    "flag": 1
  },
  {
    "id": 101917,
    "code": "05053",
    "country_id": 4,
    "country_code": "DZ",
    "state_id": 1142,
    "state_code": "05",
    "city_id": null,
    "locality_name": "Ouled Si Slimane",
    "type": "full",
    "latitude": "35.56711100",
    "longitude": "5.55048900",
    "source": "algerie-poste-via-badre429",
    "wikiDataId": null,
    "created_at": "2026-04-28T06:49:00",
    "updated_at": "2026-04-28T06:49:00",
    "flag": 1
  },
  {
    "id": 101918,
    "code": "05054",
    "country_id": 4,
    "country_code": "DZ",
    "state_id": 1142,
    "state_code": "05",
    "city_id": null,
    "locality_name": "Zanat El Beida",
    "type": "full",
    "latitude": "35.79470700",
    "longitude": "5.95518000",
    "source": "algerie-poste-via-badre429",
    "wikiDataId": null,
    "created_at": "2026-04-28T06:49:00",
    "updated_at": "2026-04-28T06:49:00",
    "flag": 1
  },
  {
    "id": 101919,
    "code": "05055",
    "country_id": 4,
    "country_code": "DZ",
    "state_id": 1142,
    "state_code": "05",
    "city_id": null,
    "locality_name": "M'doukel",
    "type": "full",
    "latitude": "35.11322000",
    "longitude": "5.00647200",
    "source": "algerie-poste-via-badre429",
    "wikiDataId": null,
    "created_at": "2026-04-28T06:49:00",
    "updated_at": "2026-04-28T06:49:00",
    "flag": 1
  },
  {
    "id": 101920,
    "code": "05056",
    "country_id": 4,
    "country_code": "DZ",
    "state_id": 1142,
    "state_code": "05",
    "city_id": null,
    "locality_name": "Ouled Ammar",
    "type": "full",
    "latitude": "35.46377700",
    "longitude": "5.12267300",
    "source": "algerie-poste-via-badre429",
    "wikiDataId": null,
    "created_at": "2026-04-28T06:49:00",
    "updated_at": "2026-04-28T06:49:00",
    "flag": 1
  },
  {
    "id": 101921,
    "code": "05057",
    "country_id": 4,
    "country_code": "DZ",
    "state_id": 1142,
    "state_code": "05",
    "city_id": null,
    "locality_name": "El Hassi",
    "type": "full",
    "latitude": "35.78051200",
    "longitude": "5.87884200",
    "source": "algerie-poste-via-badre429",
    "wikiDataId": null,
    "created_at": "2026-04-28T06:49:00",
    "updated_at": "2026-04-28T06:49:00",
    "flag": 1
  },
  {
    "id": 101922,
    "code": "05058",
    "country_id": 4,
    "country_code": "DZ",
    "state_id": 1142,
    "state_code": "05",
    "city_id": null,
    "locality_name": "Lazrou",
    "type": "full",
    "latitude": "35.80425700",
    "longitude": "6.20019200",
    "source": "algerie-poste-via-badre429",
    "wikiDataId": null,
    "created_at": "2026-04-28T06:49:00",
    "updated_at": "2026-04-28T06:49:00",
    "flag": 1
  },
  {
    "id": 101923,
    "code": "05059",
    "country_id": 4,
    "country_code": "DZ",
    "state_id": 1142,
    "state_code": "05",
    "city_id": null,
    "locality_name": "Boumia",
    "type": "full",
    "latitude": "35.70412200",
    "longitude": "6.39635800",
    "source": "algerie-poste-via-badre429",
    "wikiDataId": null,
    "created_at": "2026-04-28T06:49:00",
    "updated_at": "2026-04-28T06:49:00",
    "flag": 1
  },
  {
    "id": 101924,
    "code": "05060",
    "country_id": 4,
    "country_code": "DZ",
    "state_id": 1142,
    "state_code": "05",
    "city_id": null,
    "locality_name": "Boulhilat",
    "type": "full",
    "latitude": "35.73748000",
    "longitude": "6.58896200",
    "source": "algerie-poste-via-badre429",
    "wikiDataId": null,
    "created_at": "2026-04-28T06:49:00",
    "updated_at": "2026-04-28T06:49:00",
    "flag": 1
  },
  {
    "id": 101925,
    "code": "05061",
    "country_id": 4,
    "country_code": "DZ",
    "state_id": 1142,
    "state_code": "05",
    "city_id": null,
    "locality_name": "Larbaa",
    "type": "full",
    "latitude": "36.57870800",
    "longitude": "3.10332400",
    "source": "algerie-poste-via-badre429",
    "wikiDataId": null,
    "created_at": "2026-04-28T06:49:00",
    "updated_at": "2026-04-28T06:49:00",
    "flag": 1
  },
  {
    "id": 101926,
    "code": "06001",
    "country_id": 4,
    "country_code": "DZ",
    "state_id": 1128,
    "state_code": "06",
    "city_id": null,
    "locality_name": "Bejaia",
    "type": "full",
    "latitude": "36.76957600",
    "longitude": "4.93854500",
    "source": "algerie-poste-via-badre429",
    "wikiDataId": null,
    "created_at": "2026-04-28T06:49:00",
    "updated_at": "2026-04-28T06:49:00",
    "flag": 1
  },
  {
    "id": 101927,
    "code": "06002",
    "country_id": 4,
    "country_code": "DZ",
    "state_id": 1128,
    "state_code": "06",
    "city_id": null,
    "locality_name": "Amizour",
    "type": "full",
    "latitude": "36.64291600",
    "longitude": "4.86797100",
    "source": "algerie-poste-via-badre429",
    "wikiDataId": null,
    "created_at": "2026-04-28T06:49:00",
    "updated_at": "2026-04-28T06:49:00",
    "flag": 1
  },
  {
    "id": 101928,
    "code": "06003",
    "country_id": 4,
    "country_code": "DZ",
    "state_id": 1128,
    "state_code": "06",
    "city_id": null,
    "locality_name": "Ferraoun",
    "type": "full",
    "latitude": "36.56543100",
    "longitude": "4.84177200",
    "source": "algerie-poste-via-badre429",
    "wikiDataId": null,
    "created_at": "2026-04-28T06:49:00",
    "updated_at": "2026-04-28T06:49:00",
    "flag": 1
  },
  {
    "id": 101929,
    "code": "06004",
    "country_id": 4,
    "country_code": "DZ",
    "state_id": 1128,
    "state_code": "06",
    "city_id": null,
    "locality_name": "Taourirt Ighil",
    "type": "full",
    "latitude": "36.73293200",
    "longitude": "4.67093600",
    "source": "algerie-poste-via-badre429",
    "wikiDataId": null,
    "created_at": "2026-04-28T06:49:00",
    "updated_at": "2026-04-28T06:49:00",
    "flag": 1
  },
  {
    "id": 101930,
    "code": "06005",
    "country_id": 4,
    "country_code": "DZ",
    "state_id": 1128,
    "state_code": "06",
    "city_id": null,
    "locality_name": "Chelata",
    "type": "full",
    "latitude": "36.50798400",
    "longitude": "4.48920700",
    "source": "algerie-poste-via-badre429",
    "wikiDataId": null,
    "created_at": "2026-04-28T06:49:00",
    "updated_at": "2026-04-28T06:49:00",
    "flag": 1
  },
  {
    "id": 101931,
    "code": "06006",
    "country_id": 4,
    "country_code": "DZ",
    "state_id": 1128,
    "state_code": "06",
    "city_id": null,
    "locality_name": "Tamokra",
    "type": "full",
    "latitude": "36.39163400",
    "longitude": "4.58144100",
    "source": "algerie-poste-via-badre429",
    "wikiDataId": null,
    "created_at": "2026-04-28T06:49:00",
    "updated_at": "2026-04-28T06:49:00",
    "flag": 1
  },
  {
    "id": 101932,
    "code": "06007",
    "country_id": 4,
    "country_code": "DZ",
    "state_id": 1128,
    "state_code": "06",
    "city_id": null,
    "locality_name": "Timzrit",
    "type": "full",
    "latitude": "36.61614500",
    "longitude": "4.73421100",
    "source": "algerie-poste-via-badre429",
    "wikiDataId": null,
    "created_at": "2026-04-28T06:49:00",
    "updated_at": "2026-04-28T06:49:00",
    "flag": 1
  },
  {
    "id": 101933,
    "code": "06008",
    "country_id": 4,
    "country_code": "DZ",
    "state_id": 1128,
    "state_code": "06",
    "city_id": null,
    "locality_name": "Souk El Thenine",
    "type": "full",
    "latitude": "36.61502700",
    "longitude": "5.27779100",
    "source": "algerie-poste-via-badre429",
    "wikiDataId": null,
    "created_at": "2026-04-28T06:49:00",
    "updated_at": "2026-04-28T06:49:00",
    "flag": 1
  },
  {
    "id": 101934,
    "code": "06009",
    "country_id": 4,
    "country_code": "DZ",
    "state_id": 1128,
    "state_code": "06",
    "city_id": null,
    "locality_name": "M'cisna",
    "type": "full",
    "latitude": "36.56465200",
    "longitude": "4.69221400",
    "source": "algerie-poste-via-badre429",
    "wikiDataId": null,
    "created_at": "2026-04-28T06:49:00",
    "updated_at": "2026-04-28T06:49:00",
    "flag": 1
  },
  {
    "id": 101935,
    "code": "06010",
    "country_id": 4,
    "country_code": "DZ",
    "state_id": 1128,
    "state_code": "06",
    "city_id": null,
    "locality_name": "Thinabdher",
    "type": "full",
    "latitude": "36.63339500",
    "longitude": "4.66453300",
    "source": "algerie-poste-via-badre429",
    "wikiDataId": null,
    "created_at": "2026-04-28T06:49:00",
    "updated_at": "2026-04-28T06:49:00",
    "flag": 1
  },
  {
    "id": 101936,
    "code": "06011",
    "country_id": 4,
    "country_code": "DZ",
    "state_id": 1128,
    "state_code": "06",
    "city_id": null,
    "locality_name": "Tichi",
    "type": "full",
    "latitude": "36.62032900",
    "longitude": "5.09446500",
    "source": "algerie-poste-via-badre429",
    "wikiDataId": null,
    "created_at": "2026-04-28T06:49:00",
    "updated_at": "2026-04-28T06:49:00",
    "flag": 1
  },
  {
    "id": 101937,
    "code": "06012",
    "country_id": 4,
    "country_code": "DZ",
    "state_id": 1128,
    "state_code": "06",
    "city_id": null,
    "locality_name": "Semaoun",
    "type": "full",
    "latitude": "36.61631200",
    "longitude": "4.80290200",
    "source": "algerie-poste-via-badre429",
    "wikiDataId": null,
    "created_at": "2026-04-28T06:49:00",
    "updated_at": "2026-04-28T06:49:00",
    "flag": 1
  },
  {
    "id": 101938,
    "code": "06013",
    "country_id": 4,
    "country_code": "DZ",
    "state_id": 1128,
    "state_code": "06",
    "city_id": null,
    "locality_name": "Kendira",
    "type": "full",
    "latitude": "36.55684500",
    "longitude": "4.94843700",
    "source": "algerie-poste-via-badre429",
    "wikiDataId": null,
    "created_at": "2026-04-28T06:49:00",
    "updated_at": "2026-04-28T06:49:00",
    "flag": 1
  },
  {
    "id": 101939,
    "code": "06014",
    "country_id": 4,
    "country_code": "DZ",
    "state_id": 1128,
    "state_code": "06",
    "city_id": null,
    "locality_name": "Tifra",
    "type": "full",
    "latitude": "36.66267700",
    "longitude": "4.65055000",
    "source": "algerie-poste-via-badre429",
    "wikiDataId": null,
    "created_at": "2026-04-28T06:49:00",
    "updated_at": "2026-04-28T06:49:00",
    "flag": 1
  },
  {
    "id": 101940,
    "code": "06015",
    "country_id": 4,
    "country_code": "DZ",
    "state_id": 1128,
    "state_code": "06",
    "city_id": null,
    "locality_name": "Ighram",
    "type": "full",
    "latitude": "36.47654600",
    "longitude": "4.39246900",
    "source": "algerie-poste-via-badre429",
    "wikiDataId": null,
    "created_at": "2026-04-28T06:49:00",
    "updated_at": "2026-04-28T06:49:00",
    "flag": 1
  },
  {
    "id": 101941,
    "code": "06016",
    "country_id": 4,
    "country_code": "DZ",
    "state_id": 1128,
    "state_code": "06",
    "city_id": null,
    "locality_name": "Amalou",
    "type": "full",
    "latitude": "36.47806100",
    "longitude": "4.56745100",
    "source": "algerie-poste-via-badre429",
    "wikiDataId": null,
    "created_at": "2026-04-28T06:49:00",
    "updated_at": "2026-04-28T06:49:00",
    "flag": 1
  },
  {
    "id": 101942,
    "code": "06017",
    "country_id": 4,
    "country_code": "DZ",
    "state_id": 1128,
    "state_code": "06",
    "city_id": null,
    "locality_name": "Ighil Ali",
    "type": "full",
    "latitude": "36.29054000",
    "longitude": "4.43454700",
    "source": "algerie-poste-via-badre429",
    "wikiDataId": null,
    "created_at": "2026-04-28T06:49:00",
    "updated_at": "2026-04-28T06:49:00",
    "flag": 1
  },
  {
    "id": 101943,
    "code": "06018",
    "country_id": 4,
    "country_code": "DZ",
    "state_id": 1128,
    "state_code": "06",
    "city_id": null,
    "locality_name": "Ifelain Ilmathen",
    "type": "full",
    "latitude": "36.66731300",
    "longitude": "4.74798300",
    "source": "algerie-poste-via-badre429",
    "wikiDataId": null,
    "created_at": "2026-04-28T06:49:00",
    "updated_at": "2026-04-28T06:49:00",
    "flag": 1
  },
  {
    "id": 101944,
    "code": "06019",
    "country_id": 4,
    "country_code": "DZ",
    "state_id": 1128,
    "state_code": "06",
    "city_id": null,
    "locality_name": "Toudja",
    "type": "full",
    "latitude": "36.78625000",
    "longitude": "4.72099100",
    "source": "algerie-poste-via-badre429",
    "wikiDataId": null,
    "created_at": "2026-04-28T06:49:00",
    "updated_at": "2026-04-28T06:49:00",
    "flag": 1
  },
  {
    "id": 101945,
    "code": "06020",
    "country_id": 4,
    "country_code": "DZ",
    "state_id": 1128,
    "state_code": "06",
    "city_id": null,
    "locality_name": "Darguina",
    "type": "full",
    "latitude": "36.55374000",
    "longitude": "5.30570700",
    "source": "algerie-poste-via-badre429",
    "wikiDataId": null,
    "created_at": "2026-04-28T06:49:00",
    "updated_at": "2026-04-28T06:49:00",
    "flag": 1
  },
  {
    "id": 101946,
    "code": "06021",
    "country_id": 4,
    "country_code": "DZ",
    "state_id": 1128,
    "state_code": "06",
    "city_id": null,
    "locality_name": "Sidi Ayad",
    "type": "full",
    "latitude": "36.60959900",
    "longitude": "4.69566800",
    "source": "algerie-poste-via-badre429",
    "wikiDataId": null,
    "created_at": "2026-04-28T06:49:00",
    "updated_at": "2026-04-28T06:49:00",
    "flag": 1
  },
  {
    "id": 101947,
    "code": "06022",
    "country_id": 4,
    "country_code": "DZ",
    "state_id": 1128,
    "state_code": "06",
    "city_id": null,
    "locality_name": "Aokas",
    "type": "full",
    "latitude": "36.61958500",
    "longitude": "5.20381700",
    "source": "algerie-poste-via-badre429",
    "wikiDataId": null,
    "created_at": "2026-04-28T06:49:00",
    "updated_at": "2026-04-28T06:49:00",
    "flag": 1
  },
  {
    "id": 101948,
    "code": "06023",
    "country_id": 4,
    "country_code": "DZ",
    "state_id": 1128,
    "state_code": "06",
    "city_id": null,
    "locality_name": "Ait Djellil",
    "type": "full",
    "latitude": "36.56268000",
    "longitude": "4.76439700",
    "source": "algerie-poste-via-badre429",
    "wikiDataId": null,
    "created_at": "2026-04-28T06:49:00",
    "updated_at": "2026-04-28T06:49:00",
    "flag": 1
  },
  {
    "id": 101949,
    "code": "06024",
    "country_id": 4,
    "country_code": "DZ",
    "state_id": 1128,
    "state_code": "06",
    "city_id": null,
    "locality_name": "Adekar",
    "type": "full",
    "latitude": "36.73437100",
    "longitude": "4.54202900",
    "source": "algerie-poste-via-badre429",
    "wikiDataId": null,
    "created_at": "2026-04-28T06:49:00",
    "updated_at": "2026-04-28T06:49:00",
    "flag": 1
  },
  {
    "id": 101950,
    "code": "06025",
    "country_id": 4,
    "country_code": "DZ",
    "state_id": 1128,
    "state_code": "06",
    "city_id": null,
    "locality_name": "Akbou",
    "type": "full",
    "latitude": "36.45832000",
    "longitude": "4.46396600",
    "source": "algerie-poste-via-badre429",
    "wikiDataId": null,
    "created_at": "2026-04-28T06:49:00",
    "updated_at": "2026-04-28T06:49:00",
    "flag": 1
  },
  {
    "id": 101951,
    "code": "06026",
    "country_id": 4,
    "country_code": "DZ",
    "state_id": 1128,
    "state_code": "06",
    "city_id": null,
    "locality_name": "Seddouk",
    "type": "full",
    "latitude": "36.53678700",
    "longitude": "4.64090500",
    "source": "algerie-poste-via-badre429",
    "wikiDataId": null,
    "created_at": "2026-04-28T06:49:00",
    "updated_at": "2026-04-28T06:49:00",
    "flag": 1
  },
  {
    "id": 101952,
    "code": "06027",
    "country_id": 4,
    "country_code": "DZ",
    "state_id": 1128,
    "state_code": "06",
    "city_id": null,
    "locality_name": "Tazmalt",
    "type": "full",
    "latitude": "36.39809500",
    "longitude": "4.38923100",
    "source": "algerie-poste-via-badre429",
    "wikiDataId": null,
    "created_at": "2026-04-28T06:49:00",
    "updated_at": "2026-04-28T06:49:00",
    "flag": 1
  },
  {
    "id": 101953,
    "code": "06028",
    "country_id": 4,
    "country_code": "DZ",
    "state_id": 1128,
    "state_code": "06",
    "city_id": null,
    "locality_name": "Ait R'zine",
    "type": "full",
    "latitude": "36.38665600",
    "longitude": "4.46460900",
    "source": "algerie-poste-via-badre429",
    "wikiDataId": null,
    "created_at": "2026-04-28T06:49:00",
    "updated_at": "2026-04-28T06:49:00",
    "flag": 1
  },
  {
    "id": 101954,
    "code": "06029",
    "country_id": 4,
    "country_code": "DZ",
    "state_id": 1128,
    "state_code": "06",
    "city_id": null,
    "locality_name": "Chemini",
    "type": "full",
    "latitude": "36.59283500",
    "longitude": "4.56017300",
    "source": "algerie-poste-via-badre429",
    "wikiDataId": null,
    "created_at": "2026-04-28T06:49:00",
    "updated_at": "2026-04-28T06:49:00",
    "flag": 1
  },
  {
    "id": 101955,
    "code": "06030",
    "country_id": 4,
    "country_code": "DZ",
    "state_id": 1128,
    "state_code": "06",
    "city_id": null,
    "locality_name": "Souk Oufella",
    "type": "full",
    "latitude": "36.58804400",
    "longitude": "4.59920500",
    "source": "algerie-poste-via-badre429",
    "wikiDataId": null,
    "created_at": "2026-04-28T06:49:00",
    "updated_at": "2026-04-28T06:49:00",
    "flag": 1
  },
  {
    "id": 101956,
    "code": "06031",
    "country_id": 4,
    "country_code": "DZ",
    "state_id": 1128,
    "state_code": "06",
    "city_id": null,
    "locality_name": "Taskriout",
    "type": "full",
    "latitude": "36.55657100",
    "longitude": "5.22376200",
    "source": "algerie-poste-via-badre429",
    "wikiDataId": null,
    "created_at": "2026-04-28T06:49:00",
    "updated_at": "2026-04-28T06:49:00",
    "flag": 1
  },
  {
    "id": 101957,
    "code": "06032",
    "country_id": 4,
    "country_code": "DZ",
    "state_id": 1128,
    "state_code": "06",
    "city_id": null,
    "locality_name": "Tibane",
    "type": "full",
    "latitude": "36.61317100",
    "longitude": "4.63608400",
    "source": "algerie-poste-via-badre429",
    "wikiDataId": null,
    "created_at": "2026-04-28T06:49:00",
    "updated_at": "2026-04-28T06:49:00",
    "flag": 1
  },
  {
    "id": 101958,
    "code": "06033",
    "country_id": 4,
    "country_code": "DZ",
    "state_id": 1128,
    "state_code": "06",
    "city_id": null,
    "locality_name": "Tala Hamza",
    "type": "full",
    "latitude": "36.69046100",
    "longitude": "4.94322300",
    "source": "algerie-poste-via-badre429",
    "wikiDataId": null,
    "created_at": "2026-04-28T06:49:00",
    "updated_at": "2026-04-28T06:49:00",
    "flag": 1
  },
  {
    "id": 101959,
    "code": "06034",
    "country_id": 4,
    "country_code": "DZ",
    "state_id": 1128,
    "state_code": "06",
    "city_id": null,
    "locality_name": "Barbacha",
    "type": "full",
    "latitude": "36.56281900",
    "longitude": "4.88622100",
    "source": "algerie-poste-via-badre429",
    "wikiDataId": null,
    "created_at": "2026-04-28T06:49:00",
    "updated_at": "2026-04-28T06:49:00",
    "flag": 1
  },
  {
    "id": 101960,
    "code": "06035",
    "country_id": 4,
    "country_code": "DZ",
    "state_id": 1128,
    "state_code": "06",
    "city_id": null,
    "locality_name": "Beni Ksila",
    "type": "full",
    "latitude": "36.82806000",
    "longitude": "4.63097100",
    "source": "algerie-poste-via-badre429",
    "wikiDataId": null,
    "created_at": "2026-04-28T06:49:00",
    "updated_at": "2026-04-28T06:49:00",
    "flag": 1
  },
  {
    "id": 101961,
    "code": "06036",
    "country_id": 4,
    "country_code": "DZ",
    "state_id": 1128,
    "state_code": "06",
    "city_id": null,
    "locality_name": "Ouzallaguen",
    "type": "full",
    "latitude": "36.54739000",
    "longitude": "4.50752100",
    "source": "algerie-poste-via-badre429",
    "wikiDataId": null,
    "created_at": "2026-04-28T06:49:00",
    "updated_at": "2026-04-28T06:49:00",
    "flag": 1
  },
  {
    "id": 101962,
    "code": "06037",
    "country_id": 4,
    "country_code": "DZ",
    "state_id": 1128,
    "state_code": "06",
    "city_id": null,
    "locality_name": "Bouhamza",
    "type": "full",
    "latitude": "36.43932300",
    "longitude": "4.57005400",
    "source": "algerie-poste-via-badre429",
    "wikiDataId": null,
    "created_at": "2026-04-28T06:49:00",
    "updated_at": "2026-04-28T06:49:00",
    "flag": 1
  },
  {
    "id": 101963,
    "code": "06038",
    "country_id": 4,
    "country_code": "DZ",
    "state_id": 1128,
    "state_code": "06",
    "city_id": null,
    "locality_name": "Beni Melikeche",
    "type": "full",
    "latitude": "36.44751500",
    "longitude": "4.38466000",
    "source": "algerie-poste-via-badre429",
    "wikiDataId": null,
    "created_at": "2026-04-28T06:49:00",
    "updated_at": "2026-04-28T06:49:00",
    "flag": 1
  },
  {
    "id": 101964,
    "code": "06039",
    "country_id": 4,
    "country_code": "DZ",
    "state_id": 1128,
    "state_code": "06",
    "city_id": null,
    "locality_name": "Sidi Aich",
    "type": "full",
    "latitude": "36.62230900",
    "longitude": "4.67925900",
    "source": "algerie-poste-via-badre429",
    "wikiDataId": null,
    "created_at": "2026-04-28T06:49:00",
    "updated_at": "2026-04-28T06:49:00",
    "flag": 1
  },
  {
    "id": 101965,
    "code": "06040",
    "country_id": 4,
    "country_code": "DZ",
    "state_id": 1128,
    "state_code": "06",
    "city_id": null,
    "locality_name": "El Kseur",
    "type": "full",
    "latitude": "36.71873800",
    "longitude": "4.76782500",
    "source": "algerie-poste-via-badre429",
    "wikiDataId": null,
    "created_at": "2026-04-28T06:49:00",
    "updated_at": "2026-04-28T06:49:00",
    "flag": 1
  },
  {
    "id": 101966,
    "code": "06041",
    "country_id": 4,
    "country_code": "DZ",
    "state_id": 1128,
    "state_code": "06",
    "city_id": null,
    "locality_name": "Melbou",
    "type": "full",
    "latitude": "36.62170500",
    "longitude": "5.35113500",
    "source": "algerie-poste-via-badre429",
    "wikiDataId": null,
    "created_at": "2026-04-28T06:49:00",
    "updated_at": "2026-04-28T06:49:00",
    "flag": 1
  },
  {
    "id": 101967,
    "code": "06042",
    "country_id": 4,
    "country_code": "DZ",
    "state_id": 1128,
    "state_code": "06",
    "city_id": null,
    "locality_name": "Akfadou",
    "type": "full",
    "latitude": "36.65804200",
    "longitude": "4.57479600",
    "source": "algerie-poste-via-badre429",
    "wikiDataId": null,
    "created_at": "2026-04-28T06:49:00",
    "updated_at": "2026-04-28T06:49:00",
    "flag": 1
  },
  {
    "id": 101968,
    "code": "06043",
    "country_id": 4,
    "country_code": "DZ",
    "state_id": 1128,
    "state_code": "06",
    "city_id": null,
    "locality_name": "Leflaye",
    "type": "full",
    "latitude": "36.59799500",
    "longitude": "4.64419600",
    "source": "algerie-poste-via-badre429",
    "wikiDataId": null,
    "created_at": "2026-04-28T06:49:00",
    "updated_at": "2026-04-28T06:49:00",
    "flag": 1
  },
  {
    "id": 101969,
    "code": "06044",
    "country_id": 4,
    "country_code": "DZ",
    "state_id": 1128,
    "state_code": "06",
    "city_id": null,
    "locality_name": "Kherrata",
    "type": "full",
    "latitude": "36.47193100",
    "longitude": "5.20471100",
    "source": "algerie-poste-via-badre429",
    "wikiDataId": null,
    "created_at": "2026-04-28T06:49:00",
    "updated_at": "2026-04-28T06:49:00",
    "flag": 1
  },
  {
    "id": 101970,
    "code": "06045",
    "country_id": 4,
    "country_code": "DZ",
    "state_id": 1128,
    "state_code": "06",
    "city_id": null,
    "locality_name": "Draa Kaid",
    "type": "full",
    "latitude": "36.44059700",
    "longitude": "5.16830100",
    "source": "algerie-poste-via-badre429",
    "wikiDataId": null,
    "created_at": "2026-04-28T06:49:00",
    "updated_at": "2026-04-28T06:49:00",
    "flag": 1
  },
  {
    "id": 101971,
    "code": "06046",
    "country_id": 4,
    "country_code": "DZ",
    "state_id": 1128,
    "state_code": "06",
    "city_id": null,
    "locality_name": "Tamridjet",
    "type": "full",
    "latitude": "36.57294200",
    "longitude": "5.37751000",
    "source": "algerie-poste-via-badre429",
    "wikiDataId": null,
    "created_at": "2026-04-28T06:49:00",
    "updated_at": "2026-04-28T06:49:00",
    "flag": 1
  },
  {
    "id": 101972,
    "code": "06047",
    "country_id": 4,
    "country_code": "DZ",
    "state_id": 1128,
    "state_code": "06",
    "city_id": null,
    "locality_name": "Ait Smail",
    "type": "full",
    "latitude": "36.55431400",
    "longitude": "5.18922600",
    "source": "algerie-poste-via-badre429",
    "wikiDataId": null,
    "created_at": "2026-04-28T06:49:00",
    "updated_at": "2026-04-28T06:49:00",
    "flag": 1
  },
  {
    "id": 101973,
    "code": "06048",
    "country_id": 4,
    "country_code": "DZ",
    "state_id": 1128,
    "state_code": "06",
    "city_id": null,
    "locality_name": "Boukhelifa",
    "type": "full",
    "latitude": "36.63679400",
    "longitude": "5.00589300",
    "source": "algerie-poste-via-badre429",
    "wikiDataId": null,
    "created_at": "2026-04-28T06:49:00",
    "updated_at": "2026-04-28T06:49:00",
    "flag": 1
  },
  {
    "id": 101974,
    "code": "06049",
    "country_id": 4,
    "country_code": "DZ",
    "state_id": 1128,
    "state_code": "06",
    "city_id": null,
    "locality_name": "Tizi N'berber",
    "type": "full",
    "latitude": "36.58992000",
    "longitude": "5.13073300",
    "source": "algerie-poste-via-badre429",
    "wikiDataId": null,
    "created_at": "2026-04-28T06:49:00",
    "updated_at": "2026-04-28T06:49:00",
    "flag": 1
  },