[
  {
    "code": "AB",
    "country_id": 232,
    "country_code": "GB",
    "locality_name": "Aberdeen",
    "latitude": "57.290168",
    "longitude": "-2.320217",
    "type": "area",
    "source": "ordnance-survey-via-dwyl"
  },
  {
    "code": "AL",
    "country_id": 232,
    "country_code": "GB",
    "locality_name": "St Albans",
    "latitude": "51.776440",
    "longitude": "-0.286183",
    "type": "area",
    "source": "ordnance-survey-via-dwyl"
  },
  {
    "code": "B",
    "country_id": 232,
    "country_code": "GB",
    "locality_name": "Birmingham",
    "latitude": "52.463110",
    "longitude": "-1.888606",
    "type": "area",
    "source": "ordnance-survey-via-dwyl"
  },
  {
    "code": "BA",
    "country_id": 232,
    "country_code": "GB",
    "locality_name": "Bath",
    "latitude": "51.220812",
    "longitude": "-2.421134",
    "type": "area",
    "source": "ordnance-survey-via-dwyl"
  },
  {
    "code": "BB",
    "country_id": 232,
    "country_code": "GB",
    "locality_name": "Blackburn",
    "latitude": "53.785007",
    "longitude": "-2.334771",
    "type": "area",
    "source": "ordnance-survey-via-dwyl"
  },
  {
    "code": "BD",
    "country_id": 232,
    "country_code": "GB",
    "locality_name": "Bradford",
    "latitude": "53.864863",
    "longitude": "-1.835244",
    "type": "area",
    "source": "ordnance-survey-via-dwyl"
  },
  {
    "code": "BH",
    "country_id": 232,
    "country_code": "GB",
    "locality_name": "Bournemouth",
    "latitude": "50.750136",
    "longitude": "-1.892036",
    "type": "area",
    "source": "ordnance-survey-via-dwyl"
  },
  {
    "code": "BL",
    "country_id": 232,
    "country_code": "GB",
    "locality_name": "Bolton",
    "latitude": "53.587337",
    "longitude": "-2.408098",
    "type": "area",
    "source": "ordnance-survey-via-dwyl"
  },
  {
    "code": "BN",
    "country_id": 232,
    "country_code": "GB",
    "locality_name": "Brighton",
    "latitude": "50.831644",
    "longitude": "-0.112335",
    "type": "area",
    "source": "ordnance-survey-via-dwyl"
  },
  {
    "code": "BR",
    "country_id": 232,
    "country_code": "GB",
    "locality_name": "Bromley",
    "latitude": "51.393841",
    "longitude": "0.047364",
    "type": "area",
    "source": "ordnance-survey-via-dwyl"
  },
  {
    "code": "BS",
    "country_id": 232,
    "country_code": "GB",
    "locality_name": "Bristol",
    "latitude": "51.444636",
    "longitude": "-2.631791",
    "type": "area",
    "source": "ordnance-survey-via-dwyl"
  },
  {
    "code": "BT",
    "country_id": 232,
    "country_code": "GB",
    "locality_name": "Belfast",
    "latitude": "54.619987",
    "longitude": "-6.407747",
    "type": "area",
    "source": "ordnance-survey-via-dwyl"
  },
  {
    "code": "CA",
    "country_id": 232,
    "country_code": "GB",
    "locality_name": "Carlisle",
    "latitude": "54.719660",
    "longitude": "-3.107820",
    "type": "area",
    "source": "ordnance-survey-via-dwyl"
  },
  {
    "code": "CB",
    "country_id": 232,
    "country_code": "GB",
    "locality_name": "Cambridge",
    "latitude": "52.206164",
    "longitude": "0.209648",
    "type": "area",
    "source": "ordnance-survey-via-dwyl"
  },
  {
    "code": "CF",
    "country_id": 232,
    "country_code": "GB",
    "locality_name": "Cardiff",
    "latitude": "51.552610",
    "longitude": "-3.328163",
    "type": "area",
    "source": "ordnance-survey-via-dwyl"
  },
  {
    "code": "CH",
    "country_id": 232,
    "country_code": "GB",
    "locality_name": "Chester",
    "latitude": "53.292200",
    "longitude": "-3.024131",
    "type": "area",
    "source": "ordnance-survey-via-dwyl"
  },
  {
    "code": "CM",
    "country_id": 232,
    "country_code": "GB",
    "locality_name": "Chelmsford",
    "latitude": "51.754272",
    "longitude": "0.400155",
    "type": "area",
    "source": "ordnance-survey-via-dwyl"
  },
  {
    "code": "CO",
    "country_id": 232,
    "country_code": "GB",
    "locality_name": "Colchester",
    "latitude": "51.900912",
    "longitude": "0.930971",
    "type": "area",
    "source": "ordnance-survey-via-dwyl"
  },
  {
    "code": "CR",
    "country_id": 232,
    "country_code": "GB",
    "locality_name": "Croydon",
    "latitude": "51.356592",
    "longitude": "-0.099420",
    "type": "area",
    "source": "ordnance-survey-via-dwyl"
  },
  {
    "code": "CT",
    "country_id": 232,
    "country_code": "GB",
    "locality_name": "Canterbury",
    "latitude": "51.255996",
    "longitude": "1.231815",
    "type": "area",
    "source": "ordnance-survey-via-dwyl"
  },
  {
    "code": "CV",
    "country_id": 232,
    "country_code": "GB",
    "locality_name": "Coventry",
    "latitude": "52.372180",
    "longitude": "-1.500378",
    "type": "area",
    "source": "ordnance-survey-via-dwyl"
  },
  {
    "code": "CW",
    "country_id": 232,
    "country_code": "GB",
    "locality_name": "Crewe",
    "latitude": "53.156791",
    "longitude": "-2.458275",
    "type": "area",
    "source": "ordnance-survey-via-dwyl"
  },
  {
    "code": "DA",
    "country_id": 232,
    "country_code": "GB",
    "locality_name": "Dartford",
    "latitude": "51.440984",
    "longitude": "0.222482",
    "type": "area",
    "source": "ordnance-survey-via-dwyl"
  },
  {
    "code": "DD",
    "country_id": 232,
    "country_code": "GB",
    "locality_name": "Dundee",
    "latitude": "56.543558",
    "longitude": "-2.853706",
    "type": "area",
    "source": "ordnance-survey-via-dwyl"
  },
  {
    "code": "DE",
    "country_id": 232,
    "country_code": "GB",
    "locality_name": "Derby",
    "latitude": "52.931144",
    "longitude": "-1.499869",
    "type": "area",
    "source": "ordnance-survey-via-dwyl"
  },
  {
    "code": "DG",
    "country_id": 232,
    "country_code": "GB",
    "locality_name": "Dumfries",
    "latitude": "55.020682",
    "longitude": "-3.884183",
    "type": "area",
    "source": "ordnance-survey-via-dwyl"
  },
  {
    "code": "DH",
    "country_id": 232,
    "country_code": "GB",
    "locality_name": "Durham",
    "latitude": "54.825856",
    "longitude": "-1.618407",
    "type": "area",
    "source": "ordnance-survey-via-dwyl"
  },
  {
    "code": "DL",
    "country_id": 232,
    "country_code": "GB",
    "locality_name": "Darlington",
    "latitude": "54.532777",
    "longitude": "-1.668826",
    "type": "area",
    "source": "ordnance-survey-via-dwyl"
  },
  {
    "code": "DN",
    "country_id": 232,
    "country_code": "GB",
    "locality_name": "Doncaster",
    "latitude": "53.541388",
    "longitude": "-0.724277",
    "type": "area",
    "source": "ordnance-survey-via-dwyl"
  },
  {
    "code": "DT",
    "country_id": 232,
    "country_code": "GB",
    "locality_name": "Dorchester",
    "latitude": "50.758719",
    "longitude": "-2.485729",
    "type": "area",
    "source": "ordnance-survey-via-dwyl"
  },
  {
    "code": "DY",
    "country_id": 232,
    "country_code": "GB",
    "locality_name": "Dudley",
    "latitude": "52.453243",
    "longitude": "-2.180916",
    "type": "area",
    "source": "ordnance-survey-via-dwyl"
  },
  {
    "code": "E",
    "country_id": 232,
    "country_code": "GB",
    "locality_name": "London East",
    "latitude": "51.544346",
    "longitude": "-0.015028",
    "type": "area",
    "source": "ordnance-survey-via-dwyl"
  },
  {
    "code": "EC",
    "country_id": 232,
    "country_code": "GB",
    "locality_name": "London East Central",
    "latitude": "51.520057",
    "longitude": "-0.097789",
    "type": "area",
    "source": "ordnance-survey-via-dwyl"
  },
  {
    "code": "EH",
    "country_id": 232,
    "country_code": "GB",
    "locality_name": "Edinburgh",
    "latitude": "55.923566",
    "longitude": "-3.228702",
    "type": "area",
    "source": "ordnance-survey-via-dwyl"
  },
  {
    "code": "EN",
    "country_id": 232,
    "country_code": "GB",
    "locality_name": "Enfield",
    "latitude": "52.029057",
    "longitude": "-0.083082",
    "type": "area",
    "source": "ordnance-survey-via-dwyl"
  },
  {
    "code": "EX",
    "country_id": 232,
    "country_code": "GB",
    "locality_name": "Exeter",
    "latitude": "50.833683",
    "longitude": "-3.676137",
    "type": "area",
    "source": "ordnance-survey-via-dwyl"
  },
  {
    "code": "FK",
    "country_id": 232,
    "country_code": "GB",
    "locality_name": "Falkirk",
    "latitude": "56.077818",
    "longitude": "-3.860060",
    "type": "area",
    "source": "ordnance-survey-via-dwyl"
  },
  {
    "code": "FY",
    "country_id": 232,
    "country_code": "GB",
    "locality_name": "Blackpool (Fylde)",
    "latitude": "53.827447",
    "longitude": "-3.020524",
    "type": "area",
    "source": "ordnance-survey-via-dwyl"
  },
  {
    "code": "G",
    "country_id": 232,
    "country_code": "GB",
    "locality_name": "Glasgow",
    "latitude": "55.869276",
    "longitude": "-4.271196",
    "type": "area",
    "source": "ordnance-survey-via-dwyl"
  },
  {
    "code": "GL",
    "country_id": 232,
    "country_code": "GB",
    "locality_name": "Gloucester",
    "latitude": "51.832477",
    "longitude": "-2.179740",
    "type": "area",
    "source": "ordnance-survey-via-dwyl"
  },
  {
    "code": "GU",
    "country_id": 232,
    "country_code": "GB",
    "locality_name": "Guildford",
    "latitude": "51.221526",
    "longitude": "-0.719246",
    "type": "area",
    "source": "ordnance-survey-via-dwyl"
  },
  {
    "code": "GY",
    "country_id": 232,
    "country_code": "GB",
    "locality_name": "Guernsey",
    "latitude": "99.999999",
    "longitude": "0.000000",
    "type": "area",
    "source": "ordnance-survey-via-dwyl"
  },
  {
    "code": "HA",
    "country_id": 232,
    "country_code": "GB",
    "locality_name": "Harrow",
    "latitude": "51.586893",
    "longitude": "-0.339278",
    "type": "area",
    "source": "ordnance-survey-via-dwyl"
  },
  {
    "code": "HD",
    "country_id": 232,
    "country_code": "GB",
    "locality_name": "Huddersfield",
    "latitude": "53.634340",
    "longitude": "-1.781933",
    "type": "area",
    "source": "ordnance-survey-via-dwyl"
  },
  {
    "code": "HG",
    "country_id": 232,
    "country_code": "GB",
    "locality_name": "Harrogate",
    "latitude": "54.042357",
    "longitude": "-1.552675",
    "type": "area",
    "source": "ordnance-survey-via-dwyl"
  },
  {
    "code": "HP",
    "country_id": 232,
    "country_code": "GB",
    "locality_name": "Hemel Hempstead",
    "latitude": "51.724270",
    "longitude": "-0.689203",
    "type": "area",
    "source": "ordnance-survey-via-dwyl"
  },
  {
    "code": "HR",
    "country_id": 232,
    "country_code": "GB",
    "locality_name": "Hereford",
    "latitude": "52.068199",
    "longitude": "-2.726351",
    "type": "area",
    "source": "ordnance-survey-via-dwyl"
  },
  {
    "code": "HS",
    "country_id": 232,
    "country_code": "GB",
    "locality_name": "Outer Hebrides",
    "latitude": "57.969235",
    "longitude": "-6.705602",
    "type": "area",
    "source": "ordnance-survey-via-dwyl"
  },
  {
    "code": "HU",
    "country_id": 232,
    "country_code": "GB",
    "locality_name": "Hull",
    "latitude": "53.770700",
    "longitude": "-0.351110",
    "type": "area",
    "source": "ordnance-survey-via-dwyl"
  },
  {
    "code": "HX",
    "country_id": 232,
    "country_code": "GB",
    "locality_name": "Halifax",
    "latitude": "53.719546",
    "longitude": "-1.895636",
    "type": "area",
    "source": "ordnance-survey-via-dwyl"
  },
  {
    "code": "IG",
    "country_id": 232,
    "country_code": "GB",
    "locality_name": "Ilford",
    "latitude": "51.587895",
    "longitude": "0.073950",
    "type": "area",
    "source": "ordnance-survey-via-dwyl"
  },
  {
    "code": "IM",
    "country_id": 232,
    "country_code": "GB",
    "locality_name": "Isle of Man",
    "latitude": "99.999999",
    "longitude": "0.000000",
    "type": "area",
    "source": "ordnance-survey-via-dwyl"
  },
  {
    "code": "IP",
    "country_id": 232,
    "country_code": "GB",
    "locality_name": "Ipswich",
    "latitude": "52.203022",
    "longitude": "1.082467",
    "type": "area",
    "source": "ordnance-survey-via-dwyl"
  },
  {
    "code": "IV",
    "country_id": 232,
    "country_code": "GB",
    "locality_name": "Inverness",
    "latitude": "57.597259",
    "longitude": "-4.193689",
    "type": "area",
    "source": "ordnance-survey-via-dwyl"
  },
  {
    "code": "JE",
    "country_id": 232,
    "country_code": "GB",
    "locality_name": "Jersey",
    "latitude": "99.999999",
    "longitude": "0.000000",
    "type": "area",
    "source": "ordnance-survey-via-dwyl"
  },
  {
    "code": "KA",
    "country_id": 232,
    "country_code": "GB",
    "locality_name": "Kilmarnock",
    "latitude": "55.563877",
    "longitude": "-4.604153",
    "type": "area",
    "source": "ordnance-survey-via-dwyl"
  },
  {
    "code": "KT",
    "country_id": 232,
    "country_code": "GB",
    "locality_name": "Kingston upon Thames",
    "latitude": "51.357768",
    "longitude": "-0.343236",
    "type": "area",
    "source": "ordnance-survey-via-dwyl"
  },
  {
    "code": "KW",
    "country_id": 232,
    "country_code": "GB",
    "locality_name": "Kirkwall",
    "latitude": "58.654880",
    "longitude": "-3.287793",
    "type": "area",
    "source": "ordnance-survey-via-dwyl"
  },
  {
    "code": "KY",
    "country_id": 232,
    "country_code": "GB",
    "locality_name": "Kirkcaldy",
    "latitude": "56.164996",
    "longitude": "-3.198542",
    "type": "area",
    "source": "ordnance-survey-via-dwyl"
  },
  {
    "code": "L",
    "country_id": 232,
    "country_code": "GB",
    "locality_name": "Liverpool",
    "latitude": "53.442181",
    "longitude": "-2.925901",
    "type": "area",
    "source": "ordnance-survey-via-dwyl"
  },
  {
    "code": "LA",
    "country_id": 232,
    "country_code": "GB",
    "locality_name": "Lancaster",
    "latitude": "54.172832",
    "longitude": "-2.906943",
    "type": "area",
    "source": "ordnance-survey-via-dwyl"
  },
  {
    "code": "LD",
    "country_id": 232,
    "country_code": "GB",
    "locality_name": "Llandrindod Wells",
    "latitude": "52.130917",
    "longitude": "-3.340310",
    "type": "area",
    "source": "ordnance-survey-via-dwyl"
  },
  {
    "code": "LE",
    "country_id": 232,
    "country_code": "GB",
    "locality_name": "Leicester",
    "latitude": "52.643241",
    "longitude": "-1.135350",
    "type": "area",
    "source": "ordnance-survey-via-dwyl"
  },
  {
    "code": "LL",
    "country_id": 232,
    "country_code": "GB",
    "locality_name": "Llandudno",
    "latitude": "53.128156",
    "longitude": "-3.727445",
    "type": "area",
    "source": "ordnance-survey-via-dwyl"
  },
  {
    "code": "LN",
    "country_id": 232,
    "country_code": "GB",
    "locality_name": "Lincoln",
    "latitude": "53.255418",
    "longitude": "-0.348634",
    "type": "area",
    "source": "ordnance-survey-via-dwyl"
  },
  {
    "code": "LS",
    "country_id": 232,
    "country_code": "GB",
    "locality_name": "Leeds",
    "latitude": "53.822703",
    "longitude": "-1.553856",
    "type": "area",
    "source": "ordnance-survey-via-dwyl"
  },
  {
    "code": "LU",
    "country_id": 232,
    "country_code": "GB",
    "locality_name": "Luton",
    "latitude": "51.896197",
    "longitude": "-0.501441",
    "type": "area",
    "source": "ordnance-survey-via-dwyl"
  },
  {
    "code": "M",
    "country_id": 232,
    "country_code": "GB",
    "locality_name": "Manchester",
    "latitude": "53.476830",
    "longitude": "-2.269872",
    "type": "area",
    "source": "ordnance-survey-via-dwyl"
  },
  {
    "code": "ME",
    "country_id": 232,
    "country_code": "GB",
    "locality_name": "Medway",
    "latitude": "51.332559",
    "longitude": "0.589069",
    "type": "area",
    "source": "ordnance-survey-via-dwyl"
  },
  {
    "code": "MK",
    "country_id": 232,
    "country_code": "GB",
    "locality_name": "Milton Keynes",
    "latitude": "52.063297",
    "longitude": "-0.661608",
    "type": "area",
    "source": "ordnance-survey-via-dwyl"
  },
  {
    "code": "ML",
    "country_id": 232,
    "country_code": "GB",
    "locality_name": "Motherwell",
    "latitude": "55.775079",
    "longitude": "-3.940867",
    "type": "area",
    "source": "ordnance-survey-via-dwyl"
  },
  {
    "code": "N",
    "country_id": 232,
    "country_code": "GB",
    "locality_name": "London North",
    "latitude": "51.584549",
    "longitude": "-0.112743",
    "type": "area",
    "source": "ordnance-survey-via-dwyl"
  },
  {
    "code": "NE",
    "country_id": 232,
    "country_code": "GB",
    "locality_name": "Newcastle upon Tyne",
    "latitude": "55.041240",
    "longitude": "-1.650369",
    "type": "area",
    "source": "ordnance-survey-via-dwyl"
  },
  {
    "code": "NG",
    "country_id": 232,
    "country_code": "GB",
    "locality_name": "Nottingham",
    "latitude": "53.009931",
    "longitude": "-1.064199",
    "type": "area",
    "source": "ordnance-survey-via-dwyl"
  },
  {
    "code": "NN",
    "country_id": 232,
    "country_code": "GB",
    "locality_name": "Northampton",
    "latitude": "52.296360",
    "longitude": "-0.834321",
    "type": "area",
    "source": "ordnance-survey-via-dwyl"
  },
  {
    "code": "NP",
    "country_id": 232,
    "country_code": "GB",
    "locality_name": "Newport",
    "latitude": "51.683816",
    "longitude": "-3.019484",
    "type": "area",
    "source": "ordnance-survey-via-dwyl"
  },
  {
    "code": "NR",
    "country_id": 232,
    "country_code": "GB",
    "locality_name": "Norwich",
    "latitude": "52.647524",
    "longitude": "1.336804",
    "type": "area",
    "source": "ordnance-survey-via-dwyl"
  },
  {
    "code": "NW",
    "country_id": 232,
    "country_code": "GB",
    "locality_name": "London North West",
    "latitude": "51.555089",
    "longitude": "-0.196499",
    "type": "area",
    "source": "ordnance-survey-via-dwyl"
  },
  {
    "code": "OL",
    "country_id": 232,
    "country_code": "GB",
    "locality_name": "Oldham",
    "latitude": "53.583531",
    "longitude": "-2.124652",
    "type": "area",
    "source": "ordnance-survey-via-dwyl"
  },
  {
    "code": "OX",
    "country_id": 232,
    "country_code": "GB",
    "locality_name": "Oxford",
    "latitude": "51.791971",
    "longitude": "-1.293592",
    "type": "area",
    "source": "ordnance-survey-via-dwyl"
  },
  {
    "code": "PA",
    "country_id": 232,
    "country_code": "GB",
    "locality_name": "Paisley",
    "latitude": "55.920827",
    "longitude": "-4.790524",
    "type": "area",
    "source": "ordnance-survey-via-dwyl"
  },
  {
    "code": "PE",
    "country_id": 232,
    "country_code": "GB",
    "locality_name": "Peterborough",
    "latitude": "52.670112",
    "longitude": "-0.008850",
    "type": "area",
    "source": "ordnance-survey-via-dwyl"
  },
  {
    "code": "PH",
    "country_id": 232,
    "country_code": "GB",
    "locality_name": "Perth",
    "latitude": "56.569219",
    "longitude": "-3.739736",
    "type": "area",
    "source": "ordnance-survey-via-dwyl"
  },
  {
    "code": "PL",
    "country_id": 232,
    "country_code": "GB",
    "locality_name": "Plymouth",
    "latitude": "50.431746",
    "longitude": "-4.338870",
    "type": "area",
    "source": "ordnance-survey-via-dwyl"
  },
  {
    "code": "PO",
    "country_id": 232,
    "country_code": "GB",
    "locality_name": "Portsmouth",
    "latitude": "50.799688",
    "longitude": "-1.047873",
    "type": "area",
    "source": "ordnance-survey-via-dwyl"
  },
  {
    "code": "PR",
    "country_id": 232,
    "country_code": "GB",
    "locality_name": "Preston",
    "latitude": "53.723570",
    "longitude": "-2.754609",
    "type": "area",
    "source": "ordnance-survey-via-dwyl"
  },
  {
    "code": "RG",
    "country_id": 232,
    "country_code": "GB",
    "locality_name": "Reading",
    "latitude": "51.403211",
    "longitude": "-1.034087",
    "type": "area",
    "source": "ordnance-survey-via-dwyl"
  },
  {
    "code": "RH",
    "country_id": 232,
    "country_code": "GB",
    "locality_name": "Redhill",
    "latitude": "51.108365",
    "longitude": "-0.210021",
    "type": "area",
    "source": "ordnance-survey-via-dwyl"
  },
  {
    "code": "RM",
    "country_id": 232,
    "country_code": "GB",
    "locality_name": "Romford",
    "latitude": "51.548696",
    "longitude": "0.217588",
    "type": "area",
    "source": "ordnance-survey-via-dwyl"
  },
  {
    "code": "S",
    "country_id": 232,
    "country_code": "GB",
    "locality_name": "Sheffield",
    "latitude": "53.397205",
    "longitude": "-1.406815",
    "type": "area",
    "source": "ordnance-survey-via-dwyl"
  },
  {
    "code": "SA",
    "country_id": 232,
    "country_code": "GB",
    "locality_name": "Swansea",
    "latitude": "51.770925",
    "longitude": "-4.225108",
    "type": "area",
    "source": "ordnance-survey-via-dwyl"
  },
  {
    "code": "SE",
    "country_id": 232,
    "country_code": "GB",
    "locality_name": "London South East",
    "latitude": "51.466622",
    "longitude": "-0.033145",
    "type": "area",
    "source": "ordnance-survey-via-dwyl"
  },
  {
    "code": "SG",
    "country_id": 232,
    "country_code": "GB",
    "locality_name": "Stevenage",
    "latitude": "51.950736",
    "longitude": "-0.157877",
    "type": "area",
    "source": "ordnance-survey-via-dwyl"
  },
  {
    "code": "SK",
    "country_id": 232,
    "country_code": "GB",
    "locality_name": "Stockport",
    "latitude": "53.370278",
    "longitude": "-2.098943",
    "type": "area",
    "source": "ordnance-survey-via-dwyl"
  },
  {
    "code": "SL",
    "country_id": 232,
    "country_code": "GB",
    "locality_name": "Slough",
    "latitude": "51.516061",
    "longitude": "-0.644208",
    "type": "area",
    "source": "ordnance-survey-via-dwyl"
  },
  {
    "code": "SM",
    "country_id": 232,
    "country_code": "GB",
    "locality_name": "Sutton",
    "latitude": "51.363323",
    "longitude": "-0.185570",
    "type": "area",
    "source": "ordnance-survey-via-dwyl"
  },
  {
    "code": "SN",
    "country_id": 232,
    "country_code": "GB",
    "locality_name": "Swindon",
    "latitude": "51.498211",
    "longitude": "-1.907198",
    "type": "area",
    "source": "ordnance-survey-via-dwyl"
  },
  {
    "code": "SO",
    "country_id": 232,
    "country_code": "GB",
    "locality_name": "Southampton",
    "latitude": "50.938989",
    "longitude": "-1.387831",
    "type": "area",
    "source": "ordnance-survey-via-dwyl"
  },
  {
    "code": "SP",
    "country_id": 232,
    "country_code": "GB",
    "locality_name": "Salisbury",
    "latitude": "51.106182",
    "longitude": "-1.790242",
    "type": "area",
    "source": "ordnance-survey-via-dwyl"
  },
  {
    "code": "SR",
    "country_id": 232,
    "country_code": "GB",
    "locality_name": "Sunderland",
    "latitude": "54.873953",
    "longitude": "-1.389186",
    "type": "area",
    "source": "ordnance-survey-via-dwyl"
  },
  {
    "code": "SS",
    "country_id": 232,
    "country_code": "GB",
    "locality_name": "Southend-on-Sea",
    "latitude": "51.562628",
    "longitude": "0.596319",
    "type": "area",
    "source": "ordnance-survey-via-dwyl"
  },
  {
    "code": "ST",
    "country_id": 232,
    "country_code": "GB",
    "locality_name": "Stoke-on-Trent",
    "latitude": "52.977754",
    "longitude": "-2.143313",
    "type": "area",
    "source": "ordnance-survey-via-dwyl"
  },
  {
    "code": "SW",
    "country_id": 232,
    "country_code": "GB",
    "locality_name": "London South West",
    "latitude": "51.461544",
    "longitude": "-0.169095",
    "type": "area",
    "source": "ordnance-survey-via-dwyl"
  },
  {
    "code": "SY",
    "country_id": 232,
    "country_code": "GB",
    "locality_name": "Shrewsbury",
    "latitude": "52.664429",
    "longitude": "-3.053734",
    "type": "area",
    "source": "ordnance-survey-via-dwyl"
  },
  {
    "code": "TA",
    "country_id": 232,
    "country_code": "GB",
    "locality_name": "Taunton",
    "latitude": "51.056469",
    "longitude": "-3.069447",
    "type": "area",
    "source": "ordnance-survey-via-dwyl"
  },
  {
    "code": "TD",
    "country_id": 232,
    "country_code": "GB",
    "locality_name": "Tweeddale",
    "latitude": "55.612197",
    "longitude": "-2.528553",
    "type": "area",
    "source": "ordnance-survey-via-dwyl"
  },
  {
    "code": "TF",
    "country_id": 232,
    "country_code": "GB",
    "locality_name": "Telford",
    "latitude": "52.716286",
    "longitude": "-2.461127",
    "type": "area",
    "source": "ordnance-survey-via-dwyl"
  },
  {
    "code": "TN",
    "country_id": 232,
    "country_code": "GB",
    "locality_name": "Tonbridge",
    "latitude": "51.083571",
    "longitude": "0.440916",
    "type": "area",
    "source": "ordnance-survey-via-dwyl"
  },
  {
    "code": "TQ",
    "country_id": 232,
    "country_code": "GB",
    "locality_name": "Torquay",
    "latitude": "50.456570",
    "longitude": "-3.621449",
    "type": "area",
    "source": "ordnance-survey-via-dwyl"
  },
  {
    "code": "TR",
    "country_id": 232,
    "country_code": "GB",
    "locality_name": "Truro",
    "latitude": "50.209610",
    "longitude": "-5.246244",
    "type": "area",
    "source": "ordnance-survey-via-dwyl"
  },
  {
    "code": "TS",
    "country_id": 232,
    "country_code": "GB",
    "locality_name": "Cleveland",
    "latitude": "54.584946",
    "longitude": "-1.221550",
    "type": "area",
    "source": "ordnance-survey-via-dwyl"
  },
  {
    "code": "TW",
    "country_id": 232,
    "country_code": "GB",
    "locality_name": "Twickenham",
    "latitude": "51.446740",
    "longitude": "-0.392521",
    "type": "area",
    "source": "ordnance-survey-via-dwyl"
  },
  {
    "code": "UB",
    "country_id": 232,
    "country_code": "GB",
    "locality_name": "Southall",
    "latitude": "51.528993",
    "longitude": "-0.416850",
    "type": "area",
    "source": "ordnance-survey-via-dwyl"
  },
  {
    "code": "W",
    "country_id": 232,
    "country_code": "GB",
    "locality_name": "London West",
    "latitude": "51.511475",
    "longitude": "-0.198404",
    "type": "area",
    "source": "ordnance-survey-via-dwyl"
  },
  {
    "code": "WA",
    "country_id": 232,
    "country_code": "GB",
    "locality_name": "Warrington",
    "latitude": "53.391221",
    "longitude": "-2.596410",
    "type": "area",
    "source": "ordnance-survey-via-dwyl"
  },
  {
    "code": "WC",
    "country_id": 232,
    "country_code": "GB",
    "locality_name": "London West Central",
    "latitude": "51.519060",
    "longitude": "-0.121656",
    "type": "area",
    "source": "ordnance-survey-via-dwyl"
  },
  {
    "code": "WD",
    "country_id": 232,
    "country_code": "GB",
    "locality_name": "Watford",
    "latitude": "51.660909",
    "longitude": "-0.390080",
    "type": "area",
    "source": "ordnance-survey-via-dwyl"
  },
  {
    "code": "WF",
    "country_id": 232,
    "country_code": "GB",
    "locality_name": "Wakefield",
    "latitude": "53.685133",
    "longitude": "-1.494541",
    "type": "area",
    "source": "ordnance-survey-via-dwyl"
  },
  {
    "code": "WN",
    "country_id": 232,
    "country_code": "GB",
    "locality_name": "Wigan",
    "latitude": "53.533858",
    "longitude": "-2.636743",
    "type": "area",
    "source": "ordnance-survey-via-dwyl"
  },
  {
    "code": "WR",
    "country_id": 232,
    "country_code": "GB",
    "locality_name": "Worcester",
    "latitude": "52.165866",
    "longitude": "-2.187254",
    "type": "area",
    "source": "ordnance-survey-via-dwyl"
  },
  {
    "code": "WS",
    "country_id": 232,
    "country_code": "GB",
    "locality_name": "Walsall",
    "latitude": "52.647770",
    "longitude": "-1.955185",
    "type": "area",
    "source": "ordnance-survey-via-dwyl"
  },
  {
    "code": "WV",
    "country_id": 232,
    "country_code": "GB",
    "locality_name": "Wolverhampton",
    "latitude": "52.671593",
    "longitude": "-2.164515",
    "type": "area",
    "source": "ordnance-survey-via-dwyl"
  },
  {
    "code": "YO",
    "country_id": 232,
    "country_code": "GB",
    "locality_name": "York",
    "latitude": "54.071206",
    "longitude": "-0.842867",
    "type": "area",
    "source": "ordnance-survey-via-dwyl"
  },
  {
    "code": "ZE",
    "country_id": 232,
    "country_code": "GB",
    "locality_name": "Shetland",
    "latitude": "60.226392",
    "longitude": "-1.201274",
    "type": "area",
    "source": "ordnance-survey-via-dwyl"
  }
]
