[
  {
    "id": 668658,
    "code": "AB",
    "country_id": 232,
    "country_code": "GB",
    "state_id": 2463,
    "state_code": "ABE",
    "city_id": null,
    "locality_name": "Aberdeen",
    "type": "area",
    "latitude": "57.29016800",
    "longitude": "-2.32021700",
    "source": "ordnance-survey-via-dwyl",
    "wikiDataId": null,
    "created_at": "2026-05-24T12:02:05",
    "updated_at": "2026-05-24T12:02:05",
    "flag": 1
  },
  {
    "id": 668659,
    "code": "AL",
    "country_id": 232,
    "country_code": "GB",
    "state_id": 2385,
    "state_code": "HRW",
    "city_id": null,
    "locality_name": "St Albans",
    "type": "area",
    "latitude": "51.77644000",
    "longitude": "-0.28618300",
    "source": "ordnance-survey-via-dwyl",
    "wikiDataId": null,
    "created_at": "2026-05-24T12:02:05",
    "updated_at": "2026-05-24T12:02:05",
    "flag": 1
  },
  {
    "id": 668660,
    "code": "B",
    "country_id": 232,
    "country_code": "GB",
    "state_id": 2425,
    "state_code": "BIR",
    "city_id": null,
    "locality_name": "Birmingham",
    "type": "area",
    "latitude": "52.46311000",
    "longitude": "-1.88860600",
    "source": "ordnance-survey-via-dwyl",
    "wikiDataId": null,
    "created_at": "2026-05-24T12:02:05",
    "updated_at": "2026-05-24T12:02:05",
    "flag": 1
  },
  {
    "id": 668661,
    "code": "BA",
    "country_id": 232,
    "country_code": "GB",
    "state_id": 2339,
    "state_code": "BAS",
    "city_id": null,
    "locality_name": "Bath",
    "type": "area",
    "latitude": "51.22081200",
    "longitude": "-2.42113400",
    "source": "ordnance-survey-via-dwyl",
    "wikiDataId": null,
    "created_at": "2026-05-24T12:02:05",
    "updated_at": "2026-05-24T12:02:05",
    "flag": 1
  },
  {
    "id": 668662,
    "code": "BB",
    "country_id": 232,
    "country_code": "GB",
    "state_id": null,
    "state_code": null,
    "city_id": null,
    "locality_name": "Blackburn",
    "type": "area",
    "latitude": "53.78500700",
    "longitude": "-2.33477100",
    "source": "ordnance-survey-via-dwyl",
    "wikiDataId": null,
    "created_at": "2026-05-24T12:02:05",
    "updated_at": "2026-05-24T12:02:05",
    "flag": 1
  },
  {
    "id": 668663,
    "code": "BD",
    "country_id": 232,
    "country_code": "GB",
    "state_id": 2529,
    "state_code": "BRD",
    "city_id": null,
    "locality_name": "Bradford",
    "type": "area",
    "latitude": "53.86486300",
    "longitude": "-1.83524400",
    "source": "ordnance-survey-via-dwyl",
    "wikiDataId": null,
    "created_at": "2026-05-24T12:02:05",
    "updated_at": "2026-05-24T12:02:05",
    "flag": 1
  },
  {
    "id": 668664,
    "code": "BH",
    "country_id": 232,
    "country_code": "GB",
    "state_id": 5459,
    "state_code": "BCP",
    "city_id": null,
    "locality_name": "Bournemouth",
    "type": "area",
    "latitude": "50.75013600",
    "longitude": "-1.89203600",
    "source": "ordnance-survey-via-dwyl",
    "wikiDataId": null,
    "created_at": "2026-05-24T12:02:05",
    "updated_at": "2026-05-24T12:02:05",
    "flag": 1
  },
  {
    "id": 668665,
    "code": "BL",
    "country_id": 232,
    "country_code": "GB",
    "state_id": 2459,
    "state_code": "BUR",
    "city_id": null,
    "locality_name": "Bolton",
    "type": "area",
    "latitude": "53.58733700",
    "longitude": "-2.40809800",
    "source": "ordnance-survey-via-dwyl",
    "wikiDataId": null,
    "created_at": "2026-05-24T12:02:05",
    "updated_at": "2026-05-24T12:02:05",
    "flag": 1
  },
  {
    "id": 668666,
    "code": "BN",
    "country_id": 232,
    "country_code": "GB",
    "state_id": 2395,
    "state_code": "BNH",
    "city_id": null,
    "locality_name": "Brighton",
    "type": "area",
    "latitude": "50.83164400",
    "longitude": "-0.11233500",
    "source": "ordnance-survey-via-dwyl",
    "wikiDataId": null,
    "created_at": "2026-05-24T12:02:05",
    "updated_at": "2026-05-24T12:02:05",
    "flag": 1
  },
  {
    "id": 668667,
    "code": "BR",
    "country_id": 232,
    "country_code": "GB",
    "state_id": null,
    "state_code": null,
    "city_id": null,
    "locality_name": "Bromley",
    "type": "area",
    "latitude": "51.39384100",
    "longitude": "0.04736400",
    "source": "ordnance-survey-via-dwyl",
    "wikiDataId": null,
    "created_at": "2026-05-24T12:02:05",
    "updated_at": "2026-05-24T12:02:05",
    "flag": 1
  },
  {
    "id": 668668,
    "code": "BS",
    "country_id": 232,
    "country_code": "GB",
    "state_id": 2413,
    "state_code": "BST",
    "city_id": null,
    "locality_name": "Bristol",
    "type": "area",
    "latitude": "51.44463600",
    "longitude": "-2.63179100",
    "source": "ordnance-survey-via-dwyl",
    "wikiDataId": null,
    "created_at": "2026-05-24T12:02:05",
    "updated_at": "2026-05-24T12:02:05",
    "flag": 1
  },
  {
    "id": 668669,
    "code": "BT",
    "country_id": 232,
    "country_code": "GB",
    "state_id": 2311,
    "state_code": "BFS",
    "city_id": null,
    "locality_name": "Belfast",
    "type": "area",
    "latitude": "54.61998700",
    "longitude": "-6.40774700",
    "source": "ordnance-survey-via-dwyl",
    "wikiDataId": null,
    "created_at": "2026-05-24T12:02:05",
    "updated_at": "2026-05-24T12:02:05",
    "flag": 1
  },
  {
    "id": 668670,
    "code": "CA",
    "country_id": 232,
    "country_code": "GB",
    "state_id": 2334,
    "state_code": "CMA",
    "city_id": null,
    "locality_name": "Carlisle",
    "type": "area",
    "latitude": "54.71966000",
    "longitude": "-3.10782000",
    "source": "ordnance-survey-via-dwyl",
    "wikiDataId": null,
    "created_at": "2026-05-24T12:02:05",
    "updated_at": "2026-05-24T12:02:05",
    "flag": 1
  },
  {
    "id": 668671,
    "code": "CB",
    "country_id": 232,
    "country_code": "GB",
    "state_id": 2423,
    "state_code": "CAM",
    "city_id": null,
    "locality_name": "Cambridge",
    "type": "area",
    "latitude": "52.20616400",
    "longitude": "0.20964800",
    "source": "ordnance-survey-via-dwyl",
    "wikiDataId": null,
    "created_at": "2026-05-24T12:02:05",
    "updated_at": "2026-05-24T12:02:05",
    "flag": 1
  },
  {
    "id": 668672,
    "code": "CF",
    "country_id": 232,
    "country_code": "GB",
    "state_id": 2528,
    "state_code": "CRF",
    "city_id": null,
    "locality_name": "Cardiff",
    "type": "area",
    "latitude": "51.55261000",
    "longitude": "-3.32816300",
    "source": "ordnance-survey-via-dwyl",
    "wikiDataId": null,
    "created_at": "2026-05-24T12:02:05",
    "updated_at": "2026-05-24T12:02:05",
    "flag": 1
  },
  {
    "id": 668673,
    "code": "CH",
    "country_id": 232,
    "country_code": "GB",
    "state_id": 2442,
    "state_code": "CHW",
    "city_id": null,
    "locality_name": "Chester",
    "type": "area",
    "latitude": "53.29220000",
    "longitude": "-3.02413100",
    "source": "ordnance-survey-via-dwyl",
    "wikiDataId": null,
    "created_at": "2026-05-24T12:02:05",
    "updated_at": "2026-05-24T12:02:05",
    "flag": 1
  },
  {
    "id": 668674,
    "code": "CM",
    "country_id": 232,
    "country_code": "GB",
    "state_id": 2410,
    "state_code": "ESS",
    "city_id": null,
    "locality_name": "Chelmsford",
    "type": "area",
    "latitude": "51.75427200",
    "longitude": "0.40015500",
    "source": "ordnance-survey-via-dwyl",
    "wikiDataId": null,
    "created_at": "2026-05-24T12:02:05",
    "updated_at": "2026-05-24T12:02:05",
    "flag": 1
  },
  {
    "id": 668675,
    "code": "CO",
    "country_id": 232,
    "country_code": "GB",
    "state_id": 2410,
    "state_code": "ESS",
    "city_id": null,
    "locality_name": "Colchester",
    "type": "area",
    "latitude": "51.90091200",
    "longitude": "0.93097100",
    "source": "ordnance-survey-via-dwyl",
    "wikiDataId": null,
    "created_at": "2026-05-24T12:02:05",
    "updated_at": "2026-05-24T12:02:05",
    "flag": 1
  },
  {
    "id": 668676,
    "code": "CR",
    "country_id": 232,
    "country_code": "GB",
    "state_id": 2512,
    "state_code": "CRY",
    "city_id": null,
    "locality_name": "Croydon",
    "type": "area",
    "latitude": "51.35659200",
    "longitude": "-0.09942000",
    "source": "ordnance-survey-via-dwyl",
    "wikiDataId": null,
    "created_at": "2026-05-24T12:02:05",
    "updated_at": "2026-05-24T12:02:05",
    "flag": 1
  },
  {
    "id": 668677,
    "code": "CT",
    "country_id": 232,
    "country_code": "GB",
    "state_id": 2390,
    "state_code": "TWH",
    "city_id": null,
    "locality_name": "Canterbury",
    "type": "area",
    "latitude": "51.25599600",
    "longitude": "1.23181500",
    "source": "ordnance-survey-via-dwyl",
    "wikiDataId": null,
    "created_at": "2026-05-24T12:02:05",
    "updated_at": "2026-05-24T12:02:05",
    "flag": 1
  },
  {
    "id": 668678,
    "code": "CV",
    "country_id": 232,
    "country_code": "GB",
    "state_id": 2438,
    "state_code": "COV",
    "city_id": null,
    "locality_name": "Coventry",
    "type": "area",
    "latitude": "52.37218000",
    "longitude": "-1.50037800",
    "source": "ordnance-survey-via-dwyl",
    "wikiDataId": null,
    "created_at": "2026-05-24T12:02:05",
    "updated_at": "2026-05-24T12:02:05",
    "flag": 1
  },
  {
    "id": 668679,
    "code": "CW",
    "country_id": 232,
    "country_code": "GB",
    "state_id": 2444,
    "state_code": "CHE",
    "city_id": null,
    "locality_name": "Crewe",
    "type": "area",
    "latitude": "53.15679100",
    "longitude": "-2.45827500",
    "source": "ordnance-survey-via-dwyl",
    "wikiDataId": null,
    "created_at": "2026-05-24T12:02:05",
    "updated_at": "2026-05-24T12:02:05",
    "flag": 1
  },
  {
    "id": 668680,
    "code": "DA",
    "country_id": 232,
    "country_code": "GB",
    "state_id": 2307,
    "state_code": "BEX",
    "city_id": null,
    "locality_name": "Dartford",
    "type": "area",
    "latitude": "51.44098400",
    "longitude": "0.22248200",
    "source": "ordnance-survey-via-dwyl",
    "wikiDataId": null,
    "created_at": "2026-05-24T12:02:05",
    "updated_at": "2026-05-24T12:02:05",
    "flag": 1
  },
  {
    "id": 668681,
    "code": "DD",
    "country_id": 232,
    "country_code": "GB",
    "state_id": 2511,
    "state_code": "DND",
    "city_id": null,
    "locality_name": "Dundee",
    "type": "area",
    "latitude": "56.54355800",
    "longitude": "-2.85370600",
    "source": "ordnance-survey-via-dwyl",
    "wikiDataId": null,
    "created_at": "2026-05-24T12:02:05",
    "updated_at": "2026-05-24T12:02:05",
    "flag": 1
  },
  {
    "id": 668682,
    "code": "DE",
    "country_id": 232,
    "country_code": "GB",
    "state_id": 2359,
    "state_code": "NGM",
    "city_id": null,
    "locality_name": "Derby",
    "type": "area",
    "latitude": "52.93114400",
    "longitude": "-1.49986900",
    "source": "ordnance-survey-via-dwyl",
    "wikiDataId": null,
    "created_at": "2026-05-24T12:02:05",
    "updated_at": "2026-05-24T12:02:05",
    "flag": 1
  },
  {
    "id": 668683,
    "code": "DG",
    "country_id": 232,
    "country_code": "GB",
    "state_id": 2415,
    "state_code": "DGY",
    "city_id": null,
    "locality_name": "Dumfries",
    "type": "area",
    "latitude": "55.02068200",
    "longitude": "-3.88418300",
    "source": "ordnance-survey-via-dwyl",
    "wikiDataId": null,
    "created_at": "2026-05-24T12:02:05",
    "updated_at": "2026-05-24T12:02:05",
    "flag": 1
  },
  {
    "id": 668684,
    "code": "DH",
    "country_id": 232,
    "country_code": "GB",
    "state_id": 2406,
    "state_code": "DUR",
    "city_id": null,
    "locality_name": "Durham",
    "type": "area",
    "latitude": "54.82585600",
    "longitude": "-1.61840700",
    "source": "ordnance-survey-via-dwyl",
    "wikiDataId": null,
    "created_at": "2026-05-24T12:02:05",
    "updated_at": "2026-05-24T12:02:05",
    "flag": 1
  },
  {
    "id": 668685,
    "code": "DL",
    "country_id": 232,
    "country_code": "GB",
    "state_id": 2389,
    "state_code": "DAL",
    "city_id": null,
    "locality_name": "Darlington",
    "type": "area",
    "latitude": "54.53277700",
    "longitude": "-1.66882600",
    "source": "ordnance-survey-via-dwyl",
    "wikiDataId": null,
    "created_at": "2026-05-24T12:02:05",
    "updated_at": "2026-05-24T12:02:05",
    "flag": 1
  },
  {
    "id": 668686,
    "code": "DN",
    "country_id": 232,
    "country_code": "GB",
    "state_id": 2364,
    "state_code": "DNC",
    "city_id": null,
    "locality_name": "Doncaster",
    "type": "area",
    "latitude": "53.54138800",
    "longitude": "-0.72427700",
    "source": "ordnance-survey-via-dwyl",
    "wikiDataId": null,
    "created_at": "2026-05-24T12:02:05",
    "updated_at": "2026-05-24T12:02:05",
    "flag": 1
  },
  {
    "id": 668687,
    "code": "DT",
    "country_id": 232,
    "country_code": "GB",
    "state_id": 2345,
    "state_code": "DOR",
    "city_id": null,
    "locality_name": "Dorchester",
    "type": "area",
    "latitude": "50.75871900",
    "longitude": "-2.48572900",
    "source": "ordnance-survey-via-dwyl",
    "wikiDataId": null,
    "created_at": "2026-05-24T12:02:05",
    "updated_at": "2026-05-24T12:02:05",
    "flag": 1
  },
  {
    "id": 668688,
    "code": "DY",
    "country_id": 232,
    "country_code": "GB",
    "state_id": 2341,
    "state_code": "SAW",
    "city_id": null,
    "locality_name": "Dudley",
    "type": "area",
    "latitude": "52.45324300",
    "longitude": "-2.18091600",
    "source": "ordnance-survey-via-dwyl",
    "wikiDataId": null,
    "created_at": "2026-05-24T12:02:05",
    "updated_at": "2026-05-24T12:02:05",
    "flag": 1
  },
  {
    "id": 668689,
    "code": "E",
    "country_id": 232,
    "country_code": "GB",
    "state_id": null,
    "state_code": null,
    "city_id": null,
    "locality_name": "London East",
    "type": "area",
    "latitude": "51.54434600",
    "longitude": "-0.01502800",
    "source": "ordnance-survey-via-dwyl",
    "wikiDataId": null,
    "created_at": "2026-05-24T12:02:05",
    "updated_at": "2026-05-24T12:02:05",
    "flag": 1
  },
  {
    "id": 668690,
    "code": "EC",
    "country_id": 232,
    "country_code": "GB",
    "state_id": null,
    "state_code": null,
    "city_id": null,
    "locality_name": "London East Central",
    "type": "area",
    "latitude": "51.52005700",
    "longitude": "-0.09778900",
    "source": "ordnance-survey-via-dwyl",
    "wikiDataId": null,
    "created_at": "2026-05-24T12:02:05",
    "updated_at": "2026-05-24T12:02:05",
    "flag": 1
  },
  {
    "id": 668691,
    "code": "EH",
    "country_id": 232,
    "country_code": "GB",
    "state_id": 2428,
    "state_code": "EDH",
    "city_id": null,
    "locality_name": "Edinburgh",
    "type": "area",
    "latitude": "55.92356600",
    "longitude": "-3.22870200",
    "source": "ordnance-survey-via-dwyl",
    "wikiDataId": null,
    "created_at": "2026-05-24T12:02:05",
    "updated_at": "2026-05-24T12:02:05",
    "flag": 1
  },
  {
    "id": 668692,
    "code": "EN",
    "country_id": 232,
    "country_code": "GB",
    "state_id": null,
    "state_code": null,
    "city_id": null,
    "locality_name": "Enfield",
    "type": "area",
    "latitude": "52.02905700",
    "longitude": "-0.08308200",
    "source": "ordnance-survey-via-dwyl",
    "wikiDataId": null,
    "created_at": "2026-05-24T12:02:05",
    "updated_at": "2026-05-24T12:02:05",
    "flag": 1
  },
  {
    "id": 668693,
    "code": "EX",
    "country_id": 232,
    "country_code": "GB",
    "state_id": 2491,
    "state_code": "DEV",
    "city_id": null,
    "locality_name": "Exeter",
    "type": "area",
    "latitude": "50.83368300",
    "longitude": "-3.67613700",
    "source": "ordnance-survey-via-dwyl",
    "wikiDataId": null,
    "created_at": "2026-05-24T12:02:05",
    "updated_at": "2026-05-24T12:02:05",
    "flag": 1
  },
  {
    "id": 668694,
    "code": "FK",
    "country_id": 232,
    "country_code": "GB",
    "state_id": 2344,
    "state_code": "FAL",
    "city_id": null,
    "locality_name": "Falkirk",
    "type": "area",
    "latitude": "56.07781800",
    "longitude": "-3.86006000",
    "source": "ordnance-survey-via-dwyl",
    "wikiDataId": null,
    "created_at": "2026-05-24T12:02:05",
    "updated_at": "2026-05-24T12:02:05",
    "flag": 1
  },
  {
    "id": 668695,
    "code": "FY",
    "country_id": 232,
    "country_code": "GB",
    "state_id": null,
    "state_code": null,
    "city_id": null,
    "locality_name": "Blackpool (Fylde)",
    "type": "area",
    "latitude": "53.82744700",
    "longitude": "-3.02052400",
    "source": "ordnance-survey-via-dwyl",
    "wikiDataId": null,
    "created_at": "2026-05-24T12:02:05",
    "updated_at": "2026-05-24T12:02:05",
    "flag": 1
  },
  {
    "id": 668696,
    "code": "G",
    "country_id": 232,
    "country_code": "GB",
    "state_id": 2404,
    "state_code": "GLG",
    "city_id": null,
    "locality_name": "Glasgow",
    "type": "area",
    "latitude": "55.86927600",
    "longitude": "-4.27119600",
    "source": "ordnance-survey-via-dwyl",
    "wikiDataId": null,
    "created_at": "2026-05-24T12:02:05",
    "updated_at": "2026-05-24T12:02:05",
    "flag": 1
  },
  {
    "id": 668697,
    "code": "GL",
    "country_id": 232,
    "country_code": "GB",
    "state_id": 2373,
    "state_code": "GLS",
    "city_id": null,
    "locality_name": "Gloucester",
    "type": "area",
    "latitude": "51.83247700",
    "longitude": "-2.17974000",
    "source": "ordnance-survey-via-dwyl",
    "wikiDataId": null,
    "created_at": "2026-05-24T12:02:05",
    "updated_at": "2026-05-24T12:02:05",
    "flag": 1
  },
  {
    "id": 668698,
    "code": "GU",
    "country_id": 232,
    "country_code": "GB",
    "state_id": 2526,
    "state_code": "SRY",
    "city_id": null,
    "locality_name": "Guildford",
    "type": "area",
    "latitude": "51.22152600",
    "longitude": "-0.71924600",
    "source": "ordnance-survey-via-dwyl",
    "wikiDataId": null,
    "created_at": "2026-05-24T12:02:05",
    "updated_at": "2026-05-24T12:02:05",
    "flag": 1
  },
  {
    "id": 668699,
    "code": "GY",
    "country_id": 232,
    "country_code": "GB",
    "state_id": null,
    "state_code": null,
    "city_id": null,
    "locality_name": "Guernsey",
    "type": "area",
    "latitude": null,
    "longitude": null,
    "source": "ordnance-survey-via-dwyl",
    "wikiDataId": null,
    "created_at": "2026-05-24T12:02:05",
    "updated_at": "2026-05-24T12:02:05",
    "flag": 1
  },
  {
    "id": 668700,
    "code": "HA",
    "country_id": 232,
    "country_code": "GB",
    "state_id": null,
    "state_code": null,
    "city_id": null,
    "locality_name": "Harrow",
    "type": "area",
    "latitude": "51.58689300",
    "longitude": "-0.33927800",
    "source": "ordnance-survey-via-dwyl",
    "wikiDataId": null,
    "created_at": "2026-05-24T12:02:05",
    "updated_at": "2026-05-24T12:02:05",
    "flag": 1
  },
  {
    "id": 668701,
    "code": "HD",
    "country_id": 232,
    "country_code": "GB",
    "state_id": 2371,
    "state_code": "KIR",
    "city_id": null,
    "locality_name": "Huddersfield",
    "type": "area",
    "latitude": "53.63434000",
    "longitude": "-1.78193300",
    "source": "ordnance-survey-via-dwyl",
    "wikiDataId": null,
    "created_at": "2026-05-24T12:02:05",
    "updated_at": "2026-05-24T12:02:05",
    "flag": 1
  },
  {
    "id": 668702,
    "code": "HG",
    "country_id": 232,
    "country_code": "GB",
    "state_id": 2522,
    "state_code": "NYK",
    "city_id": null,
    "locality_name": "Harrogate",
    "type": "area",
    "latitude": "54.04235700",
    "longitude": "-1.55267500",
    "source": "ordnance-survey-via-dwyl",
    "wikiDataId": null,
    "created_at": "2026-05-24T12:02:05",
    "updated_at": "2026-05-24T12:02:05",
    "flag": 1
  },
  {
    "id": 668703,
    "code": "HP",
    "country_id": 232,
    "country_code": "GB",
    "state_id": 5460,
    "state_code": "LUT",
    "city_id": null,
    "locality_name": "Hemel Hempstead",
    "type": "area",
    "latitude": "51.72427000",
    "longitude": "-0.68920300",
    "source": "ordnance-survey-via-dwyl",
    "wikiDataId": null,
    "created_at": "2026-05-24T12:02:05",
    "updated_at": "2026-05-24T12:02:05",
    "flag": 1
  },
  {
    "id": 668704,
    "code": "HR",
    "country_id": 232,
    "country_code": "GB",
    "state_id": 2500,
    "state_code": "HEF",
    "city_id": null,
    "locality_name": "Hereford",
    "type": "area",
    "latitude": "52.06819900",
    "longitude": "-2.72635100",
    "source": "ordnance-survey-via-dwyl",
    "wikiDataId": null,
    "created_at": "2026-05-24T12:02:05",
    "updated_at": "2026-05-24T12:02:05",
    "flag": 1
  },
  {
    "id": 668705,
    "code": "HS",
    "country_id": 232,
    "country_code": "GB",
    "state_id": null,
    "state_code": null,
    "city_id": null,
    "locality_name": "Outer Hebrides",
    "type": "area",
    "latitude": "57.96923500",
    "longitude": "-6.70560200",
    "source": "ordnance-survey-via-dwyl",
    "wikiDataId": null,
    "created_at": "2026-05-24T12:02:05",
    "updated_at": "2026-05-24T12:02:05",
    "flag": 1
  },
  {
    "id": 668706,
    "code": "HU",
    "country_id": 232,
    "country_code": "GB",
    "state_id": null,
    "state_code": null,
    "city_id": null,
    "locality_name": "Hull",
    "type": "area",
    "latitude": "53.77070000",
    "longitude": "-0.35111000",
    "source": "ordnance-survey-via-dwyl",
    "wikiDataId": null,
    "created_at": "2026-05-24T12:02:05",
    "updated_at": "2026-05-24T12:02:05",
    "flag": 1
  },
  {
    "id": 668707,
    "code": "HX",
    "country_id": 232,
    "country_code": "GB",
    "state_id": 2517,
    "state_code": "CLD",
    "city_id": null,
    "locality_name": "Halifax",
    "type": "area",
    "latitude": "53.71954600",
    "longitude": "-1.89563600",
    "source": "ordnance-survey-via-dwyl",
    "wikiDataId": null,
    "created_at": "2026-05-24T12:02:05",
    "updated_at": "2026-05-24T12:02:05",
    "flag": 1
  },
  {
    "id": 668708,
    "code": "IG",
    "country_id": 232,
    "country_code": "GB",
    "state_id": null,
    "state_code": null,
    "city_id": null,
    "locality_name": "Ilford",
    "type": "area",
    "latitude": "51.58789500",
    "longitude": "0.07395000",
    "source": "ordnance-survey-via-dwyl",
    "wikiDataId": null,
    "created_at": "2026-05-24T12:02:05",
    "updated_at": "2026-05-24T12:02:05",
    "flag": 1
  },
  {
    "id": 668709,
    "code": "IM",
    "country_id": 232,
    "country_code": "GB",
    "state_id": null,
    "state_code": null,
    "city_id": null,
    "locality_name": "Isle of Man",
    "type": "area",
    "latitude": null,
    "longitude": null,
    "source": "ordnance-survey-via-dwyl",
    "wikiDataId": null,
    "created_at": "2026-05-24T12:02:05",
    "updated_at": "2026-05-24T12:02:05",
    "flag": 1
  },
  {
    "id": 668710,
    "code": "IP",
    "country_id": 232,
    "country_code": "GB",
    "state_id": 2467,
    "state_code": "SFK",
    "city_id": null,
    "locality_name": "Ipswich",
    "type": "area",
    "latitude": "52.20302200",
    "longitude": "1.08246700",
    "source": "ordnance-survey-via-dwyl",
    "wikiDataId": null,
    "created_at": "2026-05-24T12:02:05",
    "updated_at": "2026-05-24T12:02:05",
    "flag": 1
  },
  {
    "id": 668711,
    "code": "IV",
    "country_id": 232,
    "country_code": "GB",
    "state_id": 2383,
    "state_code": "HLD",
    "city_id": null,
    "locality_name": "Inverness",
    "type": "area",
    "latitude": "57.59725900",
    "longitude": "-4.19368900",
    "source": "ordnance-survey-via-dwyl",
    "wikiDataId": null,
    "created_at": "2026-05-24T12:02:05",
    "updated_at": "2026-05-24T12:02:05",
    "flag": 1
  },
  {
    "id": 668712,
    "code": "JE",
    "country_id": 232,
    "country_code": "GB",
    "state_id": null,
    "state_code": null,
    "city_id": null,
    "locality_name": "Jersey",
    "type": "area",
    "latitude": null,
    "longitude": null,
    "source": "ordnance-survey-via-dwyl",
    "wikiDataId": null,
    "created_at": "2026-05-24T12:02:05",
    "updated_at": "2026-05-24T12:02:05",
    "flag": 1
  },
  {
    "id": 668713,
    "code": "KA",
    "country_id": 232,
    "country_code": "GB",
    "state_id": 2333,
    "state_code": "ERW",
    "city_id": null,
    "locality_name": "Kilmarnock",
    "type": "area",
    "latitude": "55.56387700",
    "longitude": "-4.60415300",
    "source": "ordnance-survey-via-dwyl",
    "wikiDataId": null,
    "created_at": "2026-05-24T12:02:05",
    "updated_at": "2026-05-24T12:02:05",
    "flag": 1
  },
  {
    "id": 668714,
    "code": "KT",
    "country_id": 232,
    "country_code": "GB",
    "state_id": 2501,
    "state_code": "RIC",
    "city_id": null,
    "locality_name": "Kingston upon Thames",
    "type": "area",
    "latitude": "51.35776800",
    "longitude": "-0.34323600",
    "source": "ordnance-survey-via-dwyl",
    "wikiDataId": null,
    "created_at": "2026-05-24T12:02:05",
    "updated_at": "2026-05-24T12:02:05",
    "flag": 1
  },
  {
    "id": 668715,
    "code": "KW",
    "country_id": 232,
    "country_code": "GB",
    "state_id": 2474,
    "state_code": "ORK",
    "city_id": null,
    "locality_name": "Kirkwall",
    "type": "area",
    "latitude": "58.65488000",
    "longitude": "-3.28779300",
    "source": "ordnance-survey-via-dwyl",
    "wikiDataId": null,
    "created_at": "2026-05-24T12:02:05",
    "updated_at": "2026-05-24T12:02:05",
    "flag": 1
  },
  {
    "id": 668716,
    "code": "KY",
    "country_id": 232,
    "country_code": "GB",
    "state_id": 2428,
    "state_code": "EDH",
    "city_id": null,
    "locality_name": "Kirkcaldy",
    "type": "area",
    "latitude": "56.16499600",
    "longitude": "-3.19854200",
    "source": "ordnance-survey-via-dwyl",
    "wikiDataId": null,
    "created_at": "2026-05-24T12:02:05",
    "updated_at": "2026-05-24T12:02:05",
    "flag": 1
  },
  {
    "id": 668717,
    "code": "L",
    "country_id": 232,
    "country_code": "GB",
    "state_id": 2340,
    "state_code": "LIV",
    "city_id": null,
    "locality_name": "Liverpool",
    "type": "area",
    "latitude": "53.44218100",
    "longitude": "-2.92590100",
    "source": "ordnance-survey-via-dwyl",
    "wikiDataId": null,
    "created_at": "2026-05-24T12:02:05",
    "updated_at": "2026-05-24T12:02:05",
    "flag": 1
  },
  {
    "id": 668718,
    "code": "LA",
    "country_id": 232,
    "country_code": "GB",
    "state_id": 2495,
    "state_code": "LAN",
    "city_id": null,
    "locality_name": "Lancaster",
    "type": "area",
    "latitude": "54.17283200",
    "longitude": "-2.90694300",
    "source": "ordnance-survey-via-dwyl",
    "wikiDataId": null,
    "created_at": "2026-05-24T12:02:05",
    "updated_at": "2026-05-24T12:02:05",
    "flag": 1
  },
  {
    "id": 668719,
    "code": "LD",
    "country_id": 232,
    "country_code": "GB",
    "state_id": 2441,
    "state_code": "POW",
    "city_id": null,
    "locality_name": "Llandrindod Wells",
    "type": "area",
    "latitude": "52.13091700",
    "longitude": "-3.34031000",
    "source": "ordnance-survey-via-dwyl",
    "wikiDataId": null,
    "created_at": "2026-05-24T12:02:05",
    "updated_at": "2026-05-24T12:02:05",
    "flag": 1
  },
  {
    "id": 668720,
    "code": "LE",
    "country_id": 232,
    "country_code": "GB",
    "state_id": 2318,
    "state_code": "LCE",
    "city_id": null,
    "locality_name": "Leicester",
    "type": "area",
    "latitude": "52.64324100",
    "longitude": "-1.13535000",
    "source": "ordnance-survey-via-dwyl",
    "wikiDataId": null,
    "created_at": "2026-05-24T12:02:05",
    "updated_at": "2026-05-24T12:02:05",
    "flag": 1
  },
  {
    "id": 668721,
    "code": "LL",
    "country_id": 232,
    "country_code": "GB",
    "state_id": 2352,
    "state_code": "CWY",
    "city_id": null,
    "locality_name": "Llandudno",
    "type": "area",
    "latitude": "53.12815600",
    "longitude": "-3.72744500",
    "source": "ordnance-survey-via-dwyl",
    "wikiDataId": null,
    "created_at": "2026-05-24T12:02:05",
    "updated_at": "2026-05-24T12:02:05",
    "flag": 1
  },
  {
    "id": 668722,
    "code": "LN",
    "country_id": 232,
    "country_code": "GB",
    "state_id": 2355,
    "state_code": "LIN",
    "city_id": null,
    "locality_name": "Lincoln",
    "type": "area",
    "latitude": "53.25541800",
    "longitude": "-0.34863400",
    "source": "ordnance-survey-via-dwyl",
    "wikiDataId": null,
    "created_at": "2026-05-24T12:02:05",
    "updated_at": "2026-05-24T12:02:05",
    "flag": 1
  },
  {
    "id": 668723,
    "code": "LS",
    "country_id": 232,
    "country_code": "GB",
    "state_id": 2503,
    "state_code": "LDS",
    "city_id": null,
    "locality_name": "Leeds",
    "type": "area",
    "latitude": "53.82270300",
    "longitude": "-1.55385600",
    "source": "ordnance-survey-via-dwyl",
    "wikiDataId": null,
    "created_at": "2026-05-24T12:02:05",
    "updated_at": "2026-05-24T12:02:05",
    "flag": 1
  },
  {
    "id": 668724,
    "code": "LU",
    "country_id": 232,
    "country_code": "GB",
    "state_id": 5460,
    "state_code": "LUT",
    "city_id": null,
    "locality_name": "Luton",
    "type": "area",
    "latitude": "51.89619700",
    "longitude": "-0.50144100",
    "source": "ordnance-survey-via-dwyl",
    "wikiDataId": null,
    "created_at": "2026-05-24T12:02:05",
    "updated_at": "2026-05-24T12:02:05",
    "flag": 1
  },
  {
    "id": 668725,
    "code": "M",
    "country_id": 232,
    "country_code": "GB",
    "state_id": 2394,
    "state_code": "SKP",
    "city_id": null,
    "locality_name": "Manchester",
    "type": "area",
    "latitude": "53.47683000",
    "longitude": "-2.26987200",
    "source": "ordnance-survey-via-dwyl",
    "wikiDataId": null,
    "created_at": "2026-05-24T12:02:05",
    "updated_at": "2026-05-24T12:02:05",
    "flag": 1
  },
  {
    "id": 668726,
    "code": "ME",
    "country_id": 232,
    "country_code": "GB",
    "state_id": 2381,
    "state_code": "MDW",
    "city_id": null,
    "locality_name": "Medway",
    "type": "area",
    "latitude": "51.33255900",
    "longitude": "0.58906900",
    "source": "ordnance-survey-via-dwyl",
    "wikiDataId": null,
    "created_at": "2026-05-24T12:02:05",
    "updated_at": "2026-05-24T12:02:05",
    "flag": 1
  },
  {
    "id": 668727,
    "code": "MK",
    "country_id": 232,
    "country_code": "GB",
    "state_id": 2416,
    "state_code": "MIK",
    "city_id": null,
    "locality_name": "Milton Keynes",
    "type": "area",
    "latitude": "52.06329700",
    "longitude": "-0.66160800",
    "source": "ordnance-survey-via-dwyl",
    "wikiDataId": null,
    "created_at": "2026-05-24T12:02:05",
    "updated_at": "2026-05-24T12:02:05",
    "flag": 1
  },
  {
    "id": 668728,
    "code": "ML",
    "country_id": 232,
    "country_code": "GB",
    "state_id": 2487,
    "state_code": "NLK",
    "city_id": null,
    "locality_name": "Motherwell",
    "type": "area",
    "latitude": "55.77507900",
    "longitude": "-3.94086700",
    "source": "ordnance-survey-via-dwyl",
    "wikiDataId": null,
    "created_at": "2026-05-24T12:02:05",
    "updated_at": "2026-05-24T12:02:05",
    "flag": 1
  },
  {
    "id": 668729,
    "code": "N",
    "country_id": 232,
    "country_code": "GB",
    "state_id": null,
    "state_code": null,
    "city_id": null,
    "locality_name": "London North",
    "type": "area",
    "latitude": "51.58454900",
    "longitude": "-0.11274300",
    "source": "ordnance-survey-via-dwyl",
    "wikiDataId": null,
    "created_at": "2026-05-24T12:02:05",
    "updated_at": "2026-05-24T12:02:05",
    "flag": 1
  },
  {
    "id": 668730,
    "code": "NE",
    "country_id": 232,
    "country_code": "GB",
    "state_id": 2458,
    "state_code": "NET",
    "city_id": null,
    "locality_name": "Newcastle upon Tyne",
    "type": "area",
    "latitude": "55.04124000",
    "longitude": "-1.65036900",
    "source": "ordnance-survey-via-dwyl",
    "wikiDataId": null,
    "created_at": "2026-05-24T12:02:05",
    "updated_at": "2026-05-24T12:02:05",
    "flag": 1
  },
  {
    "id": 668731,
    "code": "NG",
    "country_id": 232,
    "country_code": "GB",
    "state_id": 2359,
    "state_code": "NGM",
    "city_id": null,
    "locality_name": "Nottingham",
    "type": "area",
    "latitude": "53.00993100",
    "longitude": "-1.06419900",
    "source": "ordnance-survey-via-dwyl",
    "wikiDataId": null,
    "created_at": "2026-05-24T12:02:05",
    "updated_at": "2026-05-24T12:02:05",
    "flag": 1
  },
  {
    "id": 668732,
    "code": "NN",
    "country_id": 232,
    "country_code": "GB",
    "state_id": 5461,
    "state_code": "NNH",
    "city_id": null,
    "locality_name": "Northampton",
    "type": "area",
    "latitude": "52.29636000",
    "longitude": "-0.83432100",
    "source": "ordnance-survey-via-dwyl",
    "wikiDataId": null,
    "created_at": "2026-05-24T12:02:05",
    "updated_at": "2026-05-24T12:02:05",
    "flag": 1
  },
  {
    "id": 668733,
    "code": "NP",
    "country_id": 232,
    "country_code": "GB",
    "state_id": null,
    "state_code": null,
    "city_id": null,
    "locality_name": "Newport",
    "type": "area",
    "latitude": "51.68381600",
    "longitude": "-3.01948400",
    "source": "ordnance-survey-via-dwyl",
    "wikiDataId": null,
    "created_at": "2026-05-24T12:02:05",
    "updated_at": "2026-05-24T12:02:05",
    "flag": 1
  },
  {
    "id": 668734,
    "code": "NR",
    "country_id": 232,
    "country_code": "GB",
    "state_id": 2473,
    "state_code": "NFK",
    "city_id": null,
    "locality_name": "Norwich",
    "type": "area",
    "latitude": "52.64752400",
    "longitude": "1.33680400",
    "source": "ordnance-survey-via-dwyl",
    "wikiDataId": null,
    "created_at": "2026-05-24T12:02:05",
    "updated_at": "2026-05-24T12:02:05",
    "flag": 1
  },
  {
    "id": 668735,
    "code": "NW",
    "country_id": 232,
    "country_code": "GB",
    "state_id": null,
    "state_code": null,
    "city_id": null,
    "locality_name": "London North West",
    "type": "area",
    "latitude": "51.55508900",
    "longitude": "-0.19649900",
    "source": "ordnance-survey-via-dwyl",
    "wikiDataId": null,
    "created_at": "2026-05-24T12:02:05",
    "updated_at": "2026-05-24T12:02:05",
    "flag": 1
  },
  {
    "id": 668736,
    "code": "OL",
    "country_id": 232,
    "country_code": "GB",
    "state_id": 2477,
    "state_code": "OLD",
    "city_id": null,
    "locality_name": "Oldham",
    "type": "area",
    "latitude": "53.58353100",
    "longitude": "-2.12465200",
    "source": "ordnance-survey-via-dwyl",
    "wikiDataId": null,
    "created_at": "2026-05-24T12:02:05",
    "updated_at": "2026-05-24T12:02:05",
    "flag": 1
  },
  {
    "id": 668737,
    "code": "OX",
    "country_id": 232,
    "country_code": "GB",
    "state_id": 2321,
    "state_code": "OXF",
    "city_id": null,
    "locality_name": "Oxford",
    "type": "area",
    "latitude": "51.79197100",
    "longitude": "-1.29359200",
    "source": "ordnance-survey-via-dwyl",
    "wikiDataId": null,
    "created_at": "2026-05-24T12:02:05",
    "updated_at": "2026-05-24T12:02:05",
    "flag": 1
  },
  {
    "id": 668738,
    "code": "PA",
    "country_id": 232,
    "country_code": "GB",
    "state_id": 2443,
    "state_code": "RFW",
    "city_id": null,
    "locality_name": "Paisley",
    "type": "area",
    "latitude": "55.92082700",
    "longitude": "-4.79052400",
    "source": "ordnance-survey-via-dwyl",
    "wikiDataId": null,
    "created_at": "2026-05-24T12:02:05",
    "updated_at": "2026-05-24T12:02:05",
    "flag": 1
  },
  {
    "id": 668739,
    "code": "PE",
    "country_id": 232,
    "country_code": "GB",
    "state_id": 2297,
    "state_code": "PTE",
    "city_id": null,
    "locality_name": "Peterborough",
    "type": "area",
    "latitude": "52.67011200",
    "longitude": "-0.00885000",
    "source": "ordnance-survey-via-dwyl",
    "wikiDataId": null,
    "created_at": "2026-05-24T12:02:05",
    "updated_at": "2026-05-24T12:02:05",
    "flag": 1
  },
  {
    "id": 668740,
    "code": "PH",
    "country_id": 232,
    "country_code": "GB",
    "state_id": 2325,
    "state_code": "PKN",
    "city_id": null,
    "locality_name": "Perth",
    "type": "area",
    "latitude": "56.56921900",
    "longitude": "-3.73973600",
    "source": "ordnance-survey-via-dwyl",
    "wikiDataId": null,
    "created_at": "2026-05-24T12:02:05",
    "updated_at": "2026-05-24T12:02:05",
    "flag": 1
  },
  {
    "id": 668741,
    "code": "PL",
    "country_id": 232,
    "country_code": "GB",
    "state_id": 2514,
    "state_code": "PLY",
    "city_id": null,
    "locality_name": "Plymouth",
    "type": "area",
    "latitude": "50.43174600",
    "longitude": "-4.33887000",
    "source": "ordnance-survey-via-dwyl",
    "wikiDataId": null,
    "created_at": "2026-05-24T12:02:05",
    "updated_at": "2026-05-24T12:02:05",
    "flag": 1
  },
  {
    "id": 668742,
    "code": "PO",
    "country_id": 232,
    "country_code": "GB",
    "state_id": null,
    "state_code": null,
    "city_id": null,
    "locality_name": "Portsmouth",
    "type": "area",
    "latitude": "50.79968800",
    "longitude": "-1.04787300",
    "source": "ordnance-survey-via-dwyl",
    "wikiDataId": null,
    "created_at": "2026-05-24T12:02:05",
    "updated_at": "2026-05-24T12:02:05",
    "flag": 1
  },
  {
    "id": 668743,
    "code": "PR",
    "country_id": 232,
    "country_code": "GB",
    "state_id": 2495,
    "state_code": "LAN",
    "city_id": null,
    "locality_name": "Preston",
    "type": "area",
    "latitude": "53.72357000",
    "longitude": "-2.75460900",
    "source": "ordnance-survey-via-dwyl",
    "wikiDataId": null,
    "created_at": "2026-05-24T12:02:05",
    "updated_at": "2026-05-24T12:02:05",
    "flag": 1
  },
  {
    "id": 668744,
    "code": "RG",
    "country_id": 232,
    "country_code": "GB",
    "state_id": 2455,
    "state_code": "RDG",
    "city_id": null,
    "locality_name": "Reading",
    "type": "area",
    "latitude": "51.40321100",
    "longitude": "-1.03408700",
    "source": "ordnance-survey-via-dwyl",
    "wikiDataId": null,
    "created_at": "2026-05-24T12:02:05",
    "updated_at": "2026-05-24T12:02:05",
    "flag": 1
  },
  {
    "id": 668745,
    "code": "RH",
    "country_id": 232,
    "country_code": "GB",
    "state_id": 2526,
    "state_code": "SRY",
    "city_id": null,
    "locality_name": "Redhill",
    "type": "area",
    "latitude": "51.10836500",
    "longitude": "-0.21002100",
    "source": "ordnance-survey-via-dwyl",
    "wikiDataId": null,
    "created_at": "2026-05-24T12:02:05",
    "updated_at": "2026-05-24T12:02:05",
    "flag": 1
  },
  {
    "id": 668746,
    "code": "RM",
    "country_id": 232,
    "country_code": "GB",
    "state_id": 2356,
    "state_code": "BDG",
    "city_id": null,
    "locality_name": "Romford",
    "type": "area",
    "latitude": "51.54869600",
    "longitude": "0.21758800",
    "source": "ordnance-survey-via-dwyl",
    "wikiDataId": null,
    "created_at": "2026-05-24T12:02:05",
    "updated_at": "2026-05-24T12:02:05",
    "flag": 1
  },
  {
    "id": 668747,
    "code": "S",
    "country_id": 232,
    "country_code": "GB",
    "state_id": 2295,
    "state_code": "SHF",
    "city_id": null,
    "locality_name": "Sheffield",
    "type": "area",
    "latitude": "53.39720500",
    "longitude": "-1.40681500",
    "source": "ordnance-survey-via-dwyl",
    "wikiDataId": null,
    "created_at": "2026-05-24T12:02:05",
    "updated_at": "2026-05-24T12:02:05",
    "flag": 1
  },
  {
    "id": 668748,
    "code": "SA",
    "country_id": 232,
    "country_code": "GB",
    "state_id": 2433,
    "state_code": "SWA",
    "city_id": null,
    "locality_name": "Swansea",
    "type": "area",
    "latitude": "51.77092500",
    "longitude": "-4.22510800",
    "source": "ordnance-survey-via-dwyl",
    "wikiDataId": null,
    "created_at": "2026-05-24T12:02:05",
    "updated_at": "2026-05-24T12:02:05",
    "flag": 1
  },
  {
    "id": 668749,
    "code": "SE",
    "country_id": 232,
    "country_code": "GB",
    "state_id": null,
    "state_code": null,
    "city_id": null,
    "locality_name": "London South East",
    "type": "area",
    "latitude": "51.46662200",
    "longitude": "-0.03314500",
    "source": "ordnance-survey-via-dwyl",
    "wikiDataId": null,
    "created_at": "2026-05-24T12:02:05",
    "updated_at": "2026-05-24T12:02:05",
    "flag": 1
  },
  {
    "id": 668750,
    "code": "SG",
    "country_id": 232,
    "country_code": "GB",
    "state_id": 2369,
    "state_code": "HRT",
    "city_id": null,
    "locality_name": "Stevenage",
    "type": "area",
    "latitude": "51.95073600",
    "longitude": "-0.15787700",
    "source": "ordnance-survey-via-dwyl",
    "wikiDataId": null,
    "created_at": "2026-05-24T12:02:05",
    "updated_at": "2026-05-24T12:02:05",
    "flag": 1
  },
  {
    "id": 668751,
    "code": "SK",
    "country_id": 232,
    "country_code": "GB",
    "state_id": 2394,
    "state_code": "SKP",
    "city_id": null,
    "locality_name": "Stockport",
    "type": "area",
    "latitude": "53.37027800",
    "longitude": "-2.09894300",
    "source": "ordnance-survey-via-dwyl",
    "wikiDataId": null,
    "created_at": "2026-05-24T12:02:05",
    "updated_at": "2026-05-24T12:02:05",
    "flag": 1
  },
  {
    "id": 668752,
    "code": "SL",
    "country_id": 232,
    "country_code": "GB",
    "state_id": 2427,
    "state_code": "SLG",
    "city_id": null,
    "locality_name": "Slough",
    "type": "area",
    "latitude": "51.51606100",
    "longitude": "-0.64420800",
    "source": "ordnance-survey-via-dwyl",
    "wikiDataId": null,
    "created_at": "2026-05-24T12:02:05",
    "updated_at": "2026-05-24T12:02:05",
    "flag": 1
  },
  {
    "id": 668753,
    "code": "SM",
    "country_id": 232,
    "country_code": "GB",
    "state_id": 2313,
    "state_code": "STN",
    "city_id": null,
    "locality_name": "Sutton",
    "type": "area",
    "latitude": "51.36332300",
    "longitude": "-0.18557000",
    "source": "ordnance-survey-via-dwyl",
    "wikiDataId": null,
    "created_at": "2026-05-24T12:02:05",
    "updated_at": "2026-05-24T12:02:05",
    "flag": 1
  },
  {
    "id": 668754,
    "code": "SN",
    "country_id": 232,
    "country_code": "GB",
    "state_id": 2422,
    "state_code": "SWD",
    "city_id": null,
    "locality_name": "Swindon",
    "type": "area",
    "latitude": "51.49821100",
    "longitude": "-1.90719800",
    "source": "ordnance-survey-via-dwyl",
    "wikiDataId": null,
    "created_at": "2026-05-24T12:02:05",
    "updated_at": "2026-05-24T12:02:05",
    "flag": 1
  },
  {
    "id": 668755,
    "code": "SO",
    "country_id": 232,
    "country_code": "GB",
    "state_id": null,
    "state_code": null,
    "city_id": null,
    "locality_name": "Southampton",
    "type": "area",
    "latitude": "50.93898900",
    "longitude": "-1.38783100",
    "source": "ordnance-survey-via-dwyl",
    "wikiDataId": null,
    "created_at": "2026-05-24T12:02:05",
    "updated_at": "2026-05-24T12:02:05",
    "flag": 1
  },
  {
    "id": 668756,
    "code": "SP",
    "country_id": 232,
    "country_code": "GB",
    "state_id": 2391,
    "state_code": "WIL",
    "city_id": null,
    "locality_name": "Salisbury",
    "type": "area",
    "latitude": "51.10618200",
    "longitude": "-1.79024200",
    "source": "ordnance-survey-via-dwyl",
    "wikiDataId": null,
    "created_at": "2026-05-24T12:02:05",
    "updated_at": "2026-05-24T12:02:05",
    "flag": 1
  },
  {
    "id": 668757,
    "code": "SR",
    "country_id": 232,
    "country_code": "GB",
    "state_id": 2372,
    "state_code": "SND",
    "city_id": null,
    "locality_name": "Sunderland",
    "type": "area",
    "latitude": "54.87395300",
    "longitude": "-1.38918600",
    "source": "ordnance-survey-via-dwyl",
    "wikiDataId": null,
    "created_at": "2026-05-24T12:02:05",
    "updated_at": "2026-05-24T12:02:05",
    "flag": 1
  },
  {
    "id": 668758,
    "code": "SS",
    "country_id": 232,
    "country_code": "GB",
    "state_id": 2323,
    "state_code": "SOS",
    "city_id": null,
    "locality_name": "Southend-on-Sea",
    "type": "area",
    "latitude": "51.56262800",
    "longitude": "0.59631900",
    "source": "ordnance-survey-via-dwyl",
    "wikiDataId": null,
    "created_at": "2026-05-24T12:02:05",
    "updated_at": "2026-05-24T12:02:05",
    "flag": 1
  },
  {
    "id": 668759,
    "code": "ST",
    "country_id": 232,
    "country_code": "GB",
    "state_id": 2506,
    "state_code": "STE",
    "city_id": null,
    "locality_name": "Stoke-on-Trent",
    "type": "area",
    "latitude": "52.97775400",
    "longitude": "-2.14331300",
    "source": "ordnance-survey-via-dwyl",
    "wikiDataId": null,
    "created_at": "2026-05-24T12:02:05",
    "updated_at": "2026-05-24T12:02:05",
    "flag": 1
  },
  {
    "id": 668760,
    "code": "SW",
    "country_id": 232,
    "country_code": "GB",
    "state_id": null,
    "state_code": null,
    "city_id": null,
    "locality_name": "London South West",
    "type": "area",
    "latitude": "51.46154400",
    "longitude": "-0.16909500",
    "source": "ordnance-survey-via-dwyl",
    "wikiDataId": null,
    "created_at": "2026-05-24T12:02:05",
    "updated_at": "2026-05-24T12:02:05",
    "flag": 1
  },
  {
    "id": 668761,
    "code": "SY",
    "country_id": 232,
    "country_code": "GB",
    "state_id": 2407,
    "state_code": "SHR",
    "city_id": null,
    "locality_name": "Shrewsbury",
    "type": "area",
    "latitude": "52.66442900",
    "longitude": "-3.05373400",
    "source": "ordnance-survey-via-dwyl",
    "wikiDataId": null,
    "created_at": "2026-05-24T12:02:05",
    "updated_at": "2026-05-24T12:02:05",
    "flag": 1
  },
  {
    "id": 668762,
    "code": "TA",
    "country_id": 232,
    "country_code": "GB",
    "state_id": 2386,
    "state_code": "SOM",
    "city_id": null,
    "locality_name": "Taunton",
    "type": "area",
    "latitude": "51.05646900",
    "longitude": "-3.06944700",
    "source": "ordnance-survey-via-dwyl",
    "wikiDataId": null,
    "created_at": "2026-05-24T12:02:05",
    "updated_at": "2026-05-24T12:02:05",
    "flag": 1
  },
  {
    "id": 668763,
    "code": "TD",
    "country_id": 232,
    "country_code": "GB",
    "state_id": null,
    "state_code": null,
    "city_id": null,
    "locality_name": "Tweeddale",
    "type": "area",
    "latitude": "55.61219700",
    "longitude": "-2.52855300",
    "source": "ordnance-survey-via-dwyl",
    "wikiDataId": null,
    "created_at": "2026-05-24T12:02:05",
    "updated_at": "2026-05-24T12:02:05",
    "flag": 1
  },
  {
    "id": 668764,
    "code": "TF",
    "country_id": 232,
    "country_code": "GB",
    "state_id": 2310,
    "state_code": "TFW",
    "city_id": null,
    "locality_name": "Telford",
    "type": "area",
    "latitude": "52.71628600",
    "longitude": "-2.46112700",
    "source": "ordnance-survey-via-dwyl",
    "wikiDataId": null,
    "created_at": "2026-05-24T12:02:05",
    "updated_at": "2026-05-24T12:02:05",
    "flag": 1
  },
  {
    "id": 668765,
    "code": "TN",
    "country_id": 232,
    "country_code": "GB",
    "state_id": 2490,
    "state_code": "BRY",
    "city_id": null,
    "locality_name": "Tonbridge",
    "type": "area",
    "latitude": "51.08357100",
    "longitude": "0.44091600",
    "source": "ordnance-survey-via-dwyl",
    "wikiDataId": null,
    "created_at": "2026-05-24T12:02:05",
    "updated_at": "2026-05-24T12:02:05",
    "flag": 1
  },
  {
    "id": 668766,
    "code": "TQ",
    "country_id": 232,
    "country_code": "GB",
    "state_id": 2478,
    "state_code": "TOB",
    "city_id": null,
    "locality_name": "Torquay",
    "type": "area",
    "latitude": "50.45657000",
    "longitude": "-3.62144900",
    "source": "ordnance-survey-via-dwyl",
    "wikiDataId": null,
    "created_at": "2026-05-24T12:02:05",
    "updated_at": "2026-05-24T12:02:05",
    "flag": 1
  },
  {
    "id": 668767,
    "code": "TR",
    "country_id": 232,
    "country_code": "GB",
    "state_id": 2312,
    "state_code": "CON",
    "city_id": null,
    "locality_name": "Truro",
    "type": "area",
    "latitude": "50.20961000",
    "longitude": "-5.24624400",
    "source": "ordnance-survey-via-dwyl",
    "wikiDataId": null,
    "created_at": "2026-05-24T12:02:05",
    "updated_at": "2026-05-24T12:02:05",
    "flag": 1
  },
  {
    "id": 668768,
    "code": "TS",
    "country_id": 232,
    "country_code": "GB",
    "state_id": null,
    "state_code": null,
    "city_id": null,
    "locality_name": "Cleveland",
    "type": "area",
    "latitude": "54.58494600",
    "longitude": "-1.22155000",
    "source": "ordnance-survey-via-dwyl",
    "wikiDataId": null,
    "created_at": "2026-05-24T12:02:05",
    "updated_at": "2026-05-24T12:02:05",
    "flag": 1
  },
  {
    "id": 668769,
    "code": "TW",
    "country_id": 232,
    "country_code": "GB",
    "state_id": null,
    "state_code": null,
    "city_id": null,
    "locality_name": "Twickenham",
    "type": "area",
    "latitude": "51.44674000",
    "longitude": "-0.39252100",
    "source": "ordnance-survey-via-dwyl",
    "wikiDataId": null,
    "created_at": "2026-05-24T12:02:05",
    "updated_at": "2026-05-24T12:02:05",
    "flag": 1
  },
  {
    "id": 668770,
    "code": "UB",
    "country_id": 232,
    "country_code": "GB",
    "state_id": 2532,
    "state_code": "EAL",
    "city_id": null,
    "locality_name": "Southall",
    "type": "area",
    "latitude": "51.52899300",
    "longitude": "-0.41685000",
    "source": "ordnance-survey-via-dwyl",
    "wikiDataId": null,
    "created_at": "2026-05-24T12:02:05",
    "updated_at": "2026-05-24T12:02:05",
    "flag": 1
  },
  {
    "id": 668771,
    "code": "W",
    "country_id": 232,
    "country_code": "GB",
    "state_id": null,
    "state_code": null,
    "city_id": null,
    "locality_name": "London West",
    "type": "area",
    "latitude": "51.51147500",
    "longitude": "-0.19840400",
    "source": "ordnance-survey-via-dwyl",
    "wikiDataId": null,
    "created_at": "2026-05-24T12:02:05",
    "updated_at": "2026-05-24T12:02:05",
    "flag": 1
  },
  {
    "id": 668772,
    "code": "WA",
    "country_id": 232,
    "country_code": "GB",
    "state_id": 2420,
    "state_code": "WRT",
    "city_id": null,
    "locality_name": "Warrington",
    "type": "area",
    "latitude": "53.39122100",
    "longitude": "-2.59641000",
    "source": "ordnance-survey-via-dwyl",
    "wikiDataId": null,
    "created_at": "2026-05-24T12:02:05",
    "updated_at": "2026-05-24T12:02:05",
    "flag": 1
  },
  {
    "id": 668773,
    "code": "WC",
    "country_id": 232,
    "country_code": "GB",
    "state_id": null,
    "state_code": null,
    "city_id": null,
    "locality_name": "London West Central",
    "type": "area",
    "latitude": "51.51906000",
    "longitude": "-0.12165600",
    "source": "ordnance-survey-via-dwyl",
    "wikiDataId": null,
    "created_at": "2026-05-24T12:02:05",
    "updated_at": "2026-05-24T12:02:05",
    "flag": 1
  },
  {
    "id": 668774,
    "code": "WD",
    "country_id": 232,
    "country_code": "GB",
    "state_id": 2385,
    "state_code": "HRW",
    "city_id": null,
    "locality_name": "Watford",
    "type": "area",
    "latitude": "51.66090900",
    "longitude": "-0.39008000",
    "source": "ordnance-survey-via-dwyl",
    "wikiDataId": null,
    "created_at": "2026-05-24T12:02:05",
    "updated_at": "2026-05-24T12:02:05",
    "flag": 1
  },
  {
    "id": 668775,
    "code": "WF",
    "country_id": 232,
    "country_code": "GB",
    "state_id": 2465,
    "state_code": "WKF",
    "city_id": null,
    "locality_name": "Wakefield",
    "type": "area",
    "latitude": "53.68513300",
    "longitude": "-1.49454100",
    "source": "ordnance-survey-via-dwyl",
    "wikiDataId": null,
    "created_at": "2026-05-24T12:02:05",
    "updated_at": "2026-05-24T12:02:05",
    "flag": 1
  },
  {
    "id": 668776,
    "code": "WN",
    "country_id": 232,
    "country_code": "GB",
    "state_id": 2320,
    "state_code": "WGN",
    "city_id": null,
    "locality_name": "Wigan",
    "type": "area",
    "latitude": "53.53385800",
    "longitude": "-2.63674300",
    "source": "ordnance-survey-via-dwyl",
    "wikiDataId": null,
    "created_at": "2026-05-24T12:02:05",
    "updated_at": "2026-05-24T12:02:05",
    "flag": 1
  },
  {
    "id": 668777,
    "code": "WR",
    "country_id": 232,
    "country_code": "GB",
    "state_id": 2510,
    "state_code": "WOR",
    "city_id": null,
    "locality_name": "Worcester",
    "type": "area",
    "latitude": "52.16586600",
    "longitude": "-2.18725400",
    "source": "ordnance-survey-via-dwyl",
    "wikiDataId": null,
    "created_at": "2026-05-24T12:02:05",
    "updated_at": "2026-05-24T12:02:05",
    "flag": 1
  },
  {
    "id": 668778,
    "code": "WS",
    "country_id": 232,
    "country_code": "GB",
    "state_id": 2292,
    "state_code": "WLL",
    "city_id": null,
    "locality_name": "Walsall",
    "type": "area",
    "latitude": "52.64777000",
    "longitude": "-1.95518500",
    "source": "ordnance-survey-via-dwyl",
    "wikiDataId": null,
    "created_at": "2026-05-24T12:02:05",
    "updated_at": "2026-05-24T12:02:05",
    "flag": 1
  },
  {
    "id": 668779,
    "code": "WV",
    "country_id": 232,
    "country_code": "GB",
    "state_id": 2489,
    "state_code": "WLV",
    "city_id": null,
    "locality_name": "Wolverhampton",
    "type": "area",
    "latitude": "52.67159300",
    "longitude": "-2.16451500",
    "source": "ordnance-survey-via-dwyl",
    "wikiDataId": null,
    "created_at": "2026-05-24T12:02:05",
    "updated_at": "2026-05-24T12:02:05",
    "flag": 1
  },
  {
    "id": 668780,
    "code": "YO",
    "country_id": 232,
    "country_code": "GB",
    "state_id": 2426,
    "state_code": "YOR",
    "city_id": null,
    "locality_name": "York",
    "type": "area",
    "latitude": "54.07120600",
    "longitude": "-0.84286700",
    "source": "ordnance-survey-via-dwyl",
    "wikiDataId": null,
    "created_at": "2026-05-24T12:02:05",
    "updated_at": "2026-05-24T12:02:05",
    "flag": 1
  },
  {
    "id": 668781,
    "code": "ZE",
    "country_id": 232,
    "country_code": "GB",
    "state_id": null,
    "state_code": null,
    "city_id": null,
    "locality_name": "Shetland",
    "type": "area",
    "latitude": "60.22639200",
    "longitude": "-1.20127400",
    "source": "ordnance-survey-via-dwyl",
    "wikiDataId": null,
    "created_at": "2026-05-24T12:02:05",
    "updated_at": "2026-05-24T12:02:05",
    "flag": 1
  }
]