[
  {
    "code": "MD-2000",
    "country_id": 144,
    "country_code": "MD",
    "state_id": 4373,
    "state_code": "CU",
    "locality_name": "Chişinău",
    "latitude": 47.0056,
    "longitude": 28.8575,
    "type": "full",
    "source": "posta-moldovei-via-vasilcovsky"
  },
  {
    "code": "MD-2001",
    "country_id": 144,
    "country_code": "MD",
    "state_id": 4373,
    "state_code": "CU",
    "locality_name": "Chişinău",
    "latitude": 47.0056,
    "longitude": 28.8575,
    "type": "full",
    "source": "posta-moldovei-via-vasilcovsky"
  },
  {
    "code": "MD-2002",
    "country_id": 144,
    "country_code": "MD",
    "state_id": 4373,
    "state_code": "CU",
    "locality_name": "Chişinău",
    "latitude": 47.0056,
    "longitude": 28.8575,
    "type": "full",
    "source": "posta-moldovei-via-vasilcovsky"
  },
  {
    "code": "MD-2003",
    "country_id": 144,
    "country_code": "MD",
    "state_id": 4373,
    "state_code": "CU",
    "locality_name": "Chişinău",
    "latitude": 47.0056,
    "longitude": 28.8575,
    "type": "full",
    "source": "posta-moldovei-via-vasilcovsky"
  },
  {
    "code": "MD-2004",
    "country_id": 144,
    "country_code": "MD",
    "state_id": 4373,
    "state_code": "CU",
    "locality_name": "Chişinău",
    "latitude": 47.0056,
    "longitude": 28.8575,
    "type": "full",
    "source": "posta-moldovei-via-vasilcovsky"
  },
  {
    "code": "MD-2005",
    "country_id": 144,
    "country_code": "MD",
    "state_id": 4373,
    "state_code": "CU",
    "locality_name": "Chişinău",
    "latitude": 47.0056,
    "longitude": 28.8575,
    "type": "full",
    "source": "posta-moldovei-via-vasilcovsky"
  },
  {
    "code": "MD-2008",
    "country_id": 144,
    "country_code": "MD",
    "state_id": 4373,
    "state_code": "CU",
    "locality_name": "Chişinău",
    "latitude": 47.0056,
    "longitude": 28.8575,
    "type": "full",
    "source": "posta-moldovei-via-vasilcovsky"
  },
  {
    "code": "MD-2009",
    "country_id": 144,
    "country_code": "MD",
    "state_id": 4373,
    "state_code": "CU",
    "locality_name": "Chişinău",
    "latitude": 47.0056,
    "longitude": 28.8575,
    "type": "full",
    "source": "posta-moldovei-via-vasilcovsky"
  },
  {
    "code": "MD-2011",
    "country_id": 144,
    "country_code": "MD",
    "state_id": 4373,
    "state_code": "CU",
    "locality_name": "Chişinău",
    "latitude": 47.0056,
    "longitude": 28.8575,
    "type": "full",
    "source": "posta-moldovei-via-vasilcovsky"
  },
  {
    "code": "MD-2012",
    "country_id": 144,
    "country_code": "MD",
    "state_id": 4373,
    "state_code": "CU",
    "locality_name": "Chişinău",
    "latitude": 47.0056,
    "longitude": 28.8575,
    "type": "full",
    "source": "posta-moldovei-via-vasilcovsky"
  },
  {
    "code": "MD-2015",
    "country_id": 144,
    "country_code": "MD",
    "state_id": 4373,
    "state_code": "CU",
    "locality_name": "Chişinău",
    "latitude": 47.0056,
    "longitude": 28.8575,
    "type": "full",
    "source": "posta-moldovei-via-vasilcovsky"
  },
  {
    "code": "MD-2017",
    "country_id": 144,
    "country_code": "MD",
    "state_id": 4373,
    "state_code": "CU",
    "locality_name": "Chişinău",
    "latitude": 47.0056,
    "longitude": 28.8575,
    "type": "full",
    "source": "posta-moldovei-via-vasilcovsky"
  },
  {
    "code": "MD-2019",
    "country_id": 144,
    "country_code": "MD",
    "state_id": 4373,
    "state_code": "CU",
    "locality_name": "Chişinău",
    "latitude": 47.0056,
    "longitude": 28.8575,
    "type": "full",
    "source": "posta-moldovei-via-vasilcovsky"
  },
  {
    "code": "MD-2020",
    "country_id": 144,
    "country_code": "MD",
    "state_id": 4373,
    "state_code": "CU",
    "locality_name": "Chişinău",
    "latitude": 47.0056,
    "longitude": 28.8575,
    "type": "full",
    "source": "posta-moldovei-via-vasilcovsky"
  },
  {
    "code": "MD-2021",
    "country_id": 144,
    "country_code": "MD",
    "state_id": 4373,
    "state_code": "CU",
    "locality_name": "Chişinău",
    "latitude": 47.0056,
    "longitude": 28.8575,
    "type": "full",
    "source": "posta-moldovei-via-vasilcovsky"
  },
  {
    "code": "MD-2023",
    "country_id": 144,
    "country_code": "MD",
    "state_id": 4373,
    "state_code": "CU",
    "locality_name": "Chişinău",
    "latitude": 47.0056,
    "longitude": 28.8575,
    "type": "full",
    "source": "posta-moldovei-via-vasilcovsky"
  },
  {
    "code": "MD-2024",
    "country_id": 144,
    "country_code": "MD",
    "state_id": 4373,
    "state_code": "CU",
    "locality_name": "Chişinău",
    "latitude": 47.0056,
    "longitude": 28.8575,
    "type": "full",
    "source": "posta-moldovei-via-vasilcovsky"
  },
  {
    "code": "MD-2025",
    "country_id": 144,
    "country_code": "MD",
    "state_id": 4373,
    "state_code": "CU",
    "locality_name": "Chişinău",
    "latitude": 47.0056,
    "longitude": 28.8575,
    "type": "full",
    "source": "posta-moldovei-via-vasilcovsky"
  },
  {
    "code": "MD-2026",
    "country_id": 144,
    "country_code": "MD",
    "state_id": 4373,
    "state_code": "CU",
    "locality_name": "Chişinău",
    "latitude": 47.0056,
    "longitude": 28.8575,
    "type": "full",
    "source": "posta-moldovei-via-vasilcovsky"
  },
  {
    "code": "MD-2028",
    "country_id": 144,
    "country_code": "MD",
    "state_id": 4373,
    "state_code": "CU",
    "locality_name": "Chişinău",
    "latitude": 47.0056,
    "longitude": 28.8575,
    "type": "full",
    "source": "posta-moldovei-via-vasilcovsky"
  },
  {
    "code": "MD-2029",
    "country_id": 144,
    "country_code": "MD",
    "state_id": 4373,
    "state_code": "CU",
    "locality_name": "Chişinău",
    "latitude": 47.0056,
    "longitude": 28.8575,
    "type": "full",
    "source": "posta-moldovei-via-vasilcovsky"
  },
  {
    "code": "MD-2032",
    "country_id": 144,
    "country_code": "MD",
    "state_id": 4373,
    "state_code": "CU",
    "locality_name": "Chişinău",
    "latitude": 47.0056,
    "longitude": 28.8575,
    "type": "full",
    "source": "posta-moldovei-via-vasilcovsky"
  },
  {
    "code": "MD-2033",
    "country_id": 144,
    "country_code": "MD",
    "state_id": 4373,
    "state_code": "CU",
    "locality_name": "Chişinău",
    "latitude": 47.0056,
    "longitude": 28.8575,
    "type": "full",
    "source": "posta-moldovei-via-vasilcovsky"
  },
  {
    "code": "MD-2038",
    "country_id": 144,
    "country_code": "MD",
    "state_id": 4373,
    "state_code": "CU",
    "locality_name": "Chişinău",
    "latitude": 47.0056,
    "longitude": 28.8575,
    "type": "full",
    "source": "posta-moldovei-via-vasilcovsky"
  },
  {
    "code": "MD-2043",
    "country_id": 144,
    "country_code": "MD",
    "state_id": 4373,
    "state_code": "CU",
    "locality_name": "Chişinău",
    "latitude": 47.0056,
    "longitude": 28.8575,
    "type": "full",
    "source": "posta-moldovei-via-vasilcovsky"
  },
  {
    "code": "MD-2044",
    "country_id": 144,
    "country_code": "MD",
    "state_id": 4373,
    "state_code": "CU",
    "locality_name": "Chişinău",
    "latitude": 47.0056,
    "longitude": 28.8575,
    "type": "full",
    "source": "posta-moldovei-via-vasilcovsky"
  },
  {
    "code": "MD-2045",
    "country_id": 144,
    "country_code": "MD",
    "state_id": 4373,
    "state_code": "CU",
    "locality_name": "Chişinău",
    "latitude": 47.0056,
    "longitude": 28.8575,
    "type": "full",
    "source": "posta-moldovei-via-vasilcovsky"
  },
  {
    "code": "MD-2049",
    "country_id": 144,
    "country_code": "MD",
    "state_id": 4373,
    "state_code": "CU",
    "locality_name": "Chişinău",
    "latitude": 47.0056,
    "longitude": 28.8575,
    "type": "full",
    "source": "posta-moldovei-via-vasilcovsky"
  },
  {
    "code": "MD-2051",
    "country_id": 144,
    "country_code": "MD",
    "state_id": 4373,
    "state_code": "CU",
    "locality_name": "Chişinău",
    "latitude": 47.0056,
    "longitude": 28.8575,
    "type": "full",
    "source": "posta-moldovei-via-vasilcovsky"
  },
  {
    "code": "MD-2055",
    "country_id": 144,
    "country_code": "MD",
    "state_id": 4373,
    "state_code": "CU",
    "locality_name": "Chişinău",
    "latitude": 47.0056,
    "longitude": 28.8575,
    "type": "full",
    "source": "posta-moldovei-via-vasilcovsky"
  },
  {
    "code": "MD-2059",
    "country_id": 144,
    "country_code": "MD",
    "state_id": 4373,
    "state_code": "CU",
    "locality_name": "Chişinău",
    "latitude": 47.0056,
    "longitude": 28.8575,
    "type": "full",
    "source": "posta-moldovei-via-vasilcovsky"
  },
  {
    "code": "MD-2081",
    "country_id": 144,
    "country_code": "MD",
    "state_id": 4373,
    "state_code": "CU",
    "locality_name": "Bubuieci",
    "latitude": 46.985,
    "longitude": 28.9422,
    "type": "full",
    "source": "posta-moldovei-via-vasilcovsky"
  },
  {
    "code": "MD-2081",
    "country_id": 144,
    "country_code": "MD",
    "state_id": 4373,
    "state_code": "CU",
    "locality_name": "Bîc",
    "latitude": 46.9567,
    "longitude": 28.9422,
    "type": "full",
    "source": "posta-moldovei-via-vasilcovsky"
  },
  {
    "code": "MD-2085",
    "country_id": 144,
    "country_code": "MD",
    "state_id": 4373,
    "state_code": "CU",
    "locality_name": "Ceroborta",
    "latitude": 47.0936,
    "longitude": 28.9517,
    "type": "full",
    "source": "posta-moldovei-via-vasilcovsky"
  },
  {
    "code": "MD-2092",
    "country_id": 144,
    "country_code": "MD",
    "state_id": 4373,
    "state_code": "CU",
    "locality_name": "Buneţi",
    "latitude": 47.0806,
    "longitude": 28.91,
    "type": "full",
    "source": "posta-moldovei-via-vasilcovsky"
  },
  {
    "code": "MD-2092",
    "country_id": 144,
    "country_code": "MD",
    "state_id": 4373,
    "state_code": "CU",
    "locality_name": "Cheltuitori",
    "latitude": 47.0661,
    "longitude": 28.9211,
    "type": "full",
    "source": "posta-moldovei-via-vasilcovsky"
  },
  {
    "code": "MD-3011",
    "country_id": 144,
    "country_code": "MD",
    "state_id": 4374,
    "state_code": "SO",
    "locality_name": "Bădiceni",
    "latitude": 48.2033,
    "longitude": 28.0544,
    "type": "full",
    "source": "posta-moldovei-via-vasilcovsky"
  },
  {
    "code": "MD-3012",
    "country_id": 144,
    "country_code": "MD",
    "state_id": 4374,
    "state_code": "SO",
    "locality_name": "Băxani",
    "latitude": 48.1239,
    "longitude": 28.0947,
    "type": "full",
    "source": "posta-moldovei-via-vasilcovsky"
  },
  {
    "code": "MD-3013",
    "country_id": 144,
    "country_code": "MD",
    "state_id": 4374,
    "state_code": "SO",
    "locality_name": "Balinţi",
    "latitude": 48.3206,
    "longitude": 28.0236,
    "type": "full",
    "source": "posta-moldovei-via-vasilcovsky"
  },
  {
    "code": "MD-3013",
    "country_id": 144,
    "country_code": "MD",
    "state_id": 4374,
    "state_code": "SO",
    "locality_name": "Balinţii Noi",
    "latitude": 48.3206,
    "longitude": 28.0236,
    "type": "full",
    "source": "posta-moldovei-via-vasilcovsky"
  },
  {
    "code": "MD-3014",
    "country_id": 144,
    "country_code": "MD",
    "state_id": 4374,
    "state_code": "SO",
    "locality_name": "Bulboci",
    "latitude": 48.0397,
    "longitude": 28.0839,
    "type": "full",
    "source": "posta-moldovei-via-vasilcovsky"
  },
  {
    "code": "MD-3014",
    "country_id": 144,
    "country_code": "MD",
    "state_id": 4374,
    "state_code": "SO",
    "locality_name": "Bulbocii Noi",
    "latitude": 48.0603,
    "longitude": 28.1186,
    "type": "full",
    "source": "posta-moldovei-via-vasilcovsky"
  },
  {
    "code": "MD-3015",
    "country_id": 144,
    "country_code": "MD",
    "state_id": 4374,
    "state_code": "SO",
    "locality_name": "Căinării Vechi",
    "latitude": 48.0081,
    "longitude": 28.125,
    "type": "full",
    "source": "posta-moldovei-via-vasilcovsky"
  },
  {
    "code": "MD-3015",
    "country_id": 144,
    "country_code": "MD",
    "state_id": 4374,
    "state_code": "SO",
    "locality_name": "Floriceni",
    "latitude": 48.0208,
    "longitude": 28.0164,
    "type": "full",
    "source": "posta-moldovei-via-vasilcovsky"
  },
  {
    "code": "MD-3016",
    "country_id": 144,
    "country_code": "MD",
    "state_id": 4374,
    "state_code": "SO",
    "locality_name": "Cosăuţi",
    "latitude": 48.2289,
    "longitude": 28.2911,
    "type": "full",
    "source": "posta-moldovei-via-vasilcovsky"
  },
  {
    "code": "MD-3017",
    "country_id": 144,
    "country_code": "MD",
    "state_id": 4374,
    "state_code": "SO",
    "locality_name": "Cureşniţa",
    "latitude": 48.2278,
    "longitude": 28.1764,
    "type": "full",
    "source": "posta-moldovei-via-vasilcovsky"
  },
  {
    "code": "MD-3018",
    "country_id": 144,
    "country_code": "MD",
    "state_id": 4374,
    "state_code": "SO",
    "locality_name": "Dărcăuţi",
    "latitude": 48.2278,
    "longitude": 27.9808,
    "type": "full",
    "source": "posta-moldovei-via-vasilcovsky"
  },
  {
    "code": "MD-3018",
    "country_id": 144,
    "country_code": "MD",
    "state_id": 4374,
    "state_code": "SO",
    "locality_name": "Dărcăuţii Noi",
    "latitude": 48.2097,
    "longitude": 28.0019,
    "type": "full",
    "source": "posta-moldovei-via-vasilcovsky"
  },
  {
    "code": "MD-3018",
    "country_id": 144,
    "country_code": "MD",
    "state_id": 4374,
    "state_code": "SO",
    "locality_name": "Mălcăuţi",
    "latitude": 48.2139,
    "longitude": 27.9408,
    "type": "full",
    "source": "posta-moldovei-via-vasilcovsky"
  },
  {
    "code": "MD-3019",
    "country_id": 144,
    "country_code": "MD",
    "state_id": 4374,
    "state_code": "SO",
    "locality_name": "Dubna",
    "latitude": 48.015,
    "longitude": 28.3153,
    "type": "full",
    "source": "posta-moldovei-via-vasilcovsky"
  },
  {
    "code": "MD-3020",
    "country_id": 144,
    "country_code": "MD",
    "state_id": 4374,
    "state_code": "SO",
    "locality_name": "Dumbrăveni",
    "latitude": 48.0506,
    "longitude": 28.2281,
    "type": "full",
    "source": "posta-moldovei-via-vasilcovsky"
  },
  {
    "code": "MD-3021",
    "country_id": 144,
    "country_code": "MD",
    "state_id": 4374,
    "state_code": "SO",
    "locality_name": "Egoreni",
    "latitude": 48.2016,
    "longitude": 28.3595,
    "type": "full",
    "source": "posta-moldovei-via-vasilcovsky"
  },
  {
    "code": "MD-3022",
    "country_id": 144,
    "country_code": "MD",
    "state_id": 4374,
    "state_code": "SO",
    "locality_name": "Grigorăuca",
    "latitude": 48.2078,
    "longitude": 28.0997,
    "type": "full",
    "source": "posta-moldovei-via-vasilcovsky"
  },
  {
    "code": "MD-3023",
    "country_id": 144,
    "country_code": "MD",
    "state_id": 4374,
    "state_code": "SO",
    "locality_name": "Holoşniţa",
    "latitude": 48.2475,
    "longitude": 28.1769,
    "type": "full",
    "source": "posta-moldovei-via-vasilcovsky"
  },
  {
    "code": "MD-3024",
    "country_id": 144,
    "country_code": "MD",
    "state_id": 4374,
    "state_code": "SO",
    "locality_name": "Hristici",
    "latitude": 48.1208,
    "longitude": 28.1839,
    "type": "full",
    "source": "posta-moldovei-via-vasilcovsky"
  },
  {
    "code": "MD-3025",
    "country_id": 144,
    "country_code": "MD",
    "state_id": 4374,
    "state_code": "SO",
    "locality_name": "larova",
    "latitude": 48.3197,
    "longitude": 28.0494,
    "type": "full",
    "source": "posta-moldovei-via-vasilcovsky"
  },
  {
    "code": "MD-3026",
    "country_id": 144,
    "country_code": "MD",
    "state_id": 4374,
    "state_code": "SO",
    "locality_name": "lorjniţa",
    "latitude": 48.1933,
    "longitude": 28.2178,
    "type": "full",
    "source": "posta-moldovei-via-vasilcovsky"
  },
  {
    "code": "MD-3027",
    "country_id": 144,
    "country_code": "MD",
    "state_id": 4374,
    "state_code": "SO",
    "locality_name": "Oclanda",
    "latitude": 48.2892,
    "longitude": 28.0603,
    "type": "full",
    "source": "posta-moldovei-via-vasilcovsky"
  },
  {
    "code": "MD-3028",
    "country_id": 144,
    "country_code": "MD",
    "state_id": 4374,
    "state_code": "SO",
    "locality_name": "Oclanda",
    "latitude": 48.2892,
    "longitude": 28.0603,
    "type": "full",
    "source": "posta-moldovei-via-vasilcovsky"
  },
  {
    "code": "MD-3028",
    "country_id": 144,
    "country_code": "MD",
    "state_id": 4374,
    "state_code": "SO",
    "locality_name": "Ocolina",
    "latitude": 48.1256,
    "longitude": 28.2631,
    "type": "full",
    "source": "posta-moldovei-via-vasilcovsky"
  },
  {
    "code": "MD-3029",
    "country_id": 144,
    "country_code": "MD",
    "state_id": 4374,
    "state_code": "SO",
    "locality_name": "Parcani",
    "latitude": 48.0619,
    "longitude": 28.2903,
    "type": "full",
    "source": "posta-moldovei-via-vasilcovsky"
  },
  {
    "code": "MD-3030",
    "country_id": 144,
    "country_code": "MD",
    "state_id": 4374,
    "state_code": "SO",
    "locality_name": "Pîrliţa",
    "latitude": 48.0758,
    "longitude": 28.21,
    "type": "full",
    "source": "posta-moldovei-via-vasilcovsky"
  },
  {
    "code": "MD-3031",
    "country_id": 144,
    "country_code": "MD",
    "state_id": 4374,
    "state_code": "SO",
    "locality_name": "Racovăţ",
    "latitude": 48.0825,
    "longitude": 28.4061,
    "type": "full",
    "source": "posta-moldovei-via-vasilcovsky"
  },
  {
    "code": "MD-3032",
    "country_id": 144,
    "country_code": "MD",
    "state_id": 4374,
    "state_code": "SO",
    "locality_name": "Redi-Cereşnovăţ",
    "latitude": 48.0633,
    "longitude": 28.3175,
    "type": "full",
    "source": "posta-moldovei-via-vasilcovsky"
  },
  {
    "code": "MD-3033",
    "country_id": 144,
    "country_code": "MD",
    "state_id": 4374,
    "state_code": "SO",
    "locality_name": "Lugovoe",
    "latitude": 48.0703,
    "longitude": 28.1783,
    "type": "full",
    "source": "posta-moldovei-via-vasilcovsky"
  },
  {
    "code": "MD-3033",
    "country_id": 144,
    "country_code": "MD",
    "state_id": 4374,
    "state_code": "SO",
    "locality_name": "Regina Măria",
    "latitude": 48.0586,
    "longitude": 28.1408,
    "type": "full",
    "source": "posta-moldovei-via-vasilcovsky"
  },
  {
    "code": "MD-3035",
    "country_id": 144,
    "country_code": "MD",
    "state_id": 4374,
    "state_code": "SO",
    "locality_name": "Inundeni",
    "latitude": 48.1247,
    "longitude": 28.3583,
    "type": "full",
    "source": "posta-moldovei-via-vasilcovsky"
  },
  {
    "code": "MD-3039",
    "country_id": 144,
    "country_code": "MD",
    "state_id": 4374,
    "state_code": "SO",
    "locality_name": "Livezi",
    "latitude": 48.2358,
    "longitude": 28.0494,
    "type": "full",
    "source": "posta-moldovei-via-vasilcovsky"
  },
  {
    "code": "MD-3043",
    "country_id": 144,
    "country_code": "MD",
    "state_id": 4374,
    "state_code": "SO",
    "locality_name": "Cureşniţa Nouă",
    "latitude": 48.1814,
    "longitude": 28.1225,
    "type": "full",
    "source": "posta-moldovei-via-vasilcovsky"
  },
  {
    "code": "MD-3050",
    "country_id": 144,
    "country_code": "MD",
    "state_id": 4374,
    "state_code": "SO",
    "locality_name": "Alexandru Cel Bun",
    "latitude": 48.0969,
    "longitude": 28.3406,
    "type": "full",
    "source": "posta-moldovei-via-vasilcovsky"
  },
  {
    "code": "MD-3052",
    "country_id": 144,
    "country_code": "MD",
    "state_id": 4374,
    "state_code": "SO",
    "locality_name": "Cremenciug",
    "latitude": 48.2769,
    "longitude": 28.0853,
    "type": "full",
    "source": "posta-moldovei-via-vasilcovsky"
  },
  {
    "code": "MD-3100",
    "country_id": 144,
    "country_code": "MD",
    "state_id": 4393,
    "state_code": "BA",
    "locality_name": "Bălţi",
    "latitude": 47.7617,
    "longitude": 27.9289,
    "type": "full",
    "source": "posta-moldovei-via-vasilcovsky"
  },
  {
    "code": "MD-3101",
    "country_id": 144,
    "country_code": "MD",
    "state_id": 4393,
    "state_code": "BA",
    "locality_name": "Bălţi",
    "latitude": 47.7617,
    "longitude": 27.9289,
    "type": "full",
    "source": "posta-moldovei-via-vasilcovsky"
  },
  {
    "code": "MD-3102",
    "country_id": 144,
    "country_code": "MD",
    "state_id": 4393,
    "state_code": "BA",
    "locality_name": "Bălţi",
    "latitude": 47.7617,
    "longitude": 27.9289,
    "type": "full",
    "source": "posta-moldovei-via-vasilcovsky"
  },
  {
    "code": "MD-3105",
    "country_id": 144,
    "country_code": "MD",
    "state_id": 4393,
    "state_code": "BA",
    "locality_name": "Bălţi",
    "latitude": 47.7617,
    "longitude": 27.9289,
    "type": "full",
    "source": "posta-moldovei-via-vasilcovsky"
  },
  {
    "code": "MD-3106",
    "country_id": 144,
    "country_code": "MD",
    "state_id": 4393,
    "state_code": "BA",
    "locality_name": "Bălţi",
    "latitude": 47.7617,
    "longitude": 27.9289,
    "type": "full",
    "source": "posta-moldovei-via-vasilcovsky"
  },
  {
    "code": "MD-3107",
    "country_id": 144,
    "country_code": "MD",
    "state_id": 4393,
    "state_code": "BA",
    "locality_name": "Bălţi",
    "latitude": 47.7617,
    "longitude": 27.9289,
    "type": "full",
    "source": "posta-moldovei-via-vasilcovsky"
  },
  {
    "code": "MD-3110",
    "country_id": 144,
    "country_code": "MD",
    "state_id": 4393,
    "state_code": "BA",
    "locality_name": "Bălţi",
    "latitude": 47.7617,
    "longitude": 27.9289,
    "type": "full",
    "source": "posta-moldovei-via-vasilcovsky"
  },
  {
    "code": "MD-3111",
    "country_id": 144,
    "country_code": "MD",
    "state_id": 4393,
    "state_code": "BA",
    "locality_name": "Bălţi",
    "latitude": 47.7617,
    "longitude": 27.9289,
    "type": "full",
    "source": "posta-moldovei-via-vasilcovsky"
  },
  {
    "code": "MD-3112",
    "country_id": 144,
    "country_code": "MD",
    "state_id": 4393,
    "state_code": "BA",
    "locality_name": "Bălţi",
    "latitude": 47.7617,
    "longitude": 27.9289,
    "type": "full",
    "source": "posta-moldovei-via-vasilcovsky"
  },
  {
    "code": "MD-3114",
    "country_id": 144,
    "country_code": "MD",
    "state_id": 4393,
    "state_code": "BA",
    "locality_name": "Bălţi",
    "latitude": 47.7617,
    "longitude": 27.9289,
    "type": "full",
    "source": "posta-moldovei-via-vasilcovsky"
  },
  {
    "code": "MD-3118",
    "country_id": 144,
    "country_code": "MD",
    "state_id": 4393,
    "state_code": "BA",
    "locality_name": "Bălţi",
    "latitude": 47.7617,
    "longitude": 27.9289,
    "type": "full",
    "source": "posta-moldovei-via-vasilcovsky"
  },
  {
    "code": "MD-3121",
    "country_id": 144,
    "country_code": "MD",
    "state_id": 4393,
    "state_code": "BA",
    "locality_name": "Bălţi",
    "latitude": 47.7617,
    "longitude": 27.9289,
    "type": "full",
    "source": "posta-moldovei-via-vasilcovsky"
  },
  {
    "code": "MD-3123",
    "country_id": 144,
    "country_code": "MD",
    "state_id": 4393,
    "state_code": "BA",
    "locality_name": "Bălţi",
    "latitude": 47.7617,
    "longitude": 27.9289,
    "type": "full",
    "source": "posta-moldovei-via-vasilcovsky"
  },
  {
    "code": "MD-3128",
    "country_id": 144,
    "country_code": "MD",
    "state_id": 4393,
    "state_code": "BA",
    "locality_name": "Bălţi",
    "latitude": 47.7617,
    "longitude": 27.9289,
    "type": "full",
    "source": "posta-moldovei-via-vasilcovsky"
  },
  {
    "code": "MD-3129",
    "country_id": 144,
    "country_code": "MD",
    "state_id": 4393,
    "state_code": "BA",
    "locality_name": "Bălţi",
    "latitude": 47.7617,
    "longitude": 27.9289,
    "type": "full",
    "source": "posta-moldovei-via-vasilcovsky"
  },
  {
    "code": "MD-3151",
    "country_id": 144,
    "country_code": "MD",
    "state_id": 4393,
    "state_code": "BA",
    "locality_name": "Elizaveta",
    "latitude": 47.7842,
    "longitude": 28.0225,
    "type": "full",
    "source": "posta-moldovei-via-vasilcovsky"
  },
  {
    "code": "MD-3200",
    "country_id": 144,
    "country_code": "MD",
    "state_id": 4395,
    "state_code": "SN",
    "locality_name": "Bender",
    "latitude": 46.8306,
    "longitude": 29.4711,
    "type": "full",
    "source": "posta-moldovei-via-vasilcovsky"
  },
  {
    "code": "MD-3401",
    "country_id": 144,
    "country_code": "MD",
    "state_id": 4382,
    "state_code": "HI",
    "locality_name": "Hînceşti",
    "latitude": 46.8258,
    "longitude": 28.5936,
    "type": "full",
    "source": "posta-moldovei-via-vasilcovsky"
  },
  {
    "code": "MD-3411",
    "country_id": 144,
    "country_code": "MD",
    "state_id": 4382,
    "state_code": "HI",
    "locality_name": "Anini",
    "latitude": 46.8892,
    "longitude": 28.4664,
    "type": "full",
    "source": "posta-moldovei-via-vasilcovsky"
  },
  {
    "code": "MD-3412",
    "country_id": 144,
    "country_code": "MD",
    "state_id": 4382,
    "state_code": "HI",
    "locality_name": "Bălceana",
    "latitude": 46.8444,
    "longitude": 28.4047,
    "type": "full",
    "source": "posta-moldovei-via-vasilcovsky"
  },
  {
    "code": "MD-3413",
    "country_id": 144,
    "country_code": "MD",
    "state_id": 4382,
    "state_code": "HI",
    "locality_name": "Bobeica",
    "latitude": 46.985,
    "longitude": 28.4622,
    "type": "full",
    "source": "posta-moldovei-via-vasilcovsky"
  },
  {
    "code": "MD-3413",
    "country_id": 144,
    "country_code": "MD",
    "state_id": 4382,
    "state_code": "HI",
    "locality_name": "Dahnovici",
    "latitude": 46.9764,
    "longitude": 28.4822,
    "type": "full",
    "source": "posta-moldovei-via-vasilcovsky"
  },
  {
    "code": "MD-3414",
    "country_id": 144,
    "country_code": "MD",
    "state_id": 4382,
    "state_code": "HI",
    "locality_name": "Boghiceni",
    "latitude": 46.9489,
    "longitude": 28.3253,
    "type": "full",
    "source": "posta-moldovei-via-vasilcovsky"
  },
  {
    "code": "MD-3415",
    "country_id": 144,
    "country_code": "MD",
    "state_id": 4382,
    "state_code": "HI",
    "locality_name": "Bozieni",
    "latitude": 46.7494,
    "longitude": 28.6472,
    "type": "full",
    "source": "posta-moldovei-via-vasilcovsky"
  },
  {
    "code": "MD-3416",
    "country_id": 144,
    "country_code": "MD",
    "state_id": 4382,
    "state_code": "HI",
    "locality_name": "Bujor",
    "latitude": 46.9225,
    "longitude": 28.2683,
    "type": "full",
    "source": "posta-moldovei-via-vasilcovsky"
  },
  {
    "code": "MD-3417",
    "country_id": 144,
    "country_code": "MD",
    "state_id": 4382,
    "state_code": "HI",
    "locality_name": "Buţeni",
    "latitude": 46.8242,
    "longitude": 28.675,
    "type": "full",
    "source": "posta-moldovei-via-vasilcovsky"
  },
  {
    "code": "MD-3418",
    "country_id": 144,
    "country_code": "MD",
    "state_id": 4382,
    "state_code": "HI",
    "locality_name": "Călmăţui",
    "latitude": 46.7833,
    "longitude": 28.2153,
    "type": "full",
    "source": "posta-moldovei-via-vasilcovsky"
  },
  {
    "code": "MD-3419",
    "country_id": 144,
    "country_code": "MD",
    "state_id": 4382,
    "state_code": "HI",
    "locality_name": "Caracui",
    "latitude": 46.6986,
    "longitude": 28.5419,
    "type": "full",
    "source": "posta-moldovei-via-vasilcovsky"
  },
  {
    "code": "MD-3420",
    "country_id": 144,
    "country_code": "MD",
    "state_id": 4382,
    "state_code": "HI",
    "locality_name": "Cărpineni",
    "latitude": 46.7597,
    "longitude": 28.3531,
    "type": "full",
    "source": "posta-moldovei-via-vasilcovsky"
  },
  {
    "code": "MD-3421",
    "country_id": 144,
    "country_code": "MD",
    "state_id": 4382,
    "state_code": "HI",
    "locality_name": "Cioara",
    "latitude": 46.7325,
    "longitude": 28.2247,
    "type": "full",
    "source": "posta-moldovei-via-vasilcovsky"
  },
  {
    "code": "MD-3421",
    "country_id": 144,
    "country_code": "MD",
    "state_id": 4382,
    "state_code": "HI",
    "locality_name": "Călmaţui",
    "latitude": 46.7325,
    "longitude": 28.2247,
    "type": "full",
    "source": "posta-moldovei-via-vasilcovsky"
  },
  {
    "code": "MD-3422",
    "country_id": 144,
    "country_code": "MD",
    "state_id": 4382,
    "state_code": "HI",
    "locality_name": "Cotul Morii",
    "latitude": 46.8697,
    "longitude": 28.1189,
    "type": "full",
    "source": "posta-moldovei-via-vasilcovsky"
  },
  {
    "code": "MD-3423",
    "country_id": 144,
    "country_code": "MD",
    "state_id": 4382,
    "state_code": "HI",
    "locality_name": "Crasnoarmeiscoe",
    "latitude": 46.8294,
    "longitude": 28.2822,
    "type": "full",
    "source": "posta-moldovei-via-vasilcovsky"
  },
  {
    "code": "MD-3424",
    "country_id": 144,
    "country_code": "MD",
    "state_id": 4382,
    "state_code": "HI",
    "locality_name": "Dancu",
    "latitude": 46.7628,
    "longitude": 28.21,
    "type": "full",
    "source": "posta-moldovei-via-vasilcovsky"
  },
  {
    "code": "MD-3425",
    "country_id": 144,
    "country_code": "MD",
    "state_id": 4382,
    "state_code": "HI",
    "locality_name": "Drăguşeni",
    "latitude": 46.9839,
    "longitude": 28.4503,
    "type": "full",
    "source": "posta-moldovei-via-vasilcovsky"
  },
  {
    "code": "MD-3426",
    "country_id": 144,
    "country_code": "MD",
    "state_id": 4382,
    "state_code": "HI",
    "locality_name": "Dubovca",
    "latitude": 46.7486,
    "longitude": 28.6083,
    "type": "full",
    "source": "posta-moldovei-via-vasilcovsky"
  },
  {
    "code": "MD-3427",
    "country_id": 144,
    "country_code": "MD",
    "state_id": 4382,
    "state_code": "HI",
    "locality_name": "Fîrlădeni",
    "latitude": 46.7875,
    "longitude": 28.6875,
    "type": "full",
    "source": "posta-moldovei-via-vasilcovsky"
  },
  {
    "code": "MD-3428",
    "country_id": 144,
    "country_code": "MD",
    "state_id": 4382,
    "state_code": "HI",
    "locality_name": "Fundul Galbenei",
    "latitude": 46.8825,
    "longitude": 28.6231,
    "type": "full",
    "source": "posta-moldovei-via-vasilcovsky"
  },
  {
    "code": "MD-3429",
    "country_id": 144,
    "country_code": "MD",
    "state_id": 4382,
    "state_code": "HI",
    "locality_name": "Horjeşti",
    "latitude": 46.7128,
    "longitude": 28.3494,
    "type": "full",
    "source": "posta-moldovei-via-vasilcovsky"
  },
  {
    "code": "MD-3430",
    "country_id": 144,
    "country_code": "MD",
    "state_id": 4382,
    "state_code": "HI",
    "locality_name": "Coste şti",
    "latitude": 46.8733,
    "longitude": 28.2067,
    "type": "full",
    "source": "posta-moldovei-via-vasilcovsky"
  },
  {
    "code": "MD-3430",
    "country_id": 144,
    "country_code": "MD",
    "state_id": 4382,
    "state_code": "HI",
    "locality_name": "Frasin",
    "latitude": 46.89,
    "longitude": 28.195,
    "type": "full",
    "source": "posta-moldovei-via-vasilcovsky"
  },
  {
    "code": "MD-3430",
    "country_id": 144,
    "country_code": "MD",
    "state_id": 4382,
    "state_code": "HI",
    "locality_name": "Ivanovca",
    "latitude": 46.8769,
    "longitude": 28.1964,
    "type": "full",
    "source": "posta-moldovei-via-vasilcovsky"
  },
  {
    "code": "MD-3431",
    "country_id": 144,
    "country_code": "MD",
    "state_id": 4382,
    "state_code": "HI",
    "locality_name": "Lăpuşna",
    "latitude": 46.8842,
    "longitude": 28.4119,
    "type": "full",
    "source": "posta-moldovei-via-vasilcovsky"
  },
  {
    "code": "MD-3432",
    "country_id": 144,
    "country_code": "MD",
    "state_id": 4382,
    "state_code": "HI",
    "locality_name": "Feteasca",
    "latitude": 46.7878,
    "longitude": 28.1922,
    "type": "full",
    "source": "posta-moldovei-via-vasilcovsky"
  },
  {
    "code": "MD-3432",
    "country_id": 144,
    "country_code": "MD",
    "state_id": 4382,
    "state_code": "HI",
    "locality_name": "Leuşeni",
    "latitude": 46.8092,
    "longitude": 28.1994,
    "type": "full",
    "source": "posta-moldovei-via-vasilcovsky"
  },
  {
    "code": "MD-3434",
    "country_id": 144,
    "country_code": "MD",
    "state_id": 4382,
    "state_code": "HI",
    "locality_name": "Logăneşti",
    "latitude": 46.9039,
    "longitude": 28.5453,
    "type": "full",
    "source": "posta-moldovei-via-vasilcovsky"
  },
  {
    "code": "MD-3437",
    "country_id": 144,
    "country_code": "MD",
    "state_id": 4382,
    "state_code": "HI",
    "locality_name": "Chetroşeni",
    "latitude": 46.9631,
    "longitude": 28.2728,
    "type": "full",
    "source": "posta-moldovei-via-vasilcovsky"
  },
  {
    "code": "MD-3446",
    "country_id": 144,
    "country_code": "MD",
    "state_id": 4382,
    "state_code": "HI",
    "locality_name": "Brătianovca",
    "latitude": 46.7406,
    "longitude": 28.4647,
    "type": "full",
    "source": "posta-moldovei-via-vasilcovsky"
  },
  {
    "code": "MD-3446",
    "country_id": 144,
    "country_code": "MD",
    "state_id": 4382,
    "state_code": "HI",
    "locality_name": "Coroliovca",
    "latitude": 46.7108,
    "longitude": 28.4725,
    "type": "full",
    "source": "posta-moldovei-via-vasilcovsky"
  },
  {
    "code": "MD-3446",
    "country_id": 144,
    "country_code": "MD",
    "state_id": 4382,
    "state_code": "HI",
    "locality_name": "Cărpineanca",
    "latitude": 46.6961,
    "longitude": 28.4725,
    "type": "full",
    "source": "posta-moldovei-via-vasilcovsky"
  },
  {
    "code": "MD-3448",
    "country_id": 144,
    "country_code": "MD",
    "state_id": 4382,
    "state_code": "HI",
    "locality_name": "Corneşti",
    "latitude": 46.9981,
    "longitude": 28.3294,
    "type": "full",
    "source": "posta-moldovei-via-vasilcovsky"
  },
  {
    "code": "MD-3452",
    "country_id": 144,
    "country_code": "MD",
    "state_id": 4382,
    "state_code": "HI",
    "locality_name": "Boinescu",
    "latitude": 46.6975,
    "longitude": 28.3044,
    "type": "full",
    "source": "posta-moldovei-via-vasilcovsky"
  },
  {
    "code": "MD-3511",
    "country_id": 144,
    "country_code": "MD",
    "state_id": 4361,
    "state_code": "OR",
    "locality_name": "Berezlogi",
    "latitude": 47.4364,
    "longitude": 28.9339,
    "type": "full",
    "source": "posta-moldovei-via-vasilcovsky"
  },
  {
    "code": "MD-3512",
    "country_id": 144,
    "country_code": "MD",
    "state_id": 4361,
    "state_code": "OR",
    "locality_name": "Bieşti",
    "latitude": 47.5156,
    "longitude": 28.8614,
    "type": "full",
    "source": "posta-moldovei-via-vasilcovsky"
  },
  {
    "code": "MD-3512",
    "country_id": 144,
    "country_code": "MD",
    "state_id": 4361,
    "state_code": "OR",
    "locality_name": "Cihoreni",
    "latitude": 47.5061,
    "longitude": 28.8622,
    "type": "full",
    "source": "posta-moldovei-via-vasilcovsky"
  },
  {
    "code": "MD-3513",
    "country_id": 144,
    "country_code": "MD",
    "state_id": 4361,
    "state_code": "OR",
    "locality_name": "Bolohan",
    "latitude": 47.4319,
    "longitude": 28.8731,
    "type": "full",
    "source": "posta-moldovei-via-vasilcovsky"
  },
  {
    "code": "MD-3514",
    "country_id": 144,
    "country_code": "MD",
    "state_id": 4361,
    "state_code": "OR",
    "locality_name": "Brăviceni",
    "latitude": 47.4336,
    "longitude": 28.6578,
    "type": "full",
    "source": "posta-moldovei-via-vasilcovsky"
  },
  {
    "code": "MD-3515",
    "country_id": 144,
    "country_code": "MD",
    "state_id": 4361,
    "state_code": "OR",
    "locality_name": "Brăneşti",
    "latitude": 47.3053,
    "longitude": 28.9267,
    "type": "full",
    "source": "posta-moldovei-via-vasilcovsky"
  },
  {
    "code": "MD-3516",
    "country_id": 144,
    "country_code": "MD",
    "state_id": 4361,
    "state_code": "OR",
    "locality_name": "Breanova",
    "latitude": 47.4158,
    "longitude": 28.6497,
    "type": "full",
    "source": "posta-moldovei-via-vasilcovsky"
  },
  {
    "code": "MD-3517",
    "country_id": 144,
    "country_code": "MD",
    "state_id": 4361,
    "state_code": "OR",
    "locality_name": "Bulăieşti",
    "latitude": 47.4769,
    "longitude": 28.9786,
    "type": "full",
    "source": "posta-moldovei-via-vasilcovsky"
  },
  {
    "code": "MD-3518",
    "country_id": 144,
    "country_code": "MD",
    "state_id": 4361,
    "state_code": "OR",
    "locality_name": "Chiperceni",
    "latitude": 47.525,
    "longitude": 28.8386,
    "type": "full",
    "source": "posta-moldovei-via-vasilcovsky"
  },
  {
    "code": "MD-3519",
    "country_id": 144,
    "country_code": "MD",
    "state_id": 4361,
    "state_code": "OR",
    "locality_name": "Ciocîlteni",
    "latitude": 47.4939,
    "longitude": 28.6089,
    "type": "full",
    "source": "posta-moldovei-via-vasilcovsky"
  },
  {
    "code": "MD-3519",
    "country_id": 144,
    "country_code": "MD",
    "state_id": 4361,
    "state_code": "OR",
    "locality_name": "Clişova Nouă",
    "latitude": 47.491,
    "longitude": 28.6246,
    "type": "full",
    "source": "posta-moldovei-via-vasilcovsky"
  },
  {
    "code": "MD-3519",
    "country_id": 144,
    "country_code": "MD",
    "state_id": 4361,
    "state_code": "OR",
    "locality_name": "Fedoreuca",
    "latitude": 47.4881,
    "longitude": 28.6403,
    "type": "full",
    "source": "posta-moldovei-via-vasilcovsky"
  },
  {
    "code": "MD-3520",
    "country_id": 144,
    "country_code": "MD",
    "state_id": 4361,
    "state_code": "OR",
    "locality_name": "Cişmea",
    "latitude": 47.4164,
    "longitude": 28.7533,
    "type": "full",
    "source": "posta-moldovei-via-vasilcovsky"
  },
  {
    "code": "MD-3521",
    "country_id": 144,
    "country_code": "MD",
    "state_id": 4361,
    "state_code": "OR",
    "locality_name": "Clişova",
    "latitude": 47.4731,
    "longitude": 28.5736,
    "type": "full",
    "source": "posta-moldovei-via-vasilcovsky"
  },
  {
    "code": "MD-3522",
    "country_id": 144,
    "country_code": "MD",
    "state_id": 4361,
    "state_code": "OR",
    "locality_name": "Cucuruzeni",
    "latitude": 47.4883,
    "longitude": 28.7258,
    "type": "full",
    "source": "posta-moldovei-via-vasilcovsky"
  },
  {
    "code": "MD-3523",
    "country_id": 144,
    "country_code": "MD",
    "state_id": 4361,
    "state_code": "OR",
    "locality_name": "Crihana",
    "latitude": 47.5228,
    "longitude": 28.7211,
    "type": "full",
    "source": "posta-moldovei-via-vasilcovsky"
  },
  {
    "code": "MD-3523",
    "country_id": 144,
    "country_code": "MD",
    "state_id": 4361,
    "state_code": "OR",
    "locality_name": "Cucutuzenii de Sus",
    "latitude": 47.5456,
    "longitude": 28.6989,
    "type": "full",
    "source": "posta-moldovei-via-vasilcovsky"
  },
  {
    "code": "MD-3524",
    "country_id": 144,
    "country_code": "MD",
    "state_id": 4361,
    "state_code": "OR",
    "locality_name": "Curchi",
    "latitude": 47.3358,
    "longitude": 28.6539,
    "type": "full",
    "source": "posta-moldovei-via-vasilcovsky"
  },
  {
    "code": "MD-3524",
    "country_id": 144,
    "country_code": "MD",
    "state_id": 4361,
    "state_code": "OR",
    "locality_name": "Mana",
    "latitude": 47.3389,
    "longitude": 28.6844,
    "type": "full",
    "source": "posta-moldovei-via-vasilcovsky"
  },
  {
    "code": "MD-3525",
    "country_id": 144,
    "country_code": "MD",
    "state_id": 4361,
    "state_code": "OR",
    "locality_name": "Dişcova",
    "latitude": 47.3756,
    "longitude": 28.5975,
    "type": "full",
    "source": "posta-moldovei-via-vasilcovsky"
  },
  {
    "code": "MD-3526",
    "country_id": 144,
    "country_code": "MD",
    "state_id": 4361,
    "state_code": "OR",
    "locality_name": "Camencea",
    "latitude": 47.2808,
    "longitude": 28.6875,
    "type": "full",
    "source": "posta-moldovei-via-vasilcovsky"
  },
  {
    "code": "MD-3526",
    "country_id": 144,
    "country_code": "MD",
    "state_id": 4361,
    "state_code": "OR",
    "locality_name": "Donici",
    "latitude": 47.2844,
    "longitude": 28.67,
    "type": "full",
    "source": "posta-moldovei-via-vasilcovsky"
  },
  {
    "code": "MD-3527",
    "country_id": 144,
    "country_code": "MD",
    "state_id": 4361,
    "state_code": "OR",
    "locality_name": "Furceni",
    "latitude": 47.3364,
    "longitude": 28.9256,
    "type": "full",
    "source": "posta-moldovei-via-vasilcovsky"
  },
  {
    "code": "MD-3528",
    "country_id": 144,
    "country_code": "MD",
    "state_id": 4361,
    "state_code": "OR",
    "locality_name": "Ghetlova",
    "latitude": 47.3719,
    "longitude": 28.5322,
    "type": "full",
    "source": "posta-moldovei-via-vasilcovsky"
  },
  {
    "code": "MD-3529",
    "country_id": 144,
    "country_code": "MD",
    "state_id": 4361,
    "state_code": "OR",
    "locality_name": "Hîjdieni",
    "latitude": 47.4594,
    "longitude": 28.9147,
    "type": "full",
    "source": "posta-moldovei-via-vasilcovsky"
  },
  {
    "code": "MD-3530",
    "country_id": 144,
    "country_code": "MD",
    "state_id": 4361,
    "state_code": "OR",
    "locality_name": "Hulboaca",
    "latitude": 47.3786,
    "longitude": 28.555,
    "type": "full",
    "source": "posta-moldovei-via-vasilcovsky"
  },
  {
    "code": "MD-3531",
    "country_id": 144,
    "country_code": "MD",
    "state_id": 4361,
    "state_code": "OR",
    "locality_name": "Isacova",
    "latitude": 47.3703,
    "longitude": 28.7181,
    "type": "full",
    "source": "posta-moldovei-via-vasilcovsky"
  },
  {
    "code": "MD-3532",
    "country_id": 144,
    "country_code": "MD",
    "state_id": 4361,
    "state_code": "OR",
    "locality_name": "Ivancea",
    "latitude": 47.2847,
    "longitude": 28.8569,
    "type": "full",
    "source": "posta-moldovei-via-vasilcovsky"
  },
  {
    "code": "MD-3533",
    "country_id": 144,
    "country_code": "MD",
    "state_id": 4361,
    "state_code": "OR",
    "locality_name": "Izvoare",
    "latitude": 47.5517,
    "longitude": 28.9572,
    "type": "full",
    "source": "posta-moldovei-via-vasilcovsky"
  },
  {
    "code": "MD-3534",
    "country_id": 144,
    "country_code": "MD",
    "state_id": 4361,
    "state_code": "OR",
    "locality_name": "Jora de Jos",
    "latitude": 47.465,
    "longitude": 29.1083,
    "type": "full",
    "source": "posta-moldovei-via-vasilcovsky"
  },
  {
    "code": "MD-3534",
    "country_id": 144,
    "country_code": "MD",
    "state_id": 4361,
    "state_code": "OR",
    "locality_name": "Jora de Mijloc",
    "latitude": 47.4756,
    "longitude": 29.0961,
    "type": "full",
    "source": "posta-moldovei-via-vasilcovsky"
  },
  {
    "code": "MD-3535",
    "country_id": 144,
    "country_code": "MD",
    "state_id": 4361,
    "state_code": "OR",
    "locality_name": "Jora de Sus",
    "latitude": 47.4867,
    "longitude": 29.0761,
    "type": "full",
    "source": "posta-moldovei-via-vasilcovsky"
  },
  {
    "code": "MD-3535",
    "country_id": 144,
    "country_code": "MD",
    "state_id": 4361,
    "state_code": "OR",
    "locality_name": "Lopatna",
    "latitude": 47.495,
    "longitude": 29.0522,
    "type": "full",
    "source": "posta-moldovei-via-vasilcovsky"
  },
  {
    "code": "MD-3536",
    "country_id": 144,
    "country_code": "MD",
    "state_id": 4361,
    "state_code": "OR",
    "locality_name": "Mălaie şti",
    "latitude": 47.4631,
    "longitude": 28.6636,
    "type": "full",
    "source": "posta-moldovei-via-vasilcovsky"
  },
  {
    "code": "MD-3542",
    "country_id": 144,
    "country_code": "MD",
    "state_id": 4361,
    "state_code": "OR",
    "locality_name": "Jeloboc",
    "latitude": 47.3569,
    "longitude": 28.9047,
    "type": "full",
    "source": "posta-moldovei-via-vasilcovsky"
  },
  {
    "code": "MD-3545",
    "country_id": 144,
    "country_code": "MD",
    "state_id": 4361,
    "state_code": "OR",
    "locality_name": "Lucăşeuca",
    "latitude": 47.335,
    "longitude": 28.7558,
    "type": "full",
    "source": "posta-moldovei-via-vasilcovsky"
  },
  {
    "code": "MD-3547",
    "country_id": 144,
    "country_code": "MD",
    "state_id": 4361,
    "state_code": "OR",
    "locality_name": "Budăi",
    "latitude": 47.4344,
    "longitude": 28.8211,
    "type": "full",
    "source": "posta-moldovei-via-vasilcovsky"
  },
  {
    "code": "MD-3552",
    "country_id": 144,
    "country_code": "MD",
    "state_id": 4361,
    "state_code": "OR",
    "locality_name": "Butuceni",
    "latitude": 47.3014,
    "longitude": 28.9725,
    "type": "full",
    "source": "posta-moldovei-via-vasilcovsky"
  },
  {
    "code": "MD-3556",
    "country_id": 144,
    "country_code": "MD",
    "state_id": 4361,
    "state_code": "OR",
    "locality_name": "Andreevca",
    "latitude": 47.5389,
    "longitude": 28.8775,
    "type": "full",
    "source": "posta-moldovei-via-vasilcovsky"
  },
  {
    "code": "MD-3557",
    "country_id": 144,
    "country_code": "MD",
    "state_id": 4361,
    "state_code": "OR",
    "locality_name": "Inculeţ",
    "latitude": 47.4489,
    "longitude": 28.7219,
    "type": "full",
    "source": "posta-moldovei-via-vasilcovsky"
  },
  {
    "code": "MD-3603",
    "country_id": 144,
    "country_code": "MD",
    "state_id": 4386,
    "state_code": "UN",
    "locality_name": "Elizavetovca",
    "latitude": 47.2425,
    "longitude": 27.76111,
    "type": "full",
    "source": "posta-moldovei-via-vasilcovsky"
  },
  {
    "code": "MD-3606",
    "country_id": 144,
    "country_code": "MD",
    "state_id": 4386,
    "state_code": "UN",
    "locality_name": "Elizavetovca",
    "latitude": 47.2436,
    "longitude": 27.8228,
    "type": "full",
    "source": "posta-moldovei-via-vasilcovsky"
  },
  {
    "code": "MD-3608",
    "country_id": 144,
    "country_code": "MD",
    "state_id": 4386,
    "state_code": "UN",
    "locality_name": "Corneşti",
    "latitude": 47.3835,
    "longitude": 27.9869,
    "type": "full",
    "source": "posta-moldovei-via-vasilcovsky"
  },
  {
    "code": "MD-3608",
    "country_id": 144,
    "country_code": "MD",
    "state_id": 4386,
    "state_code": "UN",
    "locality_name": "Corneşti Oraş",
    "latitude": 47.3835,
    "longitude": 27.9869,
    "type": "full",
    "source": "posta-moldovei-via-vasilcovsky"
  },
  {
    "code": "MD-3611",
    "country_id": 144,
    "country_code": "MD",
    "state_id": 4386,
    "state_code": "UN",
    "locality_name": "Agronomovca",
    "latitude": 47.34861,
    "longitude": 27.89639,
    "type": "full",
    "source": "posta-moldovei-via-vasilcovsky"
  },
  {
    "code": "MD-3612",
    "country_id": 144,
    "country_code": "MD",
    "state_id": 4386,
    "state_code": "UN",
    "locality_name": "Alexeevca",
    "latitude": 47.2636,
    "longitude": 27.9297,
    "type": "full",
    "source": "posta-moldovei-via-vasilcovsky"
  },
  {
    "code": "MD-3613",
    "country_id": 144,
    "country_code": "MD",
    "state_id": 4386,
    "state_code": "UN",
    "locality_name": "Boghenii Noi",
    "latitude": 47.4253,
    "longitude": 28.0144,
    "type": "full",
    "source": "posta-moldovei-via-vasilcovsky"
  },
  {
    "code": "MD-3613",
    "country_id": 144,
    "country_code": "MD",
    "state_id": 4386,
    "state_code": "UN",
    "locality_name": "Boghenii Vechi",
    "latitude": 47.4253,
    "longitude": 28.0144,
    "type": "full",
    "source": "posta-moldovei-via-vasilcovsky"
  },
  {
    "code": "MD-3614",
    "country_id": 144,
    "country_code": "MD",
    "state_id": 4386,
    "state_code": "UN",
    "locality_name": "Boghenii Vechi",
    "latitude": 47.3972,
    "longitude": 28.0261,
    "type": "full",
    "source": "posta-moldovei-via-vasilcovsky"
  },
  {
    "code": "MD-3615",
    "country_id": 144,
    "country_code": "MD",
    "state_id": 4386,
    "state_code": "UN",
    "locality_name": "Bumbăta",
    "latitude": 47.3408,
    "longitude": 27.9744,
    "type": "full",
    "source": "posta-moldovei-via-vasilcovsky"
  },
  {
    "code": "MD-3616",
    "country_id": 144,
    "country_code": "MD",
    "state_id": 4386,
    "state_code": "UN",
    "locality_name": "Buşila",
    "latitude": 47.3875,
    "longitude": 27.8117,
    "type": "full",
    "source": "posta-moldovei-via-vasilcovsky"
  },
  {
    "code": "MD-3617",
    "country_id": 144,
    "country_code": "MD",
    "state_id": 4386,
    "state_code": "UN",
    "locality_name": "Cetireni",
    "latitude": 47.2242,
    "longitude": 27.9033,
    "type": "full",
    "source": "posta-moldovei-via-vasilcovsky"
  },
  {
    "code": "MD-3617",
    "country_id": 144,
    "country_code": "MD",
    "state_id": 4386,
    "state_code": "UN",
    "locality_name": "Floriţoaia Veche",
    "latitude": 47.20639,
    "longitude": 27.90778,
    "type": "full",
    "source": "posta-moldovei-via-vasilcovsky"
  },
  {
    "code": "MD-3618",
    "country_id": 144,
    "country_code": "MD",
    "state_id": 4386,
    "state_code": "UN",
    "locality_name": "Chirileni",
    "latitude": 47.3808,
    "longitude": 27.7761,
    "type": "full",
    "source": "posta-moldovei-via-vasilcovsky"
  },
  {
    "code": "MD-3619",
    "country_id": 144,
    "country_code": "MD",
    "state_id": 4386,
    "state_code": "UN",
    "locality_name": "Cioropcani",
    "latitude": 47.3978,
    "longitude": 27.6997,
    "type": "full",
    "source": "posta-moldovei-via-vasilcovsky"
  },
  {
    "code": "MD-3619",
    "country_id": 144,
    "country_code": "MD",
    "state_id": 4386,
    "state_code": "UN",
    "locality_name": "Cioropcanii Noi",
    "latitude": 47.3978,
    "longitude": 27.6997,
    "type": "full",
    "source": "posta-moldovei-via-vasilcovsky"
  },
  {
    "code": "MD-3619",
    "country_id": 144,
    "country_code": "MD",
    "state_id": 4386,
    "state_code": "UN",
    "locality_name": "Cioropcanii Vechi",
    "latitude": 47.3978,
    "longitude": 27.6997,
    "type": "full",
    "source": "posta-moldovei-via-vasilcovsky"
  },
  {
    "code": "MD-3620",
    "country_id": 144,
    "country_code": "MD",
    "state_id": 4386,
    "state_code": "UN",
    "locality_name": "Condrăteşti",
    "latitude": 47.4122,
    "longitude": 28.1122,
    "type": "full",
    "source": "posta-moldovei-via-vasilcovsky"
  },
  {
    "code": "MD-3620",
    "country_id": 144,
    "country_code": "MD",
    "state_id": 4386,
    "state_code": "UN",
    "locality_name": "Curtoaia",
    "latitude": 47.3928,
    "longitude": 28.1047,
    "type": "full",
    "source": "posta-moldovei-via-vasilcovsky"
  },
  {
    "code": "MD-3621",
    "country_id": 144,
    "country_code": "MD",
    "state_id": 4386,
    "state_code": "UN",
    "locality_name": "Corneşti Sat",
    "latitude": 47.35611,
    "longitude": 28.00833,
    "type": "full",
    "source": "posta-moldovei-via-vasilcovsky"
  },
  {
    "code": "MD-3622",
    "country_id": 144,
    "country_code": "MD",
    "state_id": 4386,
    "state_code": "UN",
    "locality_name": "Corn ova",
    "latitude": 47.3947,
    "longitude": 28.1717,
    "type": "full",
    "source": "posta-moldovei-via-vasilcovsky"
  },
  {
    "code": "MD-3623",
    "country_id": 144,
    "country_code": "MD",
    "state_id": 4386,
    "state_code": "UN",
    "locality_name": "Costuleni",
    "latitude": 47.0781,
    "longitude": 27.9119,
    "type": "full",
    "source": "posta-moldovei-via-vasilcovsky"
  },
  {
    "code": "MD-3624",
    "country_id": 144,
    "country_code": "MD",
    "state_id": 4386,
    "state_code": "UN",
    "locality_name": "Coşeni",
    "latitude": 47.4406,
    "longitude": 27.9261,
    "type": "full",
    "source": "posta-moldovei-via-vasilcovsky"
  },
  {
    "code": "MD-3625",
    "country_id": 144,
    "country_code": "MD",
    "state_id": 4386,
    "state_code": "UN",
    "locality_name": "Drujba",
    "latitude": 47.4328,
    "longitude": 28.0761,
    "type": "full",
    "source": "posta-moldovei-via-vasilcovsky"
  },
  {
    "code": "MD-3626",
    "country_id": 144,
    "country_code": "MD",
    "state_id": 4386,
    "state_code": "UN",
    "locality_name": "Floriţoaia Nouă",
    "latitude": 47.1672,
    "longitude": 27.9253,
    "type": "full",
    "source": "posta-moldovei-via-vasilcovsky"
  },
  {
    "code": "MD-3626",
    "country_id": 144,
    "country_code": "MD",
    "state_id": 4386,
    "state_code": "UN",
    "locality_name": "Floriţoaia Veche",
    "latitude": 47.2064,
    "longitude": 27.9078,
    "type": "full",
    "source": "posta-moldovei-via-vasilcovsky"
  },
  {
    "code": "MD-3626",
    "country_id": 144,
    "country_code": "MD",
    "state_id": 4386,
    "state_code": "UN",
    "locality_name": "Grozasca",
    "latitude": 47.1811,
    "longitude": 27.8944,
    "type": "full",
    "source": "posta-moldovei-via-vasilcovsky"
  },
  {
    "code": "MD-3627",
    "country_id": 144,
    "country_code": "MD",
    "state_id": 4386,
    "state_code": "UN",
    "locality_name": "Buciumeni",
    "latitude": 47.3706,
    "longitude": 27.7136,
    "type": "full",
    "source": "posta-moldovei-via-vasilcovsky"
  },
  {
    "code": "MD-3627",
    "country_id": 144,
    "country_code": "MD",
    "state_id": 4386,
    "state_code": "UN",
    "locality_name": "Floreşti",
    "latitude": 47.3706,
    "longitude": 27.7136,
    "type": "full",
    "source": "posta-moldovei-via-vasilcovsky"
  },
  {
    "code": "MD-3628",
    "country_id": 144,
    "country_code": "MD",
    "state_id": 4386,
    "state_code": "UN",
    "locality_name": "Frăsineşti",
    "latitude": 47.0344,
    "longitude": 28.0128,
    "type": "full",
    "source": "posta-moldovei-via-vasilcovsky"
  },
  {
    "code": "MD-3629",
    "country_id": 144,
    "country_code": "MD",
    "state_id": 4386,
    "state_code": "UN",
    "locality_name": "Gherman",
    "latitude": 47.3594,
    "longitude": 27.6025,
    "type": "full",
    "source": "posta-moldovei-via-vasilcovsky"
  },
  {
    "code": "MD-3630",
    "country_id": 144,
    "country_code": "MD",
    "state_id": 4386,
    "state_code": "UN",
    "locality_name": "Grăseni",
    "latitude": 47.3503,
    "longitude": 27.8353,
    "type": "full",
    "source": "posta-moldovei-via-vasilcovsky"
  },
  {
    "code": "MD-3631",
    "country_id": 144,
    "country_code": "MD",
    "state_id": 4386,
    "state_code": "UN",
    "locality_name": "Hîrceşti",
    "latitude": 47.3953,
    "longitude": 28.0864,
    "type": "full",
    "source": "posta-moldovei-via-vasilcovsky"
  },
  {
    "code": "MD-3641",
    "country_id": 144,
    "country_code": "MD",
    "state_id": 4386,
    "state_code": "UN",
    "locality_name": "Hristoforovca",
    "latitude": 47.3547,
    "longitude": 27.9183,
    "type": "full",
    "source": "posta-moldovei-via-vasilcovsky"
  },
  {
    "code": "MD-3644",
    "country_id": 144,
    "country_code": "MD",
    "state_id": 4386,
    "state_code": "UN",
    "locality_name": "Blindeşti",
    "latitude": 47.3131,
    "longitude": 27.6692,
    "type": "full",
    "source": "posta-moldovei-via-vasilcovsky"
  },
  {
    "code": "MD-3644",
    "country_id": 144,
    "country_code": "MD",
    "state_id": 4386,
    "state_code": "UN",
    "locality_name": "Floreni",
    "latitude": 47.3464,
    "longitude": 27.6639,
    "type": "full",
    "source": "posta-moldovei-via-vasilcovsky"
  },
  {
    "code": "MD-3647",
    "country_id": 144,
    "country_code": "MD",
    "state_id": 4386,
    "state_code": "UN",
    "locality_name": "Bulhac",
    "latitude": 47.4281,
    "longitude": 27.7425,
    "type": "full",
    "source": "posta-moldovei-via-vasilcovsky"
  },
  {
    "code": "MD-3650",
    "country_id": 144,
    "country_code": "MD",
    "state_id": 4386,
    "state_code": "UN",
    "locality_name": "Floreni",
    "latitude": 47.2436,
    "longitude": 27.8228,
    "type": "full",
    "source": "posta-moldovei-via-vasilcovsky"
  },
  {
    "code": "MD-3651",
    "country_id": 144,
    "country_code": "MD",
    "state_id": 4386,
    "state_code": "UN",
    "locality_name": "Buzduganii de Jos",
    "latitude": 47.1436,
    "longitude": 27.8194,
    "type": "full",
    "source": "posta-moldovei-via-vasilcovsky"
  },
  {
    "code": "MD-3651",
    "country_id": 144,
    "country_code": "MD",
    "state_id": 4386,
    "state_code": "UN",
    "locality_name": "Buzduganii de Sus",
    "latitude": 47.1608,
    "longitude": 27.8625,
    "type": "full",
    "source": "posta-moldovei-via-vasilcovsky"
  },
  {
    "code": "MD-3701",
    "country_id": 144,
    "country_code": "MD",
    "state_id": 4377,
    "state_code": "ST",
    "locality_name": "Străşeni",
    "latitude": 47.14139,
    "longitude": 28.61028,
    "type": "full",
    "source": "posta-moldovei-via-vasilcovsky"
  },
  {
    "code": "MD-3702",
    "country_id": 144,
    "country_code": "MD",
    "state_id": 4377,
    "state_code": "ST",
    "locality_name": "Străşeni",
    "latitude": 47.14139,
    "longitude": 28.61028,
    "type": "full",
    "source": "posta-moldovei-via-vasilcovsky"
  },
  {
    "code": "MD-3703",
    "country_id": 144,
    "country_code": "MD",
    "state_id": 4377,
    "state_code": "ST",
    "locality_name": "Făgureni",
    "latitude": 47.1453,
    "longitude": 28.5628,
    "type": "full",
    "source": "posta-moldovei-via-vasilcovsky"
  },
  {
    "code": "MD-3711",
    "country_id": 144,
    "country_code": "MD",
    "state_id": 4377,
    "state_code": "ST",
    "locality_name": "Bucovăţ",
    "latitude": 47.1886,
    "longitude": 28.4569,
    "type": "full",
    "source": "posta-moldovei-via-vasilcovsky"
  },
  {
    "code": "MD-3712",
    "country_id": 144,
    "country_code": "MD",
    "state_id": 4377,
    "state_code": "ST",
    "locality_name": "Căpriana",
    "latitude": 47.1175,
    "longitude": 28.5044,
    "type": "full",
    "source": "posta-moldovei-via-vasilcovsky"
  },
  {
    "code": "MD-3713",
    "country_id": 144,
    "country_code": "MD",
    "state_id": 4377,
    "state_code": "ST",
    "locality_name": "Chirianca",
    "latitude": 47.2558,
    "longitude": 28.5328,
    "type": "full",
    "source": "posta-moldovei-via-vasilcovsky"
  },
  {
    "code": "MD-3714",
    "country_id": 144,
    "country_code": "MD",
    "state_id": 4377,
    "state_code": "ST",
    "locality_name": "Codreanca",
    "latitude": 47.2867,
    "longitude": 28.5897,
    "type": "full",
    "source": "posta-moldovei-via-vasilcovsky"
  },
  {
    "code": "MD-3714",
    "country_id": 144,
    "country_code": "MD",
    "state_id": 4377,
    "state_code": "ST",
    "locality_name": "Lupa-Recea",
    "latitude": 47.3128,
    "longitude": 28.5925,
    "type": "full",
    "source": "posta-moldovei-via-vasilcovsky"
  },
  {
    "code": "MD-3715",
    "country_id": 144,
    "country_code": "MD",
    "state_id": 4377,
    "state_code": "ST",
    "locality_name": "Cojuşna",
    "latitude": 47.0928,
    "longitude": 28.6581,
    "type": "full",
    "source": "posta-moldovei-via-vasilcovsky"
  },
  {
    "code": "MD-3716",
    "country_id": 144,
    "country_code": "MD",
    "state_id": 4377,
    "state_code": "ST",
    "locality_name": "Drăguşeni",
    "latitude": 47.2142,
    "longitude": 28.6642,
    "type": "full",
    "source": "posta-moldovei-via-vasilcovsky"
  },
  {
    "code": "MD-3717",
    "country_id": 144,
    "country_code": "MD",
    "state_id": 4377,
    "state_code": "ST",
    "locality_name": "Găieşti",
    "latitude": 47.2281,
    "longitude": 28.4981,
    "type": "full",
    "source": "posta-moldovei-via-vasilcovsky"
  },
  {
    "code": "MD-3717",
    "country_id": 144,
    "country_code": "MD",
    "state_id": 4377,
    "state_code": "ST",
    "locality_name": "Găieştii Noi",
    "latitude": 47.2075,
    "longitude": 28.4956,
    "type": "full",
    "source": "posta-moldovei-via-vasilcovsky"
  },
  {
    "code": "MD-3718",
    "country_id": 144,
    "country_code": "MD",
    "state_id": 4377,
    "state_code": "ST",
    "locality_name": "Ghelăuza",
    "latitude": 47.1936,
    "longitude": 28.5967,
    "type": "full",
    "source": "posta-moldovei-via-vasilcovsky"
  },
  {
    "code": "MD-3718",
    "country_id": 144,
    "country_code": "MD",
    "state_id": 4377,
    "state_code": "ST",
    "locality_name": "Saca",
    "latitude": 47.1942,
    "longitude": 28.6108,
    "type": "full",
    "source": "posta-moldovei-via-vasilcovsky"
  },
  {
    "code": "MD-3719",
    "country_id": 144,
    "country_code": "MD",
    "state_id": 4377,
    "state_code": "ST",
    "locality_name": "Gornoe",
    "latitude": 47.2,
    "longitude": 28.6,
    "type": "full",
    "source": "posta-moldovei-via-vasilcovsky"
  },
  {
    "code": "MD-3720",
    "country_id": 144,
    "country_code": "MD",
    "state_id": 4377,
    "state_code": "ST",
    "locality_name": "Grebleşi",
    "latitude": 47.2353,
    "longitude": 28.6069,
    "type": "full",
    "source": "posta-moldovei-via-vasilcovsky"
  },
  {
    "code": "MD-3720",
    "country_id": 144,
    "country_code": "MD",
    "state_id": 4377,
    "state_code": "ST",
    "locality_name": "Mărtineşti",
    "latitude": 47.2353,
    "longitude": 28.6069,
    "type": "full",
    "source": "posta-moldovei-via-vasilcovsky"
  },
  {
    "code": "MD-3721",
    "country_id": 144,
    "country_code": "MD",
    "state_id": 4377,
    "state_code": "ST",
    "locality_name": "Lozova",
    "latitude": 47.1328,
    "longitude": 28.3858,
    "type": "full",
    "source": "posta-moldovei-via-vasilcovsky"
  },
  {
    "code": "MD-3721",
    "country_id": 144,
    "country_code": "MD",
    "state_id": 4377,
    "state_code": "ST",
    "locality_name": "Stejăreni",
    "latitude": 47.1061,
    "longitude": 28.4164,
    "type": "full",
    "source": "posta-moldovei-via-vasilcovsky"
  },
  {
    "code": "MD-3722",
    "country_id": 144,
    "country_code": "MD",
    "state_id": 4377,
    "state_code": "ST",
    "locality_name": "Micăuţi",
    "latitude": 47.1722,
    "longitude": 28.7489,
    "type": "full",
    "source": "posta-moldovei-via-vasilcovsky"
  },
  {
    "code": "MD-3723",
    "country_id": 144,
    "country_code": "MD",
    "state_id": 4377,
    "state_code": "ST",
    "locality_name": "Negreşti",
    "latitude": 47.1778,
    "longitude": 28.6247,
    "type": "full",
    "source": "posta-moldovei-via-vasilcovsky"
  },
  {
    "code": "MD-3724",
    "country_id": 144,
    "country_code": "MD",
    "state_id": 4377,
    "state_code": "ST",
    "locality_name": "Oneşti",
    "latitude": 47.2786,
    "longitude": 28.5511,
    "type": "full",
    "source": "posta-moldovei-via-vasilcovsky"
  },
  {
    "code": "MD-3725",
    "country_id": 144,
    "country_code": "MD",
    "state_id": 4377,
    "state_code": "ST",
    "locality_name": "Ciobănea",
    "latitude": 47.145,
    "longitude": 28.5022,
    "type": "full",
    "source": "posta-moldovei-via-vasilcovsky"
  },
  {
    "code": "MD-3725",
    "country_id": 144,
    "country_code": "MD",
    "state_id": 4377,
    "state_code": "ST",
    "locality_name": "Pănăşeşti",
    "latitude": 47.1531,
    "longitude": 28.5186,
    "type": "full",
    "source": "posta-moldovei-via-vasilcovsky"
  },
  {
    "code": "MD-3726",
    "country_id": 144,
    "country_code": "MD",
    "state_id": 4377,
    "state_code": "ST",
    "locality_name": "Rădeni",
    "latitude": 47.2067,
    "longitude": 28.6992,
    "type": "full",
    "source": "posta-moldovei-via-vasilcovsky"
  },
  {
    "code": "MD-3727",
    "country_id": 144,
    "country_code": "MD",
    "state_id": 4377,
    "state_code": "ST",
    "locality_name": "Recea",
    "latitude": 47.2217,
    "longitude": 28.5806,
    "type": "full",
    "source": "posta-moldovei-via-vasilcovsky"
  },
  {
    "code": "MD-3728",
    "country_id": 144,
    "country_code": "MD",
    "state_id": 4377,
    "state_code": "ST",
    "locality_name": "Romaneşti",
    "latitude": 47.2258,
    "longitude": 28.7111,
    "type": "full",
    "source": "posta-moldovei-via-vasilcovsky"
  },
  {
    "code": "MD-3729",
    "country_id": 144,
    "country_code": "MD",
    "state_id": 4377,
    "state_code": "ST",
    "locality_name": "Roşcani",
    "latitude": 47.1475,
    "longitude": 28.6778,
    "type": "full",
    "source": "posta-moldovei-via-vasilcovsky"
  },
  {
    "code": "MD-3730",
    "country_id": 144,
    "country_code": "MD",
    "state_id": 4377,
    "state_code": "ST",
    "locality_name": "Scoreni",
    "latitude": 47.0647,
    "longitude": 28.6086,
    "type": "full",
    "source": "posta-moldovei-via-vasilcovsky"
  },
  {
    "code": "MD-3731",
    "country_id": 144,
    "country_code": "MD",
    "state_id": 4377,
    "state_code": "ST",
    "locality_name": "Şireţi",
    "latitude": 47.1339,
    "longitude": 28.7142,
    "type": "full",
    "source": "posta-moldovei-via-vasilcovsky"
  },
  {
    "code": "MD-3732",
    "country_id": 144,
    "country_code": "MD",
    "state_id": 4377,
    "state_code": "ST",
    "locality_name": "Tătăreşti",
    "latitude": 47.2044,
    "longitude": 28.5386,
    "type": "full",
    "source": "posta-moldovei-via-vasilcovsky"
  },
  {
    "code": "MD-3734",
    "country_id": 144,
    "country_code": "MD",
    "state_id": 4377,
    "state_code": "ST",
    "locality_name": "Ţigăneşti",
    "latitude": 47.2989,
    "longitude": 28.5522,
    "type": "full",
    "source": "posta-moldovei-via-vasilcovsky"
  },
  {
    "code": "MD-3735",
    "country_id": 144,
    "country_code": "MD",
    "state_id": 4377,
    "state_code": "ST",
    "locality_name": "Voi nova",
    "latitude": 47.2706,
    "longitude": 28.4872,
    "type": "full",
    "source": "posta-moldovei-via-vasilcovsky"
  },
  {
    "code": "MD-3736",
    "country_id": 144,
    "country_code": "MD",
    "state_id": 4377,
    "state_code": "ST",
    "locality_name": "Vorniceni",
    "latitude": 47.1497,
    "longitude": 28.4294,
    "type": "full",
    "source": "posta-moldovei-via-vasilcovsky"
  },
  {
    "code": "MD-3737",
    "country_id": 144,
    "country_code": "MD",
    "state_id": 4377,
    "state_code": "ST",
    "locality_name": "Vorniceni",
    "latitude": 47.1497,
    "longitude": 28.4294,
    "type": "full",
    "source": "posta-moldovei-via-vasilcovsky"
  },
  {
    "code": "MD-3801",
    "country_id": 144,
    "country_code": "MD",
    "state_id": 4385,
    "state_code": "GA",
    "locality_name": "Comrat",
    "latitude": 46.30028,
    "longitude": 28.65722,
    "type": "full",
    "source": "posta-moldovei-via-vasilcovsky"
  },
  {
    "code": "MD-3802",
    "country_id": 144,
    "country_code": "MD",
    "state_id": 4385,
    "state_code": "GA",
    "locality_name": "Comrat",
    "latitude": 46.30028,
    "longitude": 28.65722,
    "type": "full",
    "source": "posta-moldovei-via-vasilcovsky"
  },
  {
    "code": "MD-3805",
    "country_id": 144,
    "country_code": "MD",
    "state_id": 4385,
    "state_code": "GA",
    "locality_name": "Comrat",
    "latitude": 46.30028,
    "longitude": 28.65722,
    "type": "full",
    "source": "posta-moldovei-via-vasilcovsky"
  },
  {
    "code": "MD-3810",
    "country_id": 144,
    "country_code": "MD",
    "state_id": 4385,
    "state_code": "GA",
    "locality_name": "Comrat",
    "latitude": 46.30028,
    "longitude": 28.65722,
    "type": "full",
    "source": "posta-moldovei-via-vasilcovsky"
  },
  {
    "code": "MD-3811",
    "country_id": 144,
    "country_code": "MD",
    "state_id": 4385,
    "state_code": "GA",
    "locality_name": "Beşalma",
    "latitude": 46.1728,
    "longitude": 28.6483,
    "type": "full",
    "source": "posta-moldovei-via-vasilcovsky"
  },
  {
    "code": "MD-3812",
    "country_id": 144,
    "country_code": "MD",
    "state_id": 4385,
    "state_code": "GA",
    "locality_name": "Bugeac",
    "latitude": 46.3658,
    "longitude": 28.6633,
    "type": "full",
    "source": "posta-moldovei-via-vasilcovsky"
  },
  {
    "code": "MD-3813",
    "country_id": 144,
    "country_code": "MD",
    "state_id": 4385,
    "state_code": "GA",
    "locality_name": "Chirsova",
    "latitude": 46.2339,
    "longitude": 28.6481,
    "type": "full",
    "source": "posta-moldovei-via-vasilcovsky"
  },
  {
    "code": "MD-3814",
    "country_id": 144,
    "country_code": "MD",
    "state_id": 4385,
    "state_code": "GA",
    "locality_name": "Chioselia Rusă",
    "latitude": 46.0833,
    "longitude": 28.5164,
    "type": "full",
    "source": "posta-moldovei-via-vasilcovsky"
  },
  {
    "code": "MD-3815",
    "country_id": 144,
    "country_code": "MD",
    "state_id": 4385,
    "state_code": "GA",
    "locality_name": "Congaz",
    "latitude": 46.10917,
    "longitude": 28.60444,
    "type": "full",
    "source": "posta-moldovei-via-vasilcovsky"
  },
  {
    "code": "MD-3815",
    "country_id": 144,
    "country_code": "MD",
    "state_id": 4385,
    "state_code": "GA",
    "locality_name": "Cotovschii",
    "latitude": 46.1606,
    "longitude": 28.5136,
    "type": "full",
    "source": "posta-moldovei-via-vasilcovsky"
  },
  {
    "code": "MD-3815",
    "country_id": 144,
    "country_code": "MD",
    "state_id": 4385,
    "state_code": "GA",
    "locality_name": "Cotovscoe-Cîrlăneni",
    "latitude": 46.1606,
    "longitude": 28.5136,
    "type": "full",
    "source": "posta-moldovei-via-vasilcovsky"
  },
  {
    "code": "MD-3815",
    "country_id": 144,
    "country_code": "MD",
    "state_id": 4385,
    "state_code": "GA",
    "locality_name": "Cîrlăneni",
    "latitude": 46.1606,
    "longitude": 28.5136,
    "type": "full",
    "source": "posta-moldovei-via-vasilcovsky"
  },
  {
    "code": "MD-3816",
    "country_id": 144,
    "country_code": "MD",
    "state_id": 4385,
    "state_code": "GA",
    "locality_name": "Congazcic",
    "latitude": 46.3241,
    "longitude": 28.5506,
    "type": "full",
    "source": "posta-moldovei-via-vasilcovsky"
  },
  {
    "code": "MD-3816",
    "country_id": 144,
    "country_code": "MD",
    "state_id": 4385,
    "state_code": "GA",
    "locality_name": "Congazcicul de Jos",
    "latitude": 46.3114,
    "longitude": 28.5714,
    "type": "full",
    "source": "posta-moldovei-via-vasilcovsky"
  },
  {
    "code": "MD-3816",
    "country_id": 144,
    "country_code": "MD",
    "state_id": 4385,
    "state_code": "GA",
    "locality_name": "Congazcicul de Sus",
    "latitude": 46.3333,
    "longitude": 28.5664,
    "type": "full",
    "source": "posta-moldovei-via-vasilcovsky"
  },
  {
    "code": "MD-3816",
    "country_id": 144,
    "country_code": "MD",
    "state_id": 4385,
    "state_code": "GA",
    "locality_name": "Duduleşti",
    "latitude": 46.3275,
    "longitude": 28.5139,
    "type": "full",
    "source": "posta-moldovei-via-vasilcovsky"
  },
  {
    "code": "MD-3817",
    "country_id": 144,
    "country_code": "MD",
    "state_id": 4385,
    "state_code": "GA",
    "locality_name": "Avdarma",
    "latitude": 46.2542,
    "longitude": 28.8394,
    "type": "full",
    "source": "posta-moldovei-via-vasilcovsky"
  },
  {
    "code": "MD-3818",
    "country_id": 144,
    "country_code": "MD",
    "state_id": 4385,
    "state_code": "GA",
    "locality_name": "Cioc-Maidan",
    "latitude": 46.3581,
    "longitude": 28.8219,
    "type": "full",
    "source": "posta-moldovei-via-vasilcovsky"
  },
  {
    "code": "MD-3819",
    "country_id": 144,
    "country_code": "MD",
    "state_id": 4385,
    "state_code": "GA",
    "locality_name": "Congaz",
    "latitude": 46.1092,
    "longitude": 28.6044,
    "type": "full",
    "source": "posta-moldovei-via-vasilcovsky"
  },
  {
    "code": "MD-3820",
    "country_id": 144,
    "country_code": "MD",
    "state_id": 4385,
    "state_code": "GA",
    "locality_name": "Dezghingea",
    "latitude": 46.4244,
    "longitude": 28.6167,
    "type": "full",
    "source": "posta-moldovei-via-vasilcovsky"
  },
  {
    "code": "MD-3821",
    "country_id": 144,
    "country_code": "MD",
    "state_id": 4385,
    "state_code": "GA",
    "locality_name": "Ferapontievca",
    "latitude": 46.24,
    "longitude": 28.7744,
    "type": "full",
    "source": "posta-moldovei-via-vasilcovsky"
  },
  {
    "code": "MD-3822",
    "country_id": 144,
    "country_code": "MD",
    "state_id": 4385,
    "state_code": "GA",
    "locality_name": "Alexeevca",
    "latitude": 46.0264,
    "longitude": 28.5675,
    "type": "full",
    "source": "posta-moldovei-via-vasilcovsky"
  },
  {
    "code": "MD-3822",
    "country_id": 144,
    "country_code": "MD",
    "state_id": 4385,
    "state_code": "GA",
    "locality_name": "Svetlîi",
    "latitude": 46.0164,
    "longitude": 28.5661,
    "type": "full",
    "source": "posta-moldovei-via-vasilcovsky"
  },
  {
    "code": "MD-3901",
    "country_id": 144,
    "country_code": "MD",
    "state_id": 4391,
    "state_code": "CA",
    "locality_name": "Cahul",
    "latitude": 45.9075,
    "longitude": 28.19444,
    "type": "full",
    "source": "posta-moldovei-via-vasilcovsky"
  },
  {
    "code": "MD-3905",
    "country_id": 144,
    "country_code": "MD",
    "state_id": 4391,
    "state_code": "CA",
    "locality_name": "Cahul",
    "latitude": 45.9075,
    "longitude": 28.19444,
    "type": "full",
    "source": "posta-moldovei-via-vasilcovsky"
  },
  {
    "code": "MD-3907",
    "country_id": 144,
    "country_code": "MD",
    "state_id": 4391,
    "state_code": "CA",
    "locality_name": "Cahul",
    "latitude": 45.9075,
    "longitude": 28.19444,
    "type": "full",
    "source": "posta-moldovei-via-vasilcovsky"
  },
  {
    "code": "MD-3909",
    "country_id": 144,
    "country_code": "MD",
    "state_id": 4391,
    "state_code": "CA",
    "locality_name": "Cahul",
    "latitude": 45.9075,
    "longitude": 28.19444,
    "type": "full",
    "source": "posta-moldovei-via-vasilcovsky"
  },
  {
    "code": "MD-3911",
    "country_id": 144,
    "country_code": "MD",
    "state_id": 4391,
    "state_code": "CA",
    "locality_name": "Andruşul de Jos",
    "latitude": 45.9858,
    "longitude": 28.2211,
    "type": "full",
    "source": "posta-moldovei-via-vasilcovsky"
  },
  {
    "code": "MD-3912",
    "country_id": 144,
    "country_code": "MD",
    "state_id": 4391,
    "state_code": "CA",
    "locality_name": "Andruşul de Sus",
    "latitude": 46.0075,
    "longitude": 28.2461,
    "type": "full",
    "source": "posta-moldovei-via-vasilcovsky"
  },
  {
    "code": "MD-3913",
    "country_id": 144,
    "country_code": "MD",
    "state_id": 4391,
    "state_code": "CA",
    "locality_name": "Badicul Moldovenesc",
    "latitude": 46.0944,
    "longitude": 28.2706,
    "type": "full",
    "source": "posta-moldovei-via-vasilcovsky"
  },
  {
    "code": "MD-3914",
    "country_id": 144,
    "country_code": "MD",
    "state_id": 4391,
    "state_code": "CA",
    "locality_name": "Baurci-Moldoveni",
    "latitude": 46.0331,
    "longitude": 28.2328,
    "type": "full",
    "source": "posta-moldovei-via-vasilcovsky"
  },
  {
    "code": "MD-3914",
    "country_id": 144,
    "country_code": "MD",
    "state_id": 4391,
    "state_code": "CA",
    "locality_name": "Gibani",
    "latitude": 46.0331,
    "longitude": 28.2328,
    "type": "full",
    "source": "posta-moldovei-via-vasilcovsky"
  },
  {
    "code": "MD-3915",
    "country_id": 144,
    "country_code": "MD",
    "state_id": 4391,
    "state_code": "CA",
    "locality_name": "Bucuria",
    "latitude": 45.9656,
    "longitude": 28.3489,
    "type": "full",
    "source": "posta-moldovei-via-vasilcovsky"
  },
  {
    "code": "MD-3916",
    "country_id": 144,
    "country_code": "MD",
    "state_id": 4391,
    "state_code": "CA",
    "locality_name": "Burlacu",
    "latitude": 46.0447,
    "longitude": 28.4128,
    "type": "full",
    "source": "posta-moldovei-via-vasilcovsky"
  },
  {
    "code": "MD-3917",
    "country_id": 144,
    "country_code": "MD",
    "state_id": 4391,
    "state_code": "CA",
    "locality_name": "Cotihana",
    "latitude": 45.9381,
    "longitude": 28.2436,
    "type": "full",
    "source": "posta-moldovei-via-vasilcovsky"
  },
  {
    "code": "MD-3918",
    "country_id": 144,
    "country_code": "MD",
    "state_id": 4391,
    "state_code": "CA",
    "locality_name": "Crihana Veche",
    "latitude": 45.8458,
    "longitude": 28.1947,
    "type": "full",
    "source": "posta-moldovei-via-vasilcovsky"
  },
  {
    "code": "MD-3919",
    "country_id": 144,
    "country_code": "MD",
    "state_id": 4391,
    "state_code": "CA",
    "locality_name": "Chircani",
    "latitude": 46.0872,
    "longitude": 28.1722,
    "type": "full",
    "source": "posta-moldovei-via-vasilcovsky"
  },
  {
    "code": "MD-3919",
    "country_id": 144,
    "country_code": "MD",
    "state_id": 4391,
    "state_code": "CA",
    "locality_name": "Cucoara",
    "latitude": 46.0569,
    "longitude": 28.1708,
    "type": "full",
    "source": "posta-moldovei-via-vasilcovsky"
  },
  {
    "code": "MD-3920",
    "country_id": 144,
    "country_code": "MD",
    "state_id": 4391,
    "state_code": "CA",
    "locality_name": "Huluboaia",
    "latitude": 46.0658,
    "longitude": 28.3333,
    "type": "full",
    "source": "posta-moldovei-via-vasilcovsky"
  },
  {
    "code": "MD-3921",
    "country_id": 144,
    "country_code": "MD",
    "state_id": 4391,
    "state_code": "CA",
    "locality_name": "Larga Nouă",
    "latitude": 46.0725,
    "longitude": 28.2242,
    "type": "full",
    "source": "posta-moldovei-via-vasilcovsky"
  },
  {
    "code": "MD-3921",
    "country_id": 144,
    "country_code": "MD",
    "state_id": 4391,
    "state_code": "CA",
    "locality_name": "Larga Veche",
    "latitude": 46.0708,
    "longitude": 28.2453,
    "type": "full",
    "source": "posta-moldovei-via-vasilcovsky"
  },
  {
    "code": "MD-3922",
    "country_id": 144,
    "country_code": "MD",
    "state_id": 4391,
    "state_code": "CA",
    "locality_name": "Hutulu",
    "latitude": 45.8631,
    "longitude": 28.3006,
    "type": "full",
    "source": "posta-moldovei-via-vasilcovsky"
  },
  {
    "code": "MD-3922",
    "country_id": 144,
    "country_code": "MD",
    "state_id": 4391,
    "state_code": "CA",
    "locality_name": "Lebedenco",
    "latitude": 45.8561,
    "longitude": 28.2917,
    "type": "full",
    "source": "posta-moldovei-via-vasilcovsky"
  },
  {
    "code": "MD-3923",
    "country_id": 144,
    "country_code": "MD",
    "state_id": 4391,
    "state_code": "CA",
    "locality_name": "Lopaţica",
    "latitude": 45.9294,
    "longitude": 28.4122,
    "type": "full",
    "source": "posta-moldovei-via-vasilcovsky"
  },
  {
    "code": "MD-3923",
    "country_id": 144,
    "country_code": "MD",
    "state_id": 4391,
    "state_code": "CA",
    "locality_name": "Lopăţica",
    "latitude": 45.9294,
    "longitude": 28.4122,
    "type": "full",
    "source": "posta-moldovei-via-vasilcovsky"
  },
  {
    "code": "MD-3924",
    "country_id": 144,
    "country_code": "MD",
    "state_id": 4391,
    "state_code": "CA",
    "locality_name": "Luceşti",
    "latitude": 45.9889,
    "longitude": 28.3364,
    "type": "full",
    "source": "posta-moldovei-via-vasilcovsky"
  },
  {
    "code": "MD-3934",
    "country_id": 144,
    "country_code": "MD",
    "state_id": 4391,
    "state_code": "CA",
    "locality_name": "Chioselia Mare",
    "latitude": 46.1,
    "longitude": 28.4903,
    "type": "full",
    "source": "posta-moldovei-via-vasilcovsky"
  },
  {
    "code": "MD-3934",
    "country_id": 144,
    "country_code": "MD",
    "state_id": 4391,
    "state_code": "CA",
    "locality_name": "Frumuşica",
    "latitude": 46.0814,
    "longitude": 28.4831,
    "type": "full",
    "source": "posta-moldovei-via-vasilcovsky"
  },
  {
    "code": "MD-4011",
    "country_id": 144,
    "country_code": "MD",
    "state_id": 4395,
    "state_code": "SN",
    "locality_name": "Bîcioc",
    "latitude": 46.925,
    "longitude": 29.4803,
    "type": "full",
    "source": "posta-moldovei-via-vasilcovsky"
  },
  {
    "code": "MD-4012",
    "country_id": 144,
    "country_code": "MD",
    "state_id": 4395,
    "state_code": "SN",
    "locality_name": "But or",
    "latitude": 47.0414,
    "longitude": 29.4044,
    "type": "full",
    "source": "posta-moldovei-via-vasilcovsky"
  },
  {
    "code": "MD-4013",
    "country_id": 144,
    "country_code": "MD",
    "state_id": 4395,
    "state_code": "SN",
    "locality_name": "Carmanova",
    "latitude": 47.2589,
    "longitude": 29.5036,
    "type": "full",
    "source": "posta-moldovei-via-vasilcovsky"
  },
  {
    "code": "MD-4013",
    "country_id": 144,
    "country_code": "MD",
    "state_id": 4395,
    "state_code": "SN",
    "locality_name": "Cotovca",
    "latitude": 47.2853,
    "longitude": 29.4783,
    "type": "full",
    "source": "posta-moldovei-via-vasilcovsky"
  },
  {
    "code": "MD-4014",
    "country_id": 144,
    "country_code": "MD",
    "state_id": 4395,
    "state_code": "SN",
    "locality_name": "Cernita",
    "latitude": 47.0306,
    "longitude": 29.5178,
    "type": "full",
    "source": "posta-moldovei-via-vasilcovsky"
  },
  {
    "code": "MD-4015",
    "country_id": 144,
    "country_code": "MD",
    "state_id": 4395,
    "state_code": "SN",
    "locality_name": "Colosova",
    "latitude": 47.3258,
    "longitude": 29.5664,
    "type": "full",
    "source": "posta-moldovei-via-vasilcovsky"
  },
  {
    "code": "MD-4015",
    "country_id": 144,
    "country_code": "MD",
    "state_id": 4395,
    "state_code": "SN",
    "locality_name": "Crasnaia Bessarabia",
    "latitude": 47.285,
    "longitude": 29.5869,
    "type": "full",
    "source": "posta-moldovei-via-vasilcovsky"
  },
  {
    "code": "MD-4016",
    "country_id": 144,
    "country_code": "MD",
    "state_id": 4395,
    "state_code": "SN",
    "locality_name": "Crasnaia Gorca",
    "latitude": 47.1322,
    "longitude": 29.315,
    "type": "full",
    "source": "posta-moldovei-via-vasilcovsky"
  },
  {
    "code": "MD-4019",
    "country_id": 144,
    "country_code": "MD",
    "state_id": 4395,
    "state_code": "SN",
    "locality_name": "Bruslachi",
    "latitude": 47.2811,
    "longitude": 29.38,
    "type": "full",
    "source": "posta-moldovei-via-vasilcovsky"
  },
  {
    "code": "MD-4101",
    "country_id": 144,
    "country_code": "MD",
    "state_id": 4360,
    "state_code": "CM",
    "locality_name": "Cimişlia",
    "latitude": 46.52,
    "longitude": 28.7842,
    "type": "full",
    "source": "posta-moldovei-via-vasilcovsky"
  },
  {
    "code": "MD-4101",
    "country_id": 144,
    "country_code": "MD",
    "state_id": 4360,
    "state_code": "CM",
    "locality_name": "Dimitrovca",
    "latitude": 46.48528,
    "longitude": 28.71806,
    "type": "full",
    "source": "posta-moldovei-via-vasilcovsky"
  },
  {
    "code": "MD-4111",
    "country_id": 144,
    "country_code": "MD",
    "state_id": 4360,
    "state_code": "CM",
    "locality_name": "Albina",
    "latitude": 46.7044,
    "longitude": 28.6419,
    "type": "full",
    "source": "posta-moldovei-via-vasilcovsky"
  },
  {
    "code": "MD-4111",
    "country_id": 144,
    "country_code": "MD",
    "state_id": 4360,
    "state_code": "CM",
    "locality_name": "Fetiţa",
    "latitude": 46.6933,
    "longitude": 28.6731,
    "type": "full",
    "source": "posta-moldovei-via-vasilcovsky"
  },
  {
    "code": "MD-4111",
    "country_id": 144,
    "country_code": "MD",
    "state_id": 4360,
    "state_code": "CM",
    "locality_name": "Mereni",
    "latitude": 46.6747,
    "longitude": 28.6492,
    "type": "full",
    "source": "posta-moldovei-via-vasilcovsky"
  },
  {
    "code": "MD-4112",
    "country_id": 144,
    "country_code": "MD",
    "state_id": 4360,
    "state_code": "CM",
    "locality_name": "Bogdanovca Noua",
    "latitude": 46.4933,
    "longitude": 28.8444,
    "type": "full",
    "source": "posta-moldovei-via-vasilcovsky"
  },
  {
    "code": "MD-4112",
    "country_id": 144,
    "country_code": "MD",
    "state_id": 4360,
    "state_code": "CM",
    "locality_name": "Bogdanovca Nouă",
    "latitude": 46.4933,
    "longitude": 28.8444,
    "type": "full",
    "source": "posta-moldovei-via-vasilcovsky"
  },
  {
    "code": "MD-4112",
    "country_id": 144,
    "country_code": "MD",
    "state_id": 4360,
    "state_code": "CM",
    "locality_name": "Bogdanovca Veche",
    "latitude": 46.4756,
    "longitude": 28.8256,
    "type": "full",
    "source": "posta-moldovei-via-vasilcovsky"
  },
  {
    "code": "MD-4113",
    "country_id": 144,
    "country_code": "MD",
    "state_id": 4360,
    "state_code": "CM",
    "locality_name": "Cenac",
    "latitude": 46.4753,
    "longitude": 28.6419,
    "type": "full",
    "source": "posta-moldovei-via-vasilcovsky"
  },
  {
    "code": "MD-4114",
    "country_id": 144,
    "country_code": "MD",
    "state_id": 4360,
    "state_code": "CM",
    "locality_name": "Ciucur-Mingir",
    "latitude": 46.4408,
    "longitude": 28.7558,
    "type": "full",
    "source": "posta-moldovei-via-vasilcovsky"
  },
  {
    "code": "MD-4115",
    "country_id": 144,
    "country_code": "MD",
    "state_id": 4360,
    "state_code": "CM",
    "locality_name": "Coştangalia",
    "latitude": 46.6167,
    "longitude": 28.8031,
    "type": "full",
    "source": "posta-moldovei-via-vasilcovsky"
  },
  {
    "code": "MD-4116",
    "country_id": 144,
    "country_code": "MD",
    "state_id": 4360,
    "state_code": "CM",
    "locality_name": "Ecaterinovca",
    "latitude": 46.5839,
    "longitude": 28.7494,
    "type": "full",
    "source": "posta-moldovei-via-vasilcovsky"
  },
  {
    "code": "MD-4117",
    "country_id": 144,
    "country_code": "MD",
    "state_id": 4360,
    "state_code": "CM",
    "locality_name": "Grădişte",
    "latitude": 46.6078,
    "longitude": 28.7589,
    "type": "full",
    "source": "posta-moldovei-via-vasilcovsky"
  },
  {
    "code": "MD-4118",
    "country_id": 144,
    "country_code": "MD",
    "state_id": 4360,
    "state_code": "CM",
    "locality_name": "Gura Galbenei",
    "latitude": 46.6981,
    "longitude": 28.7058,
    "type": "full",
    "source": "posta-moldovei-via-vasilcovsky"
  },
  {
    "code": "MD-4119",
    "country_id": 144,
    "country_code": "MD",
    "state_id": 4360,
    "state_code": "CM",
    "locality_name": "Hîrtop",
    "latitude": 46.6522,
    "longitude": 28.685,
    "type": "full",
    "source": "posta-moldovei-via-vasilcovsky"
  },
  {
    "code": "MD-4119",
    "country_id": 144,
    "country_code": "MD",
    "state_id": 4360,
    "state_code": "CM",
    "locality_name": "lalpug",
    "latitude": 46.6517,
    "longitude": 28.5897,
    "type": "full",
    "source": "posta-moldovei-via-vasilcovsky"
  },
  {
    "code": "MD-4120",
    "country_id": 144,
    "country_code": "MD",
    "state_id": 4360,
    "state_code": "CM",
    "locality_name": "Marienfeld",
    "latitude": 46.5981,
    "longitude": 28.6186,
    "type": "full",
    "source": "posta-moldovei-via-vasilcovsky"
  },
  {
    "code": "MD-4120",
    "country_id": 144,
    "country_code": "MD",
    "state_id": 4360,
    "state_code": "CM",
    "locality_name": "lalpujeni",
    "latitude": 46.5981,
    "longitude": 28.6186,
    "type": "full",
    "source": "posta-moldovei-via-vasilcovsky"
  },
  {
    "code": "MD-4121",
    "country_id": 144,
    "country_code": "MD",
    "state_id": 4360,
    "state_code": "CM",
    "locality_name": "lurievca",
    "latitude": 46.6681,
    "longitude": 28.7642,
    "type": "full",
    "source": "posta-moldovei-via-vasilcovsky"
  },
  {
    "code": "MD-4122",
    "country_id": 144,
    "country_code": "MD",
    "state_id": 4360,
    "state_code": "CM",
    "locality_name": "Ivanovca Nouă",
    "latitude": 46.7456,
    "longitude": 28.6953,
    "type": "full",
    "source": "posta-moldovei-via-vasilcovsky"
  },
  {
    "code": "MD-4123",
    "country_id": 144,
    "country_code": "MD",
    "state_id": 4360,
    "state_code": "CM",
    "locality_name": "Artimonovca",
    "latitude": 46.5964,
    "longitude": 28.5908,
    "type": "full",
    "source": "posta-moldovei-via-vasilcovsky"
  },
  {
    "code": "MD-4123",
    "country_id": 144,
    "country_code": "MD",
    "state_id": 4360,
    "state_code": "CM",
    "locality_name": "Javgur",
    "latitude": 46.5392,
    "longitude": 28.6161,
    "type": "full",
    "source": "posta-moldovei-via-vasilcovsky"
  },
  {
    "code": "MD-4123",
    "country_id": 144,
    "country_code": "MD",
    "state_id": 4360,
    "state_code": "CM",
    "locality_name": "Maximeni",
    "latitude": 46.5717,
    "longitude": 28.5969,
    "type": "full",
    "source": "posta-moldovei-via-vasilcovsky"
  },
  {
    "code": "MD-4124",
    "country_id": 144,
    "country_code": "MD",
    "state_id": 4360,
    "state_code": "CM",
    "locality_name": "Lipoveni",
    "latitude": 46.7342,
    "longitude": 28.7619,
    "type": "full",
    "source": "posta-moldovei-via-vasilcovsky"
  },
  {
    "code": "MD-4125",
    "country_id": 144,
    "country_code": "MD",
    "state_id": 4360,
    "state_code": "CM",
    "locality_name": "Ivanovca Nouă",
    "latitude": 46.74556,
    "longitude": 28.69528,
    "type": "full",
    "source": "posta-moldovei-via-vasilcovsky"
  },
  {
    "code": "MD-4125",
    "country_id": 144,
    "country_code": "MD",
    "state_id": 4360,
    "state_code": "CM",
    "locality_name": "Mihailovca",
    "latitude": 46.5511,
    "longitude": 28.9319,
    "type": "full",
    "source": "posta-moldovei-via-vasilcovsky"
  },
  {
    "code": "MD-4131",
    "country_id": 144,
    "country_code": "MD",
    "state_id": 4360,
    "state_code": "CM",
    "locality_name": "Dimitrovca",
    "latitude": 46.4853,
    "longitude": 28.7181,
    "type": "full",
    "source": "posta-moldovei-via-vasilcovsky"
  },
  {
    "code": "MD-4133",
    "country_id": 144,
    "country_code": "MD",
    "state_id": 4360,
    "state_code": "CM",
    "locality_name": "Mereni",
    "latitude": 46.67472,
    "longitude": 28.64917,
    "type": "full",
    "source": "posta-moldovei-via-vasilcovsky"
  },
  {
    "code": "MD-4201",
    "country_id": 144,
    "country_code": "MD",
    "state_id": 4378,
    "state_code": "SV",
    "locality_name": "Ştefa n-Vodă",
    "latitude": 46.5153,
    "longitude": 29.6631,
    "type": "full",
    "source": "posta-moldovei-via-vasilcovsky"
  },
  {
    "code": "MD-4211",
    "country_id": 144,
    "country_code": "MD",
    "state_id": 4378,
    "state_code": "SV",
    "locality_name": "Al ava",
    "latitude": 46.5092,
    "longitude": 29.5678,
    "type": "full",
    "source": "posta-moldovei-via-vasilcovsky"
  },
  {
    "code": "MD-4212",
    "country_id": 144,
    "country_code": "MD",
    "state_id": 4378,
    "state_code": "SV",
    "locality_name": "Anton eşti",
    "latitude": 46.4961,
    "longitude": 29.8486,
    "type": "full",
    "source": "posta-moldovei-via-vasilcovsky"
  },
  {
    "code": "MD-4213",
    "country_id": 144,
    "country_code": "MD",
    "state_id": 4378,
    "state_code": "SV",
    "locality_name": "Brezoaia",
    "latitude": 46.5208,
    "longitude": 29.4539,
    "type": "full",
    "source": "posta-moldovei-via-vasilcovsky"
  },
  {
    "code": "MD-4214",
    "country_id": 144,
    "country_code": "MD",
    "state_id": 4378,
    "state_code": "SV",
    "locality_name": "Carahasani",
    "latitude": 46.4675,
    "longitude": 29.8122,
    "type": "full",
    "source": "posta-moldovei-via-vasilcovsky"
  },
  {
    "code": "MD-4215",
    "country_id": 144,
    "country_code": "MD",
    "state_id": 4378,
    "state_code": "SV",
    "locality_name": "Caplani",
    "latitude": 46.3872,
    "longitude": 29.8714,
    "type": "full",
    "source": "posta-moldovei-via-vasilcovsky"
  },
  {
    "code": "MD-4215",
    "country_id": 144,
    "country_code": "MD",
    "state_id": 4378,
    "state_code": "SV",
    "locality_name": "Căplani",
    "latitude": 46.3872,
    "longitude": 29.8714,
    "type": "full",
    "source": "posta-moldovei-via-vasilcovsky"
  },
  {
    "code": "MD-4216",
    "country_id": 144,
    "country_code": "MD",
    "state_id": 4378,
    "state_code": "SV",
    "locality_name": "Cioburciu",
    "latitude": 46.6003,
    "longitude": 29.7083,
    "type": "full",
    "source": "posta-moldovei-via-vasilcovsky"
  },
  {
    "code": "MD-4217",
    "country_id": 144,
    "country_code": "MD",
    "state_id": 4378,
    "state_code": "SV",
    "locality_name": "Copceac",
    "latitude": 46.45028,
    "longitude": 29.52083,
    "type": "full",
    "source": "posta-moldovei-via-vasilcovsky"
  },
  {
    "code": "MD-4218",
    "country_id": 144,
    "country_code": "MD",
    "state_id": 4378,
    "state_code": "SV",
    "locality_name": "Crocmaz",
    "latitude": 46.4519,
    "longitude": 29.9825,
    "type": "full",
    "source": "posta-moldovei-via-vasilcovsky"
  },
  {
    "code": "MD-4219",
    "country_id": 144,
    "country_code": "MD",
    "state_id": 4378,
    "state_code": "SV",
    "locality_name": "Ermoclia",
    "latitude": 46.5808,
    "longitude": 29.5097,
    "type": "full",
    "source": "posta-moldovei-via-vasilcovsky"
  },
  {
    "code": "MD-4220",
    "country_id": 144,
    "country_code": "MD",
    "state_id": 4378,
    "state_code": "SV",
    "locality_name": "Festei iţa",
    "latitude": 46.5444,
    "longitude": 29.5656,
    "type": "full",
    "source": "posta-moldovei-via-vasilcovsky"
  },
  {
    "code": "MD-4221",
    "country_id": 144,
    "country_code": "MD",
    "state_id": 4365,
    "state_code": "CS",
    "locality_name": "Grădiniţa",
    "latitude": 46.6531,
    "longitude": 29.5842,
    "type": "full",
    "source": "posta-moldovei-via-vasilcovsky"
  },
  {
    "code": "MD-4222",
    "country_id": 144,
    "country_code": "MD",
    "state_id": 4378,
    "state_code": "SV",
    "locality_name": "Lazo",
    "latitude": 46.4878,
    "longitude": 29.5764,
    "type": "full",
    "source": "posta-moldovei-via-vasilcovsky"
  },
  {
    "code": "MD-4223",
    "country_id": 144,
    "country_code": "MD",
    "state_id": 4365,
    "state_code": "CS",
    "locality_name": "Leuntea",
    "latitude": 46.6628,
    "longitude": 29.5878,
    "type": "full",
    "source": "posta-moldovei-via-vasilcovsky"
  },
  {
    "code": "MD-4224",
    "country_id": 144,
    "country_code": "MD",
    "state_id": 4378,
    "state_code": "SV",
    "locality_name": "Hadjilari",
    "latitude": 46.5206,
    "longitude": 29.6014,
    "type": "full",
    "source": "posta-moldovei-via-vasilcovsky"
  },
  {
    "code": "MD-4224",
    "country_id": 144,
    "country_code": "MD",
    "state_id": 4378,
    "state_code": "SV",
    "locality_name": "Marianca de Jos",
    "latitude": 46.5206,
    "longitude": 29.6014,
    "type": "full",
    "source": "posta-moldovei-via-vasilcovsky"
  },
  {
    "code": "MD-4225",
    "country_id": 144,
    "country_code": "MD",
    "state_id": 4378,
    "state_code": "SV",
    "locality_name": "Olăneşti",
    "latitude": 46.49556,
    "longitude": 29.91806,
    "type": "full",
    "source": "posta-moldovei-via-vasilcovsky"
  },
  {
    "code": "MD-4226",
    "country_id": 144,
    "country_code": "MD",
    "state_id": 4378,
    "state_code": "SV",
    "locality_name": "Olăneşti",
    "latitude": 46.49556,
    "longitude": 29.91806,
    "type": "full",
    "source": "posta-moldovei-via-vasilcovsky"
  },
  {
    "code": "MD-4227",
    "country_id": 144,
    "country_code": "MD",
    "state_id": 4378,
    "state_code": "SV",
    "locality_name": "Palanca",
    "latitude": 46.4086,
    "longitude": 30.0961,
    "type": "full",
    "source": "posta-moldovei-via-vasilcovsky"
  },
  {
    "code": "MD-4228",
    "country_id": 144,
    "country_code": "MD",
    "state_id": 4378,
    "state_code": "SV",
    "locality_name": "Popeasca",
    "latitude": 46.6025,
    "longitude": 29.5369,
    "type": "full",
    "source": "posta-moldovei-via-vasilcovsky"
  },
  {
    "code": "MD-4229",
    "country_id": 144,
    "country_code": "MD",
    "state_id": 4378,
    "state_code": "SV",
    "locality_name": "Purcari",
    "latitude": 46.5369,
    "longitude": 29.8603,
    "type": "full",
    "source": "posta-moldovei-via-vasilcovsky"
  },
  {
    "code": "MD-4230",
    "country_id": 144,
    "country_code": "MD",
    "state_id": 4378,
    "state_code": "SV",
    "locality_name": "Răscăieţi",
    "latitude": 46.5744,
    "longitude": 29.7761,
    "type": "full",
    "source": "posta-moldovei-via-vasilcovsky"
  },
  {
    "code": "MD-4231",
    "country_id": 144,
    "country_code": "MD",
    "state_id": 4378,
    "state_code": "SV",
    "locality_name": "Răscăieţii Noi",
    "latitude": 46.5325,
    "longitude": 29.7733,
    "type": "full",
    "source": "posta-moldovei-via-vasilcovsky"
  },
  {
    "code": "MD-4232",
    "country_id": 144,
    "country_code": "MD",
    "state_id": 4378,
    "state_code": "SV",
    "locality_name": "Semionovca",
    "latitude": 46.5167,
    "longitude": 29.5122,
    "type": "full",
    "source": "posta-moldovei-via-vasilcovsky"
  },
  {
    "code": "MD-4233",
    "country_id": 144,
    "country_code": "MD",
    "state_id": 4378,
    "state_code": "SV",
    "locality_name": "Slobozia",
    "latitude": 46.5081,
    "longitude": 29.7403,
    "type": "full",
    "source": "posta-moldovei-via-vasilcovsky"
  },
  {
    "code": "MD-4236",
    "country_id": 144,
    "country_code": "MD",
    "state_id": 4378,
    "state_code": "SV",
    "locality_name": "Ştefăneşti",
    "latitude": 46.4458,
    "longitude": 29.6878,
    "type": "full",
    "source": "posta-moldovei-via-vasilcovsky"
  },
  {
    "code": "MD-4237",
    "country_id": 144,
    "country_code": "MD",
    "state_id": 4378,
    "state_code": "SV",
    "locality_name": "Talmaza",
    "latitude": 46.63583,
    "longitude": 29.66472,
    "type": "full",
    "source": "posta-moldovei-via-vasilcovsky"
  },
  {
    "code": "MD-4238",
    "country_id": 144,
    "country_code": "MD",
    "state_id": 4378,
    "state_code": "SV",
    "locality_name": "Talmaza",
    "latitude": 46.63583,
    "longitude": 29.66472,
    "type": "full",
    "source": "posta-moldovei-via-vasilcovsky"
  },
  {
    "code": "MD-4239",
    "country_id": 144,
    "country_code": "MD",
    "state_id": 4378,
    "state_code": "SV",
    "locality_name": "Tudora",
    "latitude": 46.435,
    "longitude": 30.0425,
    "type": "full",
    "source": "posta-moldovei-via-vasilcovsky"
  },
  {
    "code": "MD-4240",
    "country_id": 144,
    "country_code": "MD",
    "state_id": 4378,
    "state_code": "SV",
    "locality_name": "Viişoara",
    "latitude": 46.5469,
    "longitude": 29.8256,
    "type": "full",
    "source": "posta-moldovei-via-vasilcovsky"
  },
  {
    "code": "MD-4241",
    "country_id": 144,
    "country_code": "MD",
    "state_id": 4378,
    "state_code": "SV",
    "locality_name": "Volintiri",
    "latitude": 46.4267,
    "longitude": 29.6058,
    "type": "full",
    "source": "posta-moldovei-via-vasilcovsky"
  },
  {
    "code": "MD-4301",
    "country_id": 144,
    "country_code": "MD",
    "state_id": 4365,
    "state_code": "CS",
    "locality_name": "Căuşeni",
    "latitude": 46.64417,
    "longitude": 29.41389,
    "type": "full",
    "source": "posta-moldovei-via-vasilcovsky"
  },
  {
    "code": "MD-4302",
    "country_id": 144,
    "country_code": "MD",
    "state_id": 4365,
    "state_code": "CS",
    "locality_name": "Căuşeni",
    "latitude": 46.64417,
    "longitude": 29.41389,
    "type": "full",
    "source": "posta-moldovei-via-vasilcovsky"
  },
  {
    "code": "MD-4303",
    "country_id": 144,
    "country_code": "MD",
    "state_id": 4365,
    "state_code": "CS",
    "locality_name": "Căuşeni",
    "latitude": 46.64417,
    "longitude": 29.41389,
    "type": "full",
    "source": "posta-moldovei-via-vasilcovsky"
  },