[
  {
    "id": 283974,
    "code": "MD-2000",
    "country_id": 144,
    "country_code": "MD",
    "state_id": 4373,
    "state_code": "CU",
    "city_id": null,
    "locality_name": "Chişinău",
    "type": "full",
    "latitude": "47.00560000",
    "longitude": "28.85750000",
    "source": "posta-moldovei-via-vasilcovsky",
    "wikiDataId": null,
    "created_at": "2026-04-28T06:49:07",
    "updated_at": "2026-04-28T06:49:07",
    "flag": 1
  },
  {
    "id": 283975,
    "code": "MD-2001",
    "country_id": 144,
    "country_code": "MD",
    "state_id": 4373,
    "state_code": "CU",
    "city_id": null,
    "locality_name": "Chişinău",
    "type": "full",
    "latitude": "47.00560000",
    "longitude": "28.85750000",
    "source": "posta-moldovei-via-vasilcovsky",
    "wikiDataId": null,
    "created_at": "2026-04-28T06:49:07",
    "updated_at": "2026-04-28T06:49:07",
    "flag": 1
  },
  {
    "id": 283976,
    "code": "MD-2002",
    "country_id": 144,
    "country_code": "MD",
    "state_id": 4373,
    "state_code": "CU",
    "city_id": null,
    "locality_name": "Chişinău",
    "type": "full",
    "latitude": "47.00560000",
    "longitude": "28.85750000",
    "source": "posta-moldovei-via-vasilcovsky",
    "wikiDataId": null,
    "created_at": "2026-04-28T06:49:07",
    "updated_at": "2026-04-28T06:49:07",
    "flag": 1
  },
  {
    "id": 283977,
    "code": "MD-2003",
    "country_id": 144,
    "country_code": "MD",
    "state_id": 4373,
    "state_code": "CU",
    "city_id": null,
    "locality_name": "Chişinău",
    "type": "full",
    "latitude": "47.00560000",
    "longitude": "28.85750000",
    "source": "posta-moldovei-via-vasilcovsky",
    "wikiDataId": null,
    "created_at": "2026-04-28T06:49:07",
    "updated_at": "2026-04-28T06:49:07",
    "flag": 1
  },
  {
    "id": 283978,
    "code": "MD-2004",
    "country_id": 144,
    "country_code": "MD",
    "state_id": 4373,
    "state_code": "CU",
    "city_id": null,
    "locality_name": "Chişinău",
    "type": "full",
    "latitude": "47.00560000",
    "longitude": "28.85750000",
    "source": "posta-moldovei-via-vasilcovsky",
    "wikiDataId": null,
    "created_at": "2026-04-28T06:49:07",
    "updated_at": "2026-04-28T06:49:07",
    "flag": 1
  },
  {
    "id": 283979,
    "code": "MD-2005",
    "country_id": 144,
    "country_code": "MD",
    "state_id": 4373,
    "state_code": "CU",
    "city_id": null,
    "locality_name": "Chişinău",
    "type": "full",
    "latitude": "47.00560000",
    "longitude": "28.85750000",
    "source": "posta-moldovei-via-vasilcovsky",
    "wikiDataId": null,
    "created_at": "2026-04-28T06:49:07",
    "updated_at": "2026-04-28T06:49:07",
    "flag": 1
  },
  {
    "id": 283980,
    "code": "MD-2008",
    "country_id": 144,
    "country_code": "MD",
    "state_id": 4373,
    "state_code": "CU",
    "city_id": null,
    "locality_name": "Chişinău",
    "type": "full",
    "latitude": "47.00560000",
    "longitude": "28.85750000",
    "source": "posta-moldovei-via-vasilcovsky",
    "wikiDataId": null,
    "created_at": "2026-04-28T06:49:07",
    "updated_at": "2026-04-28T06:49:07",
    "flag": 1
  },
  {
    "id": 283981,
    "code": "MD-2009",
    "country_id": 144,
    "country_code": "MD",
    "state_id": 4373,
    "state_code": "CU",
    "city_id": null,
    "locality_name": "Chişinău",
    "type": "full",
    "latitude": "47.00560000",
    "longitude": "28.85750000",
    "source": "posta-moldovei-via-vasilcovsky",
    "wikiDataId": null,
    "created_at": "2026-04-28T06:49:07",
    "updated_at": "2026-04-28T06:49:07",
    "flag": 1
  },
  {
    "id": 283982,
    "code": "MD-2011",
    "country_id": 144,
    "country_code": "MD",
    "state_id": 4373,
    "state_code": "CU",
    "city_id": null,
    "locality_name": "Chişinău",
    "type": "full",
    "latitude": "47.00560000",
    "longitude": "28.85750000",
    "source": "posta-moldovei-via-vasilcovsky",
    "wikiDataId": null,
    "created_at": "2026-04-28T06:49:07",
    "updated_at": "2026-04-28T06:49:07",
    "flag": 1
  },
  {
    "id": 283983,
    "code": "MD-2012",
    "country_id": 144,
    "country_code": "MD",
    "state_id": 4373,
    "state_code": "CU",
    "city_id": null,
    "locality_name": "Chişinău",
    "type": "full",
    "latitude": "47.00560000",
    "longitude": "28.85750000",
    "source": "posta-moldovei-via-vasilcovsky",
    "wikiDataId": null,
    "created_at": "2026-04-28T06:49:07",
    "updated_at": "2026-04-28T06:49:07",
    "flag": 1
  },
  {
    "id": 283984,
    "code": "MD-2015",
    "country_id": 144,
    "country_code": "MD",
    "state_id": 4373,
    "state_code": "CU",
    "city_id": null,
    "locality_name": "Chişinău",
    "type": "full",
    "latitude": "47.00560000",
    "longitude": "28.85750000",
    "source": "posta-moldovei-via-vasilcovsky",
    "wikiDataId": null,
    "created_at": "2026-04-28T06:49:07",
    "updated_at": "2026-04-28T06:49:07",
    "flag": 1
  },
  {
    "id": 283985,
    "code": "MD-2017",
    "country_id": 144,
    "country_code": "MD",
    "state_id": 4373,
    "state_code": "CU",
    "city_id": null,
    "locality_name": "Chişinău",
    "type": "full",
    "latitude": "47.00560000",
    "longitude": "28.85750000",
    "source": "posta-moldovei-via-vasilcovsky",
    "wikiDataId": null,
    "created_at": "2026-04-28T06:49:07",
    "updated_at": "2026-04-28T06:49:07",
    "flag": 1
  },
  {
    "id": 283986,
    "code": "MD-2019",
    "country_id": 144,
    "country_code": "MD",
    "state_id": 4373,
    "state_code": "CU",
    "city_id": null,
    "locality_name": "Chişinău",
    "type": "full",
    "latitude": "47.00560000",
    "longitude": "28.85750000",
    "source": "posta-moldovei-via-vasilcovsky",
    "wikiDataId": null,
    "created_at": "2026-04-28T06:49:07",
    "updated_at": "2026-04-28T06:49:07",
    "flag": 1
  },
  {
    "id": 283987,
    "code": "MD-2020",
    "country_id": 144,
    "country_code": "MD",
    "state_id": 4373,
    "state_code": "CU",
    "city_id": null,
    "locality_name": "Chişinău",
    "type": "full",
    "latitude": "47.00560000",
    "longitude": "28.85750000",
    "source": "posta-moldovei-via-vasilcovsky",
    "wikiDataId": null,
    "created_at": "2026-04-28T06:49:07",
    "updated_at": "2026-04-28T06:49:07",
    "flag": 1
  },
  {
    "id": 283988,
    "code": "MD-2021",
    "country_id": 144,
    "country_code": "MD",
    "state_id": 4373,
    "state_code": "CU",
    "city_id": null,
    "locality_name": "Chişinău",
    "type": "full",
    "latitude": "47.00560000",
    "longitude": "28.85750000",
    "source": "posta-moldovei-via-vasilcovsky",
    "wikiDataId": null,
    "created_at": "2026-04-28T06:49:07",
    "updated_at": "2026-04-28T06:49:07",
    "flag": 1
  },
  {
    "id": 283989,
    "code": "MD-2023",
    "country_id": 144,
    "country_code": "MD",
    "state_id": 4373,
    "state_code": "CU",
    "city_id": null,
    "locality_name": "Chişinău",
    "type": "full",
    "latitude": "47.00560000",
    "longitude": "28.85750000",
    "source": "posta-moldovei-via-vasilcovsky",
    "wikiDataId": null,
    "created_at": "2026-04-28T06:49:07",
    "updated_at": "2026-04-28T06:49:07",
    "flag": 1
  },
  {
    "id": 283990,
    "code": "MD-2024",
    "country_id": 144,
    "country_code": "MD",
    "state_id": 4373,
    "state_code": "CU",
    "city_id": null,
    "locality_name": "Chişinău",
    "type": "full",
    "latitude": "47.00560000",
    "longitude": "28.85750000",
    "source": "posta-moldovei-via-vasilcovsky",
    "wikiDataId": null,
    "created_at": "2026-04-28T06:49:07",
    "updated_at": "2026-04-28T06:49:07",
    "flag": 1
  },
  {
    "id": 283991,
    "code": "MD-2025",
    "country_id": 144,
    "country_code": "MD",
    "state_id": 4373,
    "state_code": "CU",
    "city_id": null,
    "locality_name": "Chişinău",
    "type": "full",
    "latitude": "47.00560000",
    "longitude": "28.85750000",
    "source": "posta-moldovei-via-vasilcovsky",
    "wikiDataId": null,
    "created_at": "2026-04-28T06:49:07",
    "updated_at": "2026-04-28T06:49:07",
    "flag": 1
  },
  {
    "id": 283992,
    "code": "MD-2026",
    "country_id": 144,
    "country_code": "MD",
    "state_id": 4373,
    "state_code": "CU",
    "city_id": null,
    "locality_name": "Chişinău",
    "type": "full",
    "latitude": "47.00560000",
    "longitude": "28.85750000",
    "source": "posta-moldovei-via-vasilcovsky",
    "wikiDataId": null,
    "created_at": "2026-04-28T06:49:07",
    "updated_at": "2026-04-28T06:49:07",
    "flag": 1
  },
  {
    "id": 283993,
    "code": "MD-2028",
    "country_id": 144,
    "country_code": "MD",
    "state_id": 4373,
    "state_code": "CU",
    "city_id": null,
    "locality_name": "Chişinău",
    "type": "full",
    "latitude": "47.00560000",
    "longitude": "28.85750000",
    "source": "posta-moldovei-via-vasilcovsky",
    "wikiDataId": null,
    "created_at": "2026-04-28T06:49:07",
    "updated_at": "2026-04-28T06:49:07",
    "flag": 1
  },
  {
    "id": 283994,
    "code": "MD-2029",
    "country_id": 144,
    "country_code": "MD",
    "state_id": 4373,
    "state_code": "CU",
    "city_id": null,
    "locality_name": "Chişinău",
    "type": "full",
    "latitude": "47.00560000",
    "longitude": "28.85750000",
    "source": "posta-moldovei-via-vasilcovsky",
    "wikiDataId": null,
    "created_at": "2026-04-28T06:49:07",
    "updated_at": "2026-04-28T06:49:07",
    "flag": 1
  },
  {
    "id": 283995,
    "code": "MD-2032",
    "country_id": 144,
    "country_code": "MD",
    "state_id": 4373,
    "state_code": "CU",
    "city_id": null,
    "locality_name": "Chişinău",
    "type": "full",
    "latitude": "47.00560000",
    "longitude": "28.85750000",
    "source": "posta-moldovei-via-vasilcovsky",
    "wikiDataId": null,
    "created_at": "2026-04-28T06:49:07",
    "updated_at": "2026-04-28T06:49:07",
    "flag": 1
  },
  {
    "id": 283996,
    "code": "MD-2033",
    "country_id": 144,
    "country_code": "MD",
    "state_id": 4373,
    "state_code": "CU",
    "city_id": null,
    "locality_name": "Chişinău",
    "type": "full",
    "latitude": "47.00560000",
    "longitude": "28.85750000",
    "source": "posta-moldovei-via-vasilcovsky",
    "wikiDataId": null,
    "created_at": "2026-04-28T06:49:07",
    "updated_at": "2026-04-28T06:49:07",
    "flag": 1
  },
  {
    "id": 283997,
    "code": "MD-2038",
    "country_id": 144,
    "country_code": "MD",
    "state_id": 4373,
    "state_code": "CU",
    "city_id": null,
    "locality_name": "Chişinău",
    "type": "full",
    "latitude": "47.00560000",
    "longitude": "28.85750000",
    "source": "posta-moldovei-via-vasilcovsky",
    "wikiDataId": null,
    "created_at": "2026-04-28T06:49:07",
    "updated_at": "2026-04-28T06:49:07",
    "flag": 1
  },
  {
    "id": 283998,
    "code": "MD-2043",
    "country_id": 144,
    "country_code": "MD",
    "state_id": 4373,
    "state_code": "CU",
    "city_id": null,
    "locality_name": "Chişinău",
    "type": "full",
    "latitude": "47.00560000",
    "longitude": "28.85750000",
    "source": "posta-moldovei-via-vasilcovsky",
    "wikiDataId": null,
    "created_at": "2026-04-28T06:49:07",
    "updated_at": "2026-04-28T06:49:07",
    "flag": 1
  },
  {
    "id": 283999,
    "code": "MD-2044",
    "country_id": 144,
    "country_code": "MD",
    "state_id": 4373,
    "state_code": "CU",
    "city_id": null,
    "locality_name": "Chişinău",
    "type": "full",
    "latitude": "47.00560000",
    "longitude": "28.85750000",
    "source": "posta-moldovei-via-vasilcovsky",
    "wikiDataId": null,
    "created_at": "2026-04-28T06:49:07",
    "updated_at": "2026-04-28T06:49:07",
    "flag": 1
  },
  {
    "id": 284000,
    "code": "MD-2045",
    "country_id": 144,
    "country_code": "MD",
    "state_id": 4373,
    "state_code": "CU",
    "city_id": null,
    "locality_name": "Chişinău",
    "type": "full",
    "latitude": "47.00560000",
    "longitude": "28.85750000",
    "source": "posta-moldovei-via-vasilcovsky",
    "wikiDataId": null,
    "created_at": "2026-04-28T06:49:07",
    "updated_at": "2026-04-28T06:49:07",
    "flag": 1
  },
  {
    "id": 284001,
    "code": "MD-2049",
    "country_id": 144,
    "country_code": "MD",
    "state_id": 4373,
    "state_code": "CU",
    "city_id": null,
    "locality_name": "Chişinău",
    "type": "full",
    "latitude": "47.00560000",
    "longitude": "28.85750000",
    "source": "posta-moldovei-via-vasilcovsky",
    "wikiDataId": null,
    "created_at": "2026-04-28T06:49:07",
    "updated_at": "2026-04-28T06:49:07",
    "flag": 1
  },
  {
    "id": 284002,
    "code": "MD-2051",
    "country_id": 144,
    "country_code": "MD",
    "state_id": 4373,
    "state_code": "CU",
    "city_id": null,
    "locality_name": "Chişinău",
    "type": "full",
    "latitude": "47.00560000",
    "longitude": "28.85750000",
    "source": "posta-moldovei-via-vasilcovsky",
    "wikiDataId": null,
    "created_at": "2026-04-28T06:49:07",
    "updated_at": "2026-04-28T06:49:07",
    "flag": 1
  },
  {
    "id": 284003,
    "code": "MD-2055",
    "country_id": 144,
    "country_code": "MD",
    "state_id": 4373,
    "state_code": "CU",
    "city_id": null,
    "locality_name": "Chişinău",
    "type": "full",
    "latitude": "47.00560000",
    "longitude": "28.85750000",
    "source": "posta-moldovei-via-vasilcovsky",
    "wikiDataId": null,
    "created_at": "2026-04-28T06:49:07",
    "updated_at": "2026-04-28T06:49:07",
    "flag": 1
  },
  {
    "id": 284004,
    "code": "MD-2059",
    "country_id": 144,
    "country_code": "MD",
    "state_id": 4373,
    "state_code": "CU",
    "city_id": null,
    "locality_name": "Chişinău",
    "type": "full",
    "latitude": "47.00560000",
    "longitude": "28.85750000",
    "source": "posta-moldovei-via-vasilcovsky",
    "wikiDataId": null,
    "created_at": "2026-04-28T06:49:07",
    "updated_at": "2026-04-28T06:49:07",
    "flag": 1
  },
  {
    "id": 284005,
    "code": "MD-2081",
    "country_id": 144,
    "country_code": "MD",
    "state_id": 4373,
    "state_code": "CU",
    "city_id": null,
    "locality_name": "Bubuieci",
    "type": "full",
    "latitude": "46.98500000",
    "longitude": "28.94220000",
    "source": "posta-moldovei-via-vasilcovsky",
    "wikiDataId": null,
    "created_at": "2026-04-28T06:49:07",
    "updated_at": "2026-04-28T06:49:07",
    "flag": 1
  },
  {
    "id": 284006,
    "code": "MD-2081",
    "country_id": 144,
    "country_code": "MD",
    "state_id": 4373,
    "state_code": "CU",
    "city_id": null,
    "locality_name": "Bîc",
    "type": "full",
    "latitude": "46.95670000",
    "longitude": "28.94220000",
    "source": "posta-moldovei-via-vasilcovsky",
    "wikiDataId": null,
    "created_at": "2026-04-28T06:49:07",
    "updated_at": "2026-04-28T06:49:07",
    "flag": 1
  },
  {
    "id": 284007,
    "code": "MD-2085",
    "country_id": 144,
    "country_code": "MD",
    "state_id": 4373,
    "state_code": "CU",
    "city_id": null,
    "locality_name": "Ceroborta",
    "type": "full",
    "latitude": "47.09360000",
    "longitude": "28.95170000",
    "source": "posta-moldovei-via-vasilcovsky",
    "wikiDataId": null,
    "created_at": "2026-04-28T06:49:07",
    "updated_at": "2026-04-28T06:49:07",
    "flag": 1
  },
  {
    "id": 284008,
    "code": "MD-2092",
    "country_id": 144,
    "country_code": "MD",
    "state_id": 4373,
    "state_code": "CU",
    "city_id": null,
    "locality_name": "Buneţi",
    "type": "full",
    "latitude": "47.08060000",
    "longitude": "28.91000000",
    "source": "posta-moldovei-via-vasilcovsky",
    "wikiDataId": null,
    "created_at": "2026-04-28T06:49:07",
    "updated_at": "2026-04-28T06:49:07",
    "flag": 1
  },
  {
    "id": 284009,
    "code": "MD-2092",
    "country_id": 144,
    "country_code": "MD",
    "state_id": 4373,
    "state_code": "CU",
    "city_id": null,
    "locality_name": "Cheltuitori",
    "type": "full",
    "latitude": "47.06610000",
    "longitude": "28.92110000",
    "source": "posta-moldovei-via-vasilcovsky",
    "wikiDataId": null,
    "created_at": "2026-04-28T06:49:07",
    "updated_at": "2026-04-28T06:49:07",
    "flag": 1
  },
  {
    "id": 284010,
    "code": "MD-3011",
    "country_id": 144,
    "country_code": "MD",
    "state_id": 4374,
    "state_code": "SO",
    "city_id": null,
    "locality_name": "Bădiceni",
    "type": "full",
    "latitude": "48.20330000",
    "longitude": "28.05440000",
    "source": "posta-moldovei-via-vasilcovsky",
    "wikiDataId": null,
    "created_at": "2026-04-28T06:49:07",
    "updated_at": "2026-04-28T06:49:07",
    "flag": 1
  },
  {
    "id": 284011,
    "code": "MD-3012",
    "country_id": 144,
    "country_code": "MD",
    "state_id": 4374,
    "state_code": "SO",
    "city_id": null,
    "locality_name": "Băxani",
    "type": "full",
    "latitude": "48.12390000",
    "longitude": "28.09470000",
    "source": "posta-moldovei-via-vasilcovsky",
    "wikiDataId": null,
    "created_at": "2026-04-28T06:49:07",
    "updated_at": "2026-04-28T06:49:07",
    "flag": 1
  },
  {
    "id": 284012,
    "code": "MD-3013",
    "country_id": 144,
    "country_code": "MD",
    "state_id": 4374,
    "state_code": "SO",
    "city_id": null,
    "locality_name": "Balinţi",
    "type": "full",
    "latitude": "48.32060000",
    "longitude": "28.02360000",
    "source": "posta-moldovei-via-vasilcovsky",
    "wikiDataId": null,
    "created_at": "2026-04-28T06:49:07",
    "updated_at": "2026-04-28T06:49:07",
    "flag": 1
  },
  {
    "id": 284013,
    "code": "MD-3013",
    "country_id": 144,
    "country_code": "MD",
    "state_id": 4374,
    "state_code": "SO",
    "city_id": null,
    "locality_name": "Balinţii Noi",
    "type": "full",
    "latitude": "48.32060000",
    "longitude": "28.02360000",
    "source": "posta-moldovei-via-vasilcovsky",
    "wikiDataId": null,
    "created_at": "2026-04-28T06:49:07",
    "updated_at": "2026-04-28T06:49:07",
    "flag": 1
  },
  {
    "id": 284014,
    "code": "MD-3014",
    "country_id": 144,
    "country_code": "MD",
    "state_id": 4374,
    "state_code": "SO",
    "city_id": null,
    "locality_name": "Bulboci",
    "type": "full",
    "latitude": "48.03970000",
    "longitude": "28.08390000",
    "source": "posta-moldovei-via-vasilcovsky",
    "wikiDataId": null,
    "created_at": "2026-04-28T06:49:07",
    "updated_at": "2026-04-28T06:49:07",
    "flag": 1
  },
  {
    "id": 284015,
    "code": "MD-3014",
    "country_id": 144,
    "country_code": "MD",
    "state_id": 4374,
    "state_code": "SO",
    "city_id": null,
    "locality_name": "Bulbocii Noi",
    "type": "full",
    "latitude": "48.06030000",
    "longitude": "28.11860000",
    "source": "posta-moldovei-via-vasilcovsky",
    "wikiDataId": null,
    "created_at": "2026-04-28T06:49:07",
    "updated_at": "2026-04-28T06:49:07",
    "flag": 1
  },
  {
    "id": 284016,
    "code": "MD-3015",
    "country_id": 144,
    "country_code": "MD",
    "state_id": 4374,
    "state_code": "SO",
    "city_id": null,
    "locality_name": "Căinării Vechi",
    "type": "full",
    "latitude": "48.00810000",
    "longitude": "28.12500000",
    "source": "posta-moldovei-via-vasilcovsky",
    "wikiDataId": null,
    "created_at": "2026-04-28T06:49:07",
    "updated_at": "2026-04-28T06:49:07",
    "flag": 1
  },
  {
    "id": 284017,
    "code": "MD-3015",
    "country_id": 144,
    "country_code": "MD",
    "state_id": 4374,
    "state_code": "SO",
    "city_id": null,
    "locality_name": "Floriceni",
    "type": "full",
    "latitude": "48.02080000",
    "longitude": "28.01640000",
    "source": "posta-moldovei-via-vasilcovsky",
    "wikiDataId": null,
    "created_at": "2026-04-28T06:49:07",
    "updated_at": "2026-04-28T06:49:07",
    "flag": 1
  },
  {
    "id": 284018,
    "code": "MD-3016",
    "country_id": 144,
    "country_code": "MD",
    "state_id": 4374,
    "state_code": "SO",
    "city_id": null,
    "locality_name": "Cosăuţi",
    "type": "full",
    "latitude": "48.22890000",
    "longitude": "28.29110000",
    "source": "posta-moldovei-via-vasilcovsky",
    "wikiDataId": null,
    "created_at": "2026-04-28T06:49:07",
    "updated_at": "2026-04-28T06:49:07",
    "flag": 1
  },
  {
    "id": 284019,
    "code": "MD-3017",
    "country_id": 144,
    "country_code": "MD",
    "state_id": 4374,
    "state_code": "SO",
    "city_id": null,
    "locality_name": "Cureşniţa",
    "type": "full",
    "latitude": "48.22780000",
    "longitude": "28.17640000",
    "source": "posta-moldovei-via-vasilcovsky",
    "wikiDataId": null,
    "created_at": "2026-04-28T06:49:07",
    "updated_at": "2026-04-28T06:49:07",
    "flag": 1
  },
  {
    "id": 284020,
    "code": "MD-3018",
    "country_id": 144,
    "country_code": "MD",
    "state_id": 4374,
    "state_code": "SO",
    "city_id": null,
    "locality_name": "Dărcăuţi",
    "type": "full",
    "latitude": "48.22780000",
    "longitude": "27.98080000",
    "source": "posta-moldovei-via-vasilcovsky",
    "wikiDataId": null,
    "created_at": "2026-04-28T06:49:07",
    "updated_at": "2026-04-28T06:49:07",
    "flag": 1
  },
  {
    "id": 284021,
    "code": "MD-3018",
    "country_id": 144,
    "country_code": "MD",
    "state_id": 4374,
    "state_code": "SO",
    "city_id": null,
    "locality_name": "Dărcăuţii Noi",
    "type": "full",
    "latitude": "48.20970000",
    "longitude": "28.00190000",
    "source": "posta-moldovei-via-vasilcovsky",
    "wikiDataId": null,
    "created_at": "2026-04-28T06:49:07",
    "updated_at": "2026-04-28T06:49:07",
    "flag": 1
  },
  {
    "id": 284022,
    "code": "MD-3018",
    "country_id": 144,
    "country_code": "MD",
    "state_id": 4374,
    "state_code": "SO",
    "city_id": null,
    "locality_name": "Mălcăuţi",
    "type": "full",
    "latitude": "48.21390000",
    "longitude": "27.94080000",
    "source": "posta-moldovei-via-vasilcovsky",
    "wikiDataId": null,
    "created_at": "2026-04-28T06:49:07",
    "updated_at": "2026-04-28T06:49:07",
    "flag": 1
  },
  {
    "id": 284023,
    "code": "MD-3019",
    "country_id": 144,
    "country_code": "MD",
    "state_id": 4374,
    "state_code": "SO",
    "city_id": null,
    "locality_name": "Dubna",
    "type": "full",
    "latitude": "48.01500000",
    "longitude": "28.31530000",
    "source": "posta-moldovei-via-vasilcovsky",
    "wikiDataId": null,
    "created_at": "2026-04-28T06:49:07",
    "updated_at": "2026-04-28T06:49:07",
    "flag": 1
  },
  {
    "id": 284024,
    "code": "MD-3020",
    "country_id": 144,
    "country_code": "MD",
    "state_id": 4374,
    "state_code": "SO",
    "city_id": null,
    "locality_name": "Dumbrăveni",
    "type": "full",
    "latitude": "48.05060000",
    "longitude": "28.22810000",
    "source": "posta-moldovei-via-vasilcovsky",
    "wikiDataId": null,
    "created_at": "2026-04-28T06:49:07",
    "updated_at": "2026-04-28T06:49:07",
    "flag": 1
  },
  {
    "id": 284025,
    "code": "MD-3021",
    "country_id": 144,
    "country_code": "MD",
    "state_id": 4374,
    "state_code": "SO",
    "city_id": null,
    "locality_name": "Egoreni",
    "type": "full",
    "latitude": "48.20160000",
    "longitude": "28.35950000",
    "source": "posta-moldovei-via-vasilcovsky",
    "wikiDataId": null,
    "created_at": "2026-04-28T06:49:07",
    "updated_at": "2026-04-28T06:49:07",
    "flag": 1
  },
  {
    "id": 284026,
    "code": "MD-3022",
    "country_id": 144,
    "country_code": "MD",
    "state_id": 4374,
    "state_code": "SO",
    "city_id": null,
    "locality_name": "Grigorăuca",
    "type": "full",
    "latitude": "48.20780000",
    "longitude": "28.09970000",
    "source": "posta-moldovei-via-vasilcovsky",
    "wikiDataId": null,
    "created_at": "2026-04-28T06:49:07",
    "updated_at": "2026-04-28T06:49:07",
    "flag": 1
  },
  {
    "id": 284027,
    "code": "MD-3023",
    "country_id": 144,
    "country_code": "MD",
    "state_id": 4374,
    "state_code": "SO",
    "city_id": null,
    "locality_name": "Holoşniţa",
    "type": "full",
    "latitude": "48.24750000",
    "longitude": "28.17690000",
    "source": "posta-moldovei-via-vasilcovsky",
    "wikiDataId": null,
    "created_at": "2026-04-28T06:49:07",
    "updated_at": "2026-04-28T06:49:07",
    "flag": 1
  },
  {
    "id": 284028,
    "code": "MD-3024",
    "country_id": 144,
    "country_code": "MD",
    "state_id": 4374,
    "state_code": "SO",
    "city_id": null,
    "locality_name": "Hristici",
    "type": "full",
    "latitude": "48.12080000",
    "longitude": "28.18390000",
    "source": "posta-moldovei-via-vasilcovsky",
    "wikiDataId": null,
    "created_at": "2026-04-28T06:49:07",
    "updated_at": "2026-04-28T06:49:07",
    "flag": 1
  },
  {
    "id": 284029,
    "code": "MD-3025",
    "country_id": 144,
    "country_code": "MD",
    "state_id": 4374,
    "state_code": "SO",
    "city_id": null,
    "locality_name": "larova",
    "type": "full",
    "latitude": "48.31970000",
    "longitude": "28.04940000",
    "source": "posta-moldovei-via-vasilcovsky",
    "wikiDataId": null,
    "created_at": "2026-04-28T06:49:07",
    "updated_at": "2026-04-28T06:49:07",
    "flag": 1
  },
  {
    "id": 284030,
    "code": "MD-3026",
    "country_id": 144,
    "country_code": "MD",
    "state_id": 4374,
    "state_code": "SO",
    "city_id": null,
    "locality_name": "lorjniţa",
    "type": "full",
    "latitude": "48.19330000",
    "longitude": "28.21780000",
    "source": "posta-moldovei-via-vasilcovsky",
    "wikiDataId": null,
    "created_at": "2026-04-28T06:49:07",
    "updated_at": "2026-04-28T06:49:07",
    "flag": 1
  },
  {
    "id": 284031,
    "code": "MD-3027",
    "country_id": 144,
    "country_code": "MD",
    "state_id": 4374,
    "state_code": "SO",
    "city_id": null,
    "locality_name": "Oclanda",
    "type": "full",
    "latitude": "48.28920000",
    "longitude": "28.06030000",
    "source": "posta-moldovei-via-vasilcovsky",
    "wikiDataId": null,
    "created_at": "2026-04-28T06:49:07",
    "updated_at": "2026-04-28T06:49:07",
    "flag": 1
  },
  {
    "id": 284032,
    "code": "MD-3028",
    "country_id": 144,
    "country_code": "MD",
    "state_id": 4374,
    "state_code": "SO",
    "city_id": null,
    "locality_name": "Oclanda",
    "type": "full",
    "latitude": "48.28920000",
    "longitude": "28.06030000",
    "source": "posta-moldovei-via-vasilcovsky",
    "wikiDataId": null,
    "created_at": "2026-04-28T06:49:07",
    "updated_at": "2026-04-28T06:49:07",
    "flag": 1
  },
  {
    "id": 284033,
    "code": "MD-3028",
    "country_id": 144,
    "country_code": "MD",
    "state_id": 4374,
    "state_code": "SO",
    "city_id": null,
    "locality_name": "Ocolina",
    "type": "full",
    "latitude": "48.12560000",
    "longitude": "28.26310000",
    "source": "posta-moldovei-via-vasilcovsky",
    "wikiDataId": null,
    "created_at": "2026-04-28T06:49:07",
    "updated_at": "2026-04-28T06:49:07",
    "flag": 1
  },
  {
    "id": 284034,
    "code": "MD-3029",
    "country_id": 144,
    "country_code": "MD",
    "state_id": 4374,
    "state_code": "SO",
    "city_id": null,
    "locality_name": "Parcani",
    "type": "full",
    "latitude": "48.06190000",
    "longitude": "28.29030000",
    "source": "posta-moldovei-via-vasilcovsky",
    "wikiDataId": null,
    "created_at": "2026-04-28T06:49:07",
    "updated_at": "2026-04-28T06:49:07",
    "flag": 1
  },
  {
    "id": 284035,
    "code": "MD-3030",
    "country_id": 144,
    "country_code": "MD",
    "state_id": 4374,
    "state_code": "SO",
    "city_id": null,
    "locality_name": "Pîrliţa",
    "type": "full",
    "latitude": "48.07580000",
    "longitude": "28.21000000",
    "source": "posta-moldovei-via-vasilcovsky",
    "wikiDataId": null,
    "created_at": "2026-04-28T06:49:07",
    "updated_at": "2026-04-28T06:49:07",
    "flag": 1
  },
  {
    "id": 284036,
    "code": "MD-3031",
    "country_id": 144,
    "country_code": "MD",
    "state_id": 4374,
    "state_code": "SO",
    "city_id": null,
    "locality_name": "Racovăţ",
    "type": "full",
    "latitude": "48.08250000",
    "longitude": "28.40610000",
    "source": "posta-moldovei-via-vasilcovsky",
    "wikiDataId": null,
    "created_at": "2026-04-28T06:49:07",
    "updated_at": "2026-04-28T06:49:07",
    "flag": 1
  },
  {
    "id": 284037,
    "code": "MD-3032",
    "country_id": 144,
    "country_code": "MD",
    "state_id": 4374,
    "state_code": "SO",
    "city_id": null,
    "locality_name": "Redi-Cereşnovăţ",
    "type": "full",
    "latitude": "48.06330000",
    "longitude": "28.31750000",
    "source": "posta-moldovei-via-vasilcovsky",
    "wikiDataId": null,
    "created_at": "2026-04-28T06:49:07",
    "updated_at": "2026-04-28T06:49:07",
    "flag": 1
  },
  {
    "id": 284038,
    "code": "MD-3033",
    "country_id": 144,
    "country_code": "MD",
    "state_id": 4374,
    "state_code": "SO",
    "city_id": null,
    "locality_name": "Lugovoe",
    "type": "full",
    "latitude": "48.07030000",
    "longitude": "28.17830000",
    "source": "posta-moldovei-via-vasilcovsky",
    "wikiDataId": null,
    "created_at": "2026-04-28T06:49:07",
    "updated_at": "2026-04-28T06:49:07",
    "flag": 1
  },
  {
    "id": 284039,
    "code": "MD-3033",
    "country_id": 144,
    "country_code": "MD",
    "state_id": 4374,
    "state_code": "SO",
    "city_id": null,
    "locality_name": "Regina Măria",
    "type": "full",
    "latitude": "48.05860000",
    "longitude": "28.14080000",
    "source": "posta-moldovei-via-vasilcovsky",
    "wikiDataId": null,
    "created_at": "2026-04-28T06:49:07",
    "updated_at": "2026-04-28T06:49:07",
    "flag": 1
  },
  {
    "id": 284040,
    "code": "MD-3035",
    "country_id": 144,
    "country_code": "MD",
    "state_id": 4374,
    "state_code": "SO",
    "city_id": null,
    "locality_name": "Inundeni",
    "type": "full",
    "latitude": "48.12470000",
    "longitude": "28.35830000",
    "source": "posta-moldovei-via-vasilcovsky",
    "wikiDataId": null,
    "created_at": "2026-04-28T06:49:07",
    "updated_at": "2026-04-28T06:49:07",
    "flag": 1
  },
  {
    "id": 284041,
    "code": "MD-3039",
    "country_id": 144,
    "country_code": "MD",
    "state_id": 4374,
    "state_code": "SO",
    "city_id": null,
    "locality_name": "Livezi",
    "type": "full",
    "latitude": "48.23580000",
    "longitude": "28.04940000",
    "source": "posta-moldovei-via-vasilcovsky",
    "wikiDataId": null,
    "created_at": "2026-04-28T06:49:07",
    "updated_at": "2026-04-28T06:49:07",
    "flag": 1
  },
  {
    "id": 284042,
    "code": "MD-3043",
    "country_id": 144,
    "country_code": "MD",
    "state_id": 4374,
    "state_code": "SO",
    "city_id": null,
    "locality_name": "Cureşniţa Nouă",
    "type": "full",
    "latitude": "48.18140000",
    "longitude": "28.12250000",
    "source": "posta-moldovei-via-vasilcovsky",
    "wikiDataId": null,
    "created_at": "2026-04-28T06:49:07",
    "updated_at": "2026-04-28T06:49:07",
    "flag": 1
  },
  {
    "id": 284043,
    "code": "MD-3050",
    "country_id": 144,
    "country_code": "MD",
    "state_id": 4374,
    "state_code": "SO",
    "city_id": null,
    "locality_name": "Alexandru Cel Bun",
    "type": "full",
    "latitude": "48.09690000",
    "longitude": "28.34060000",
    "source": "posta-moldovei-via-vasilcovsky",
    "wikiDataId": null,
    "created_at": "2026-04-28T06:49:07",
    "updated_at": "2026-04-28T06:49:07",
    "flag": 1
  },
  {
    "id": 284044,
    "code": "MD-3052",
    "country_id": 144,
    "country_code": "MD",
    "state_id": 4374,
    "state_code": "SO",
    "city_id": null,
    "locality_name": "Cremenciug",
    "type": "full",
    "latitude": "48.27690000",
    "longitude": "28.08530000",
    "source": "posta-moldovei-via-vasilcovsky",
    "wikiDataId": null,
    "created_at": "2026-04-28T06:49:07",
    "updated_at": "2026-04-28T06:49:07",
    "flag": 1
  },
  {
    "id": 284045,
    "code": "MD-3100",
    "country_id": 144,
    "country_code": "MD",
    "state_id": 4393,
    "state_code": "BA",
    "city_id": null,
    "locality_name": "Bălţi",
    "type": "full",
    "latitude": "47.76170000",
    "longitude": "27.92890000",
    "source": "posta-moldovei-via-vasilcovsky",
    "wikiDataId": null,
    "created_at": "2026-04-28T06:49:07",
    "updated_at": "2026-04-28T06:49:07",
    "flag": 1
  },
  {
    "id": 284046,
    "code": "MD-3101",
    "country_id": 144,
    "country_code": "MD",
    "state_id": 4393,
    "state_code": "BA",
    "city_id": null,
    "locality_name": "Bălţi",
    "type": "full",
    "latitude": "47.76170000",
    "longitude": "27.92890000",
    "source": "posta-moldovei-via-vasilcovsky",
    "wikiDataId": null,
    "created_at": "2026-04-28T06:49:07",
    "updated_at": "2026-04-28T06:49:07",
    "flag": 1
  },
  {
    "id": 284047,
    "code": "MD-3102",
    "country_id": 144,
    "country_code": "MD",
    "state_id": 4393,
    "state_code": "BA",
    "city_id": null,
    "locality_name": "Bălţi",
    "type": "full",
    "latitude": "47.76170000",
    "longitude": "27.92890000",
    "source": "posta-moldovei-via-vasilcovsky",
    "wikiDataId": null,
    "created_at": "2026-04-28T06:49:07",
    "updated_at": "2026-04-28T06:49:07",
    "flag": 1
  },
  {
    "id": 284048,
    "code": "MD-3105",
    "country_id": 144,
    "country_code": "MD",
    "state_id": 4393,
    "state_code": "BA",
    "city_id": null,
    "locality_name": "Bălţi",
    "type": "full",
    "latitude": "47.76170000",
    "longitude": "27.92890000",
    "source": "posta-moldovei-via-vasilcovsky",
    "wikiDataId": null,
    "created_at": "2026-04-28T06:49:07",
    "updated_at": "2026-04-28T06:49:07",
    "flag": 1
  },
  {
    "id": 284049,
    "code": "MD-3106",
    "country_id": 144,
    "country_code": "MD",
    "state_id": 4393,
    "state_code": "BA",
    "city_id": null,
    "locality_name": "Bălţi",
    "type": "full",
    "latitude": "47.76170000",
    "longitude": "27.92890000",
    "source": "posta-moldovei-via-vasilcovsky",
    "wikiDataId": null,
    "created_at": "2026-04-28T06:49:07",
    "updated_at": "2026-04-28T06:49:07",
    "flag": 1
  },
  {
    "id": 284050,
    "code": "MD-3107",
    "country_id": 144,
    "country_code": "MD",
    "state_id": 4393,
    "state_code": "BA",
    "city_id": null,
    "locality_name": "Bălţi",
    "type": "full",
    "latitude": "47.76170000",
    "longitude": "27.92890000",
    "source": "posta-moldovei-via-vasilcovsky",
    "wikiDataId": null,
    "created_at": "2026-04-28T06:49:07",
    "updated_at": "2026-04-28T06:49:07",
    "flag": 1
  },
  {
    "id": 284051,
    "code": "MD-3110",
    "country_id": 144,
    "country_code": "MD",
    "state_id": 4393,
    "state_code": "BA",
    "city_id": null,
    "locality_name": "Bălţi",
    "type": "full",
    "latitude": "47.76170000",
    "longitude": "27.92890000",
    "source": "posta-moldovei-via-vasilcovsky",
    "wikiDataId": null,
    "created_at": "2026-04-28T06:49:07",
    "updated_at": "2026-04-28T06:49:07",
    "flag": 1
  },
  {
    "id": 284052,
    "code": "MD-3111",
    "country_id": 144,
    "country_code": "MD",
    "state_id": 4393,
    "state_code": "BA",
    "city_id": null,
    "locality_name": "Bălţi",
    "type": "full",
    "latitude": "47.76170000",
    "longitude": "27.92890000",
    "source": "posta-moldovei-via-vasilcovsky",
    "wikiDataId": null,
    "created_at": "2026-04-28T06:49:07",
    "updated_at": "2026-04-28T06:49:07",
    "flag": 1
  },
  {
    "id": 284053,
    "code": "MD-3112",
    "country_id": 144,
    "country_code": "MD",
    "state_id": 4393,
    "state_code": "BA",
    "city_id": null,
    "locality_name": "Bălţi",
    "type": "full",
    "latitude": "47.76170000",
    "longitude": "27.92890000",
    "source": "posta-moldovei-via-vasilcovsky",
    "wikiDataId": null,
    "created_at": "2026-04-28T06:49:07",
    "updated_at": "2026-04-28T06:49:07",
    "flag": 1
  },
  {
    "id": 284054,
    "code": "MD-3114",
    "country_id": 144,
    "country_code": "MD",
    "state_id": 4393,
    "state_code": "BA",
    "city_id": null,
    "locality_name": "Bălţi",
    "type": "full",
    "latitude": "47.76170000",
    "longitude": "27.92890000",
    "source": "posta-moldovei-via-vasilcovsky",
    "wikiDataId": null,
    "created_at": "2026-04-28T06:49:07",
    "updated_at": "2026-04-28T06:49:07",
    "flag": 1
  },
  {
    "id": 284055,
    "code": "MD-3118",
    "country_id": 144,
    "country_code": "MD",
    "state_id": 4393,
    "state_code": "BA",
    "city_id": null,
    "locality_name": "Bălţi",
    "type": "full",
    "latitude": "47.76170000",
    "longitude": "27.92890000",
    "source": "posta-moldovei-via-vasilcovsky",
    "wikiDataId": null,
    "created_at": "2026-04-28T06:49:07",
    "updated_at": "2026-04-28T06:49:07",
    "flag": 1
  },
  {
    "id": 284056,
    "code": "MD-3121",
    "country_id": 144,
    "country_code": "MD",
    "state_id": 4393,
    "state_code": "BA",
    "city_id": null,
    "locality_name": "Bălţi",
    "type": "full",
    "latitude": "47.76170000",
    "longitude": "27.92890000",
    "source": "posta-moldovei-via-vasilcovsky",
    "wikiDataId": null,
    "created_at": "2026-04-28T06:49:07",
    "updated_at": "2026-04-28T06:49:07",
    "flag": 1
  },
  {
    "id": 284057,
    "code": "MD-3123",
    "country_id": 144,
    "country_code": "MD",
    "state_id": 4393,
    "state_code": "BA",
    "city_id": null,
    "locality_name": "Bălţi",
    "type": "full",
    "latitude": "47.76170000",
    "longitude": "27.92890000",
    "source": "posta-moldovei-via-vasilcovsky",
    "wikiDataId": null,
    "created_at": "2026-04-28T06:49:07",
    "updated_at": "2026-04-28T06:49:07",
    "flag": 1
  },
  {
    "id": 284058,
    "code": "MD-3128",
    "country_id": 144,
    "country_code": "MD",
    "state_id": 4393,
    "state_code": "BA",
    "city_id": null,
    "locality_name": "Bălţi",
    "type": "full",
    "latitude": "47.76170000",
    "longitude": "27.92890000",
    "source": "posta-moldovei-via-vasilcovsky",
    "wikiDataId": null,
    "created_at": "2026-04-28T06:49:07",
    "updated_at": "2026-04-28T06:49:07",
    "flag": 1
  },
  {
    "id": 284059,
    "code": "MD-3129",
    "country_id": 144,
    "country_code": "MD",
    "state_id": 4393,
    "state_code": "BA",
    "city_id": null,
    "locality_name": "Bălţi",
    "type": "full",
    "latitude": "47.76170000",
    "longitude": "27.92890000",
    "source": "posta-moldovei-via-vasilcovsky",
    "wikiDataId": null,
    "created_at": "2026-04-28T06:49:07",
    "updated_at": "2026-04-28T06:49:07",
    "flag": 1
  },
  {
    "id": 284060,
    "code": "MD-3151",
    "country_id": 144,
    "country_code": "MD",
    "state_id": 4393,
    "state_code": "BA",
    "city_id": null,
    "locality_name": "Elizaveta",
    "type": "full",
    "latitude": "47.78420000",
    "longitude": "28.02250000",
    "source": "posta-moldovei-via-vasilcovsky",
    "wikiDataId": null,
    "created_at": "2026-04-28T06:49:07",
    "updated_at": "2026-04-28T06:49:07",
    "flag": 1
  },
  {
    "id": 284061,
    "code": "MD-3200",
    "country_id": 144,
    "country_code": "MD",
    "state_id": 4395,
    "state_code": "SN",
    "city_id": null,
    "locality_name": "Bender",
    "type": "full",
    "latitude": "46.83060000",
    "longitude": "29.47110000",
    "source": "posta-moldovei-via-vasilcovsky",
    "wikiDataId": null,
    "created_at": "2026-04-28T06:49:07",
    "updated_at": "2026-04-28T06:49:07",
    "flag": 1
  },
  {
    "id": 284062,
    "code": "MD-3401",
    "country_id": 144,
    "country_code": "MD",
    "state_id": 4382,
    "state_code": "HI",
    "city_id": null,
    "locality_name": "Hînceşti",
    "type": "full",
    "latitude": "46.82580000",
    "longitude": "28.59360000",
    "source": "posta-moldovei-via-vasilcovsky",
    "wikiDataId": null,
    "created_at": "2026-04-28T06:49:07",
    "updated_at": "2026-04-28T06:49:07",
    "flag": 1
  },
  {
    "id": 284063,
    "code": "MD-3411",
    "country_id": 144,
    "country_code": "MD",
    "state_id": 4382,
    "state_code": "HI",
    "city_id": null,
    "locality_name": "Anini",
    "type": "full",
    "latitude": "46.88920000",
    "longitude": "28.46640000",
    "source": "posta-moldovei-via-vasilcovsky",
    "wikiDataId": null,
    "created_at": "2026-04-28T06:49:07",
    "updated_at": "2026-04-28T06:49:07",
    "flag": 1
  },
  {
    "id": 284064,
    "code": "MD-3412",
    "country_id": 144,
    "country_code": "MD",
    "state_id": 4382,
    "state_code": "HI",
    "city_id": null,
    "locality_name": "Bălceana",
    "type": "full",
    "latitude": "46.84440000",
    "longitude": "28.40470000",
    "source": "posta-moldovei-via-vasilcovsky",
    "wikiDataId": null,
    "created_at": "2026-04-28T06:49:07",
    "updated_at": "2026-04-28T06:49:07",
    "flag": 1
  },
  {
    "id": 284065,
    "code": "MD-3413",
    "country_id": 144,
    "country_code": "MD",
    "state_id": 4382,
    "state_code": "HI",
    "city_id": null,
    "locality_name": "Bobeica",
    "type": "full",
    "latitude": "46.98500000",
    "longitude": "28.46220000",
    "source": "posta-moldovei-via-vasilcovsky",
    "wikiDataId": null,
    "created_at": "2026-04-28T06:49:07",
    "updated_at": "2026-04-28T06:49:07",
    "flag": 1
  },
  {
    "id": 284066,
    "code": "MD-3413",
    "country_id": 144,
    "country_code": "MD",
    "state_id": 4382,
    "state_code": "HI",
    "city_id": null,
    "locality_name": "Dahnovici",
    "type": "full",
    "latitude": "46.97640000",
    "longitude": "28.48220000",
    "source": "posta-moldovei-via-vasilcovsky",
    "wikiDataId": null,
    "created_at": "2026-04-28T06:49:07",
    "updated_at": "2026-04-28T06:49:07",
    "flag": 1
  },
  {
    "id": 284067,
    "code": "MD-3414",
    "country_id": 144,
    "country_code": "MD",
    "state_id": 4382,
    "state_code": "HI",
    "city_id": null,
    "locality_name": "Boghiceni",
    "type": "full",
    "latitude": "46.94890000",
    "longitude": "28.32530000",
    "source": "posta-moldovei-via-vasilcovsky",
    "wikiDataId": null,
    "created_at": "2026-04-28T06:49:07",
    "updated_at": "2026-04-28T06:49:07",
    "flag": 1
  },
  {
    "id": 284068,
    "code": "MD-3415",
    "country_id": 144,
    "country_code": "MD",
    "state_id": 4382,
    "state_code": "HI",
    "city_id": null,
    "locality_name": "Bozieni",
    "type": "full",
    "latitude": "46.74940000",
    "longitude": "28.64720000",
    "source": "posta-moldovei-via-vasilcovsky",
    "wikiDataId": null,
    "created_at": "2026-04-28T06:49:07",
    "updated_at": "2026-04-28T06:49:07",
    "flag": 1
  },
  {
    "id": 284069,
    "code": "MD-3416",
    "country_id": 144,
    "country_code": "MD",
    "state_id": 4382,
    "state_code": "HI",
    "city_id": null,
    "locality_name": "Bujor",
    "type": "full",
    "latitude": "46.92250000",
    "longitude": "28.26830000",
    "source": "posta-moldovei-via-vasilcovsky",
    "wikiDataId": null,
    "created_at": "2026-04-28T06:49:07",
    "updated_at": "2026-04-28T06:49:07",
    "flag": 1
  },
  {
    "id": 284070,
    "code": "MD-3417",
    "country_id": 144,
    "country_code": "MD",
    "state_id": 4382,
    "state_code": "HI",
    "city_id": null,
    "locality_name": "Buţeni",
    "type": "full",
    "latitude": "46.82420000",
    "longitude": "28.67500000",
    "source": "posta-moldovei-via-vasilcovsky",
    "wikiDataId": null,
    "created_at": "2026-04-28T06:49:07",
    "updated_at": "2026-04-28T06:49:07",
    "flag": 1
  },
  {
    "id": 284071,
    "code": "MD-3418",
    "country_id": 144,
    "country_code": "MD",
    "state_id": 4382,
    "state_code": "HI",
    "city_id": null,
    "locality_name": "Călmăţui",
    "type": "full",
    "latitude": "46.78330000",
    "longitude": "28.21530000",
    "source": "posta-moldovei-via-vasilcovsky",
    "wikiDataId": null,
    "created_at": "2026-04-28T06:49:07",
    "updated_at": "2026-04-28T06:49:07",
    "flag": 1
  },
  {
    "id": 284072,
    "code": "MD-3419",
    "country_id": 144,
    "country_code": "MD",
    "state_id": 4382,
    "state_code": "HI",
    "city_id": null,
    "locality_name": "Caracui",
    "type": "full",
    "latitude": "46.69860000",
    "longitude": "28.54190000",
    "source": "posta-moldovei-via-vasilcovsky",
    "wikiDataId": null,
    "created_at": "2026-04-28T06:49:07",
    "updated_at": "2026-04-28T06:49:07",
    "flag": 1
  },
  {
    "id": 284073,
    "code": "MD-3420",
    "country_id": 144,
    "country_code": "MD",
    "state_id": 4382,
    "state_code": "HI",
    "city_id": null,
    "locality_name": "Cărpineni",
    "type": "full",
    "latitude": "46.75970000",
    "longitude": "28.35310000",
    "source": "posta-moldovei-via-vasilcovsky",
    "wikiDataId": null,
    "created_at": "2026-04-28T06:49:07",
    "updated_at": "2026-04-28T06:49:07",
    "flag": 1
  },
  {
    "id": 284074,
    "code": "MD-3421",
    "country_id": 144,
    "country_code": "MD",
    "state_id": 4382,
    "state_code": "HI",
    "city_id": null,
    "locality_name": "Cioara",
    "type": "full",
    "latitude": "46.73250000",
    "longitude": "28.22470000",
    "source": "posta-moldovei-via-vasilcovsky",
    "wikiDataId": null,
    "created_at": "2026-04-28T06:49:07",
    "updated_at": "2026-04-28T06:49:07",
    "flag": 1
  },
  {
    "id": 284075,
    "code": "MD-3421",
    "country_id": 144,
    "country_code": "MD",
    "state_id": 4382,
    "state_code": "HI",
    "city_id": null,
    "locality_name": "Călmaţui",
    "type": "full",
    "latitude": "46.73250000",
    "longitude": "28.22470000",
    "source": "posta-moldovei-via-vasilcovsky",
    "wikiDataId": null,
    "created_at": "2026-04-28T06:49:07",
    "updated_at": "2026-04-28T06:49:07",
    "flag": 1
  },
  {
    "id": 284076,
    "code": "MD-3422",
    "country_id": 144,
    "country_code": "MD",
    "state_id": 4382,
    "state_code": "HI",
    "city_id": null,
    "locality_name": "Cotul Morii",
    "type": "full",
    "latitude": "46.86970000",
    "longitude": "28.11890000",
    "source": "posta-moldovei-via-vasilcovsky",
    "wikiDataId": null,
    "created_at": "2026-04-28T06:49:07",
    "updated_at": "2026-04-28T06:49:07",
    "flag": 1
  },
  {
    "id": 284077,
    "code": "MD-3423",
    "country_id": 144,
    "country_code": "MD",
    "state_id": 4382,
    "state_code": "HI",
    "city_id": null,
    "locality_name": "Crasnoarmeiscoe",
    "type": "full",
    "latitude": "46.82940000",
    "longitude": "28.28220000",
    "source": "posta-moldovei-via-vasilcovsky",
    "wikiDataId": null,
    "created_at": "2026-04-28T06:49:07",
    "updated_at": "2026-04-28T06:49:07",
    "flag": 1
  },
  {
    "id": 284078,
    "code": "MD-3424",
    "country_id": 144,
    "country_code": "MD",
    "state_id": 4382,
    "state_code": "HI",
    "city_id": null,
    "locality_name": "Dancu",
    "type": "full",
    "latitude": "46.76280000",
    "longitude": "28.21000000",
    "source": "posta-moldovei-via-vasilcovsky",
    "wikiDataId": null,
    "created_at": "2026-04-28T06:49:07",
    "updated_at": "2026-04-28T06:49:07",
    "flag": 1
  },
  {
    "id": 284079,
    "code": "MD-3425",
    "country_id": 144,
    "country_code": "MD",
    "state_id": 4382,
    "state_code": "HI",
    "city_id": null,
    "locality_name": "Drăguşeni",
    "type": "full",
    "latitude": "46.98390000",
    "longitude": "28.45030000",
    "source": "posta-moldovei-via-vasilcovsky",
    "wikiDataId": null,
    "created_at": "2026-04-28T06:49:07",
    "updated_at": "2026-04-28T06:49:07",
    "flag": 1
  },
  {
    "id": 284080,
    "code": "MD-3426",
    "country_id": 144,
    "country_code": "MD",
    "state_id": 4382,
    "state_code": "HI",
    "city_id": null,
    "locality_name": "Dubovca",
    "type": "full",
    "latitude": "46.74860000",
    "longitude": "28.60830000",
    "source": "posta-moldovei-via-vasilcovsky",
    "wikiDataId": null,
    "created_at": "2026-04-28T06:49:07",
    "updated_at": "2026-04-28T06:49:07",
    "flag": 1
  },
  {
    "id": 284081,
    "code": "MD-3427",
    "country_id": 144,
    "country_code": "MD",
    "state_id": 4382,
    "state_code": "HI",
    "city_id": null,
    "locality_name": "Fîrlădeni",
    "type": "full",
    "latitude": "46.78750000",
    "longitude": "28.68750000",
    "source": "posta-moldovei-via-vasilcovsky",
    "wikiDataId": null,
    "created_at": "2026-04-28T06:49:07",
    "updated_at": "2026-04-28T06:49:07",
    "flag": 1
  },
  {
    "id": 284082,
    "code": "MD-3428",
    "country_id": 144,
    "country_code": "MD",
    "state_id": 4382,
    "state_code": "HI",
    "city_id": null,
    "locality_name": "Fundul Galbenei",
    "type": "full",
    "latitude": "46.88250000",
    "longitude": "28.62310000",
    "source": "posta-moldovei-via-vasilcovsky",
    "wikiDataId": null,
    "created_at": "2026-04-28T06:49:07",
    "updated_at": "2026-04-28T06:49:07",
    "flag": 1
  },
  {
    "id": 284083,
    "code": "MD-3429",
    "country_id": 144,
    "country_code": "MD",
    "state_id": 4382,
    "state_code": "HI",
    "city_id": null,
    "locality_name": "Horjeşti",
    "type": "full",
    "latitude": "46.71280000",
    "longitude": "28.34940000",
    "source": "posta-moldovei-via-vasilcovsky",
    "wikiDataId": null,
    "created_at": "2026-04-28T06:49:07",
    "updated_at": "2026-04-28T06:49:07",
    "flag": 1
  },
  {
    "id": 284084,
    "code": "MD-3430",
    "country_id": 144,
    "country_code": "MD",
    "state_id": 4382,
    "state_code": "HI",
    "city_id": null,
    "locality_name": "Coste şti",
    "type": "full",
    "latitude": "46.87330000",
    "longitude": "28.20670000",
    "source": "posta-moldovei-via-vasilcovsky",
    "wikiDataId": null,
    "created_at": "2026-04-28T06:49:07",
    "updated_at": "2026-04-28T06:49:07",
    "flag": 1
  },
  {
    "id": 284085,
    "code": "MD-3430",
    "country_id": 144,
    "country_code": "MD",
    "state_id": 4382,
    "state_code": "HI",
    "city_id": null,
    "locality_name": "Frasin",
    "type": "full",
    "latitude": "46.89000000",
    "longitude": "28.19500000",
    "source": "posta-moldovei-via-vasilcovsky",
    "wikiDataId": null,
    "created_at": "2026-04-28T06:49:07",
    "updated_at": "2026-04-28T06:49:07",
    "flag": 1
  },
  {
    "id": 284086,
    "code": "MD-3430",
    "country_id": 144,
    "country_code": "MD",
    "state_id": 4382,
    "state_code": "HI",
    "city_id": null,
    "locality_name": "Ivanovca",
    "type": "full",
    "latitude": "46.87690000",
    "longitude": "28.19640000",
    "source": "posta-moldovei-via-vasilcovsky",
    "wikiDataId": null,
    "created_at": "2026-04-28T06:49:07",
    "updated_at": "2026-04-28T06:49:07",
    "flag": 1
  },
  {
    "id": 284087,
    "code": "MD-3431",
    "country_id": 144,
    "country_code": "MD",
    "state_id": 4382,
    "state_code": "HI",
    "city_id": null,
    "locality_name": "Lăpuşna",
    "type": "full",
    "latitude": "46.88420000",
    "longitude": "28.41190000",
    "source": "posta-moldovei-via-vasilcovsky",
    "wikiDataId": null,
    "created_at": "2026-04-28T06:49:07",
    "updated_at": "2026-04-28T06:49:07",
    "flag": 1
  },
  {
    "id": 284088,
    "code": "MD-3432",
    "country_id": 144,
    "country_code": "MD",
    "state_id": 4382,
    "state_code": "HI",
    "city_id": null,
    "locality_name": "Feteasca",
    "type": "full",
    "latitude": "46.78780000",
    "longitude": "28.19220000",
    "source": "posta-moldovei-via-vasilcovsky",
    "wikiDataId": null,
    "created_at": "2026-04-28T06:49:07",
    "updated_at": "2026-04-28T06:49:07",
    "flag": 1
  },
  {
    "id": 284089,
    "code": "MD-3432",
    "country_id": 144,
    "country_code": "MD",
    "state_id": 4382,
    "state_code": "HI",
    "city_id": null,
    "locality_name": "Leuşeni",
    "type": "full",
    "latitude": "46.80920000",
    "longitude": "28.19940000",
    "source": "posta-moldovei-via-vasilcovsky",
    "wikiDataId": null,
    "created_at": "2026-04-28T06:49:07",
    "updated_at": "2026-04-28T06:49:07",
    "flag": 1
  },
  {
    "id": 284090,
    "code": "MD-3434",
    "country_id": 144,
    "country_code": "MD",
    "state_id": 4382,
    "state_code": "HI",
    "city_id": null,
    "locality_name": "Logăneşti",
    "type": "full",
    "latitude": "46.90390000",
    "longitude": "28.54530000",
    "source": "posta-moldovei-via-vasilcovsky",
    "wikiDataId": null,
    "created_at": "2026-04-28T06:49:07",
    "updated_at": "2026-04-28T06:49:07",
    "flag": 1
  },
  {
    "id": 284091,
    "code": "MD-3437",
    "country_id": 144,
    "country_code": "MD",
    "state_id": 4382,
    "state_code": "HI",
    "city_id": null,
    "locality_name": "Chetroşeni",
    "type": "full",
    "latitude": "46.96310000",
    "longitude": "28.27280000",
    "source": "posta-moldovei-via-vasilcovsky",
    "wikiDataId": null,
    "created_at": "2026-04-28T06:49:07",
    "updated_at": "2026-04-28T06:49:07",
    "flag": 1
  },
  {
    "id": 284092,
    "code": "MD-3446",
    "country_id": 144,
    "country_code": "MD",
    "state_id": 4382,
    "state_code": "HI",
    "city_id": null,
    "locality_name": "Brătianovca",
    "type": "full",
    "latitude": "46.74060000",
    "longitude": "28.46470000",
    "source": "posta-moldovei-via-vasilcovsky",
    "wikiDataId": null,
    "created_at": "2026-04-28T06:49:07",
    "updated_at": "2026-04-28T06:49:07",
    "flag": 1
  },
  {
    "id": 284093,
    "code": "MD-3446",
    "country_id": 144,
    "country_code": "MD",
    "state_id": 4382,
    "state_code": "HI",
    "city_id": null,
    "locality_name": "Coroliovca",
    "type": "full",
    "latitude": "46.71080000",
    "longitude": "28.47250000",
    "source": "posta-moldovei-via-vasilcovsky",
    "wikiDataId": null,
    "created_at": "2026-04-28T06:49:07",
    "updated_at": "2026-04-28T06:49:07",
    "flag": 1
  },
  {
    "id": 284094,
    "code": "MD-3446",
    "country_id": 144,
    "country_code": "MD",
    "state_id": 4382,
    "state_code": "HI",
    "city_id": null,
    "locality_name": "Cărpineanca",
    "type": "full",
    "latitude": "46.69610000",
    "longitude": "28.47250000",
    "source": "posta-moldovei-via-vasilcovsky",
    "wikiDataId": null,
    "created_at": "2026-04-28T06:49:07",
    "updated_at": "2026-04-28T06:49:07",
    "flag": 1
  },
  {
    "id": 284095,
    "code": "MD-3448",
    "country_id": 144,
    "country_code": "MD",
    "state_id": 4382,
    "state_code": "HI",
    "city_id": null,
    "locality_name": "Corneşti",
    "type": "full",
    "latitude": "46.99810000",
    "longitude": "28.32940000",
    "source": "posta-moldovei-via-vasilcovsky",
    "wikiDataId": null,
    "created_at": "2026-04-28T06:49:07",
    "updated_at": "2026-04-28T06:49:07",
    "flag": 1
  },
  {
    "id": 284096,
    "code": "MD-3452",
    "country_id": 144,
    "country_code": "MD",
    "state_id": 4382,
    "state_code": "HI",
    "city_id": null,
    "locality_name": "Boinescu",
    "type": "full",
    "latitude": "46.69750000",
    "longitude": "28.30440000",
    "source": "posta-moldovei-via-vasilcovsky",
    "wikiDataId": null,
    "created_at": "2026-04-28T06:49:07",
    "updated_at": "2026-04-28T06:49:07",
    "flag": 1
  },
  {
    "id": 284097,
    "code": "MD-3511",
    "country_id": 144,
    "country_code": "MD",
    "state_id": 4361,
    "state_code": "OR",
    "city_id": null,
    "locality_name": "Berezlogi",
    "type": "full",
    "latitude": "47.43640000",
    "longitude": "28.93390000",
    "source": "posta-moldovei-via-vasilcovsky",
    "wikiDataId": null,
    "created_at": "2026-04-28T06:49:07",
    "updated_at": "2026-04-28T06:49:07",
    "flag": 1
  },
  {
    "id": 284098,
    "code": "MD-3512",
    "country_id": 144,
    "country_code": "MD",
    "state_id": 4361,
    "state_code": "OR",
    "city_id": null,
    "locality_name": "Bieşti",
    "type": "full",
    "latitude": "47.51560000",
    "longitude": "28.86140000",
    "source": "posta-moldovei-via-vasilcovsky",
    "wikiDataId": null,
    "created_at": "2026-04-28T06:49:07",
    "updated_at": "2026-04-28T06:49:07",
    "flag": 1
  },
  {
    "id": 284099,
    "code": "MD-3512",
    "country_id": 144,
    "country_code": "MD",
    "state_id": 4361,
    "state_code": "OR",
    "city_id": null,
    "locality_name": "Cihoreni",
    "type": "full",
    "latitude": "47.50610000",
    "longitude": "28.86220000",
    "source": "posta-moldovei-via-vasilcovsky",
    "wikiDataId": null,
    "created_at": "2026-04-28T06:49:07",
    "updated_at": "2026-04-28T06:49:07",
    "flag": 1
  },
  {
    "id": 284100,
    "code": "MD-3513",
    "country_id": 144,
    "country_code": "MD",
    "state_id": 4361,
    "state_code": "OR",
    "city_id": null,
    "locality_name": "Bolohan",
    "type": "full",
    "latitude": "47.43190000",
    "longitude": "28.87310000",
    "source": "posta-moldovei-via-vasilcovsky",
    "wikiDataId": null,
    "created_at": "2026-04-28T06:49:07",
    "updated_at": "2026-04-28T06:49:07",
    "flag": 1
  },
  {
    "id": 284101,
    "code": "MD-3514",
    "country_id": 144,
    "country_code": "MD",
    "state_id": 4361,
    "state_code": "OR",
    "city_id": null,
    "locality_name": "Brăviceni",
    "type": "full",
    "latitude": "47.43360000",
    "longitude": "28.65780000",
    "source": "posta-moldovei-via-vasilcovsky",
    "wikiDataId": null,
    "created_at": "2026-04-28T06:49:07",
    "updated_at": "2026-04-28T06:49:07",
    "flag": 1
  },
  {
    "id": 284102,
    "code": "MD-3515",
    "country_id": 144,
    "country_code": "MD",
    "state_id": 4361,
    "state_code": "OR",
    "city_id": null,
    "locality_name": "Brăneşti",
    "type": "full",
    "latitude": "47.30530000",
    "longitude": "28.92670000",
    "source": "posta-moldovei-via-vasilcovsky",
    "wikiDataId": null,
    "created_at": "2026-04-28T06:49:07",
    "updated_at": "2026-04-28T06:49:07",
    "flag": 1
  },
  {
    "id": 284103,
    "code": "MD-3516",
    "country_id": 144,
    "country_code": "MD",
    "state_id": 4361,
    "state_code": "OR",
    "city_id": null,
    "locality_name": "Breanova",
    "type": "full",
    "latitude": "47.41580000",
    "longitude": "28.64970000",
    "source": "posta-moldovei-via-vasilcovsky",
    "wikiDataId": null,
    "created_at": "2026-04-28T06:49:07",
    "updated_at": "2026-04-28T06:49:07",
    "flag": 1
  },
  {
    "id": 284104,
    "code": "MD-3517",
    "country_id": 144,
    "country_code": "MD",
    "state_id": 4361,
    "state_code": "OR",
    "city_id": null,
    "locality_name": "Bulăieşti",
    "type": "full",
    "latitude": "47.47690000",
    "longitude": "28.97860000",
    "source": "posta-moldovei-via-vasilcovsky",
    "wikiDataId": null,
    "created_at": "2026-04-28T06:49:07",
    "updated_at": "2026-04-28T06:49:07",
    "flag": 1
  },
  {
    "id": 284105,
    "code": "MD-3518",
    "country_id": 144,
    "country_code": "MD",
    "state_id": 4361,
    "state_code": "OR",
    "city_id": null,
    "locality_name": "Chiperceni",
    "type": "full",
    "latitude": "47.52500000",
    "longitude": "28.83860000",
    "source": "posta-moldovei-via-vasilcovsky",
    "wikiDataId": null,
    "created_at": "2026-04-28T06:49:07",
    "updated_at": "2026-04-28T06:49:07",
    "flag": 1
  },
  {
    "id": 284106,
    "code": "MD-3519",
    "country_id": 144,
    "country_code": "MD",
    "state_id": 4361,
    "state_code": "OR",
    "city_id": null,
    "locality_name": "Ciocîlteni",
    "type": "full",
    "latitude": "47.49390000",
    "longitude": "28.60890000",
    "source": "posta-moldovei-via-vasilcovsky",
    "wikiDataId": null,
    "created_at": "2026-04-28T06:49:07",
    "updated_at": "2026-04-28T06:49:07",
    "flag": 1
  },
  {
    "id": 284107,
    "code": "MD-3519",
    "country_id": 144,
    "country_code": "MD",
    "state_id": 4361,
    "state_code": "OR",
    "city_id": null,
    "locality_name": "Clişova Nouă",
    "type": "full",
    "latitude": "47.49100000",
    "longitude": "28.62460000",
    "source": "posta-moldovei-via-vasilcovsky",
    "wikiDataId": null,
    "created_at": "2026-04-28T06:49:07",
    "updated_at": "2026-04-28T06:49:07",
    "flag": 1
  },
  {
    "id": 284108,
    "code": "MD-3519",
    "country_id": 144,
    "country_code": "MD",
    "state_id": 4361,
    "state_code": "OR",
    "city_id": null,
    "locality_name": "Fedoreuca",
    "type": "full",
    "latitude": "47.48810000",
    "longitude": "28.64030000",
    "source": "posta-moldovei-via-vasilcovsky",
    "wikiDataId": null,
    "created_at": "2026-04-28T06:49:07",
    "updated_at": "2026-04-28T06:49:07",
    "flag": 1
  },
  {
    "id": 284109,
    "code": "MD-3520",
    "country_id": 144,
    "country_code": "MD",
    "state_id": 4361,
    "state_code": "OR",
    "city_id": null,
    "locality_name": "Cişmea",
    "type": "full",
    "latitude": "47.41640000",
    "longitude": "28.75330000",
    "source": "posta-moldovei-via-vasilcovsky",
    "wikiDataId": null,
    "created_at": "2026-04-28T06:49:07",
    "updated_at": "2026-04-28T06:49:07",
    "flag": 1
  },
  {
    "id": 284110,
    "code": "MD-3521",
    "country_id": 144,
    "country_code": "MD",
    "state_id": 4361,
    "state_code": "OR",
    "city_id": null,
    "locality_name": "Clişova",
    "type": "full",
    "latitude": "47.47310000",
    "longitude": "28.57360000",
    "source": "posta-moldovei-via-vasilcovsky",
    "wikiDataId": null,
    "created_at": "2026-04-28T06:49:07",
    "updated_at": "2026-04-28T06:49:07",
    "flag": 1
  },
  {
    "id": 284111,
    "code": "MD-3522",
    "country_id": 144,
    "country_code": "MD",
    "state_id": 4361,
    "state_code": "OR",
    "city_id": null,
    "locality_name": "Cucuruzeni",
    "type": "full",
    "latitude": "47.48830000",
    "longitude": "28.72580000",
    "source": "posta-moldovei-via-vasilcovsky",
    "wikiDataId": null,
    "created_at": "2026-04-28T06:49:07",
    "updated_at": "2026-04-28T06:49:07",
    "flag": 1
  },
  {
    "id": 284112,
    "code": "MD-3523",
    "country_id": 144,
    "country_code": "MD",
    "state_id": 4361,
    "state_code": "OR",
    "city_id": null,
    "locality_name": "Crihana",
    "type": "full",
    "latitude": "47.52280000",
    "longitude": "28.72110000",
    "source": "posta-moldovei-via-vasilcovsky",
    "wikiDataId": null,
    "created_at": "2026-04-28T06:49:07",
    "updated_at": "2026-04-28T06:49:07",
    "flag": 1
  },
  {
    "id": 284113,
    "code": "MD-3523",
    "country_id": 144,
    "country_code": "MD",
    "state_id": 4361,
    "state_code": "OR",
    "city_id": null,
    "locality_name": "Cucutuzenii de Sus",
    "type": "full",
    "latitude": "47.54560000",
    "longitude": "28.69890000",
    "source": "posta-moldovei-via-vasilcovsky",
    "wikiDataId": null,
    "created_at": "2026-04-28T06:49:07",
    "updated_at": "2026-04-28T06:49:07",
    "flag": 1
  },
  {
    "id": 284114,
    "code": "MD-3524",
    "country_id": 144,
    "country_code": "MD",
    "state_id": 4361,
    "state_code": "OR",
    "city_id": null,
    "locality_name": "Curchi",
    "type": "full",
    "latitude": "47.33580000",
    "longitude": "28.65390000",
    "source": "posta-moldovei-via-vasilcovsky",
    "wikiDataId": null,
    "created_at": "2026-04-28T06:49:07",
    "updated_at": "2026-04-28T06:49:07",
    "flag": 1
  },
  {
    "id": 284115,
    "code": "MD-3524",
    "country_id": 144,
    "country_code": "MD",
    "state_id": 4361,
    "state_code": "OR",
    "city_id": null,
    "locality_name": "Mana",
    "type": "full",
    "latitude": "47.33890000",
    "longitude": "28.68440000",
    "source": "posta-moldovei-via-vasilcovsky",
    "wikiDataId": null,
    "created_at": "2026-04-28T06:49:07",
    "updated_at": "2026-04-28T06:49:07",
    "flag": 1
  },
  {
    "id": 284116,
    "code": "MD-3525",
    "country_id": 144,
    "country_code": "MD",
    "state_id": 4361,
    "state_code": "OR",
    "city_id": null,
    "locality_name": "Dişcova",
    "type": "full",
    "latitude": "47.37560000",
    "longitude": "28.59750000",
    "source": "posta-moldovei-via-vasilcovsky",
    "wikiDataId": null,
    "created_at": "2026-04-28T06:49:07",
    "updated_at": "2026-04-28T06:49:07",
    "flag": 1
  },
  {
    "id": 284117,
    "code": "MD-3526",
    "country_id": 144,
    "country_code": "MD",
    "state_id": 4361,
    "state_code": "OR",
    "city_id": null,
    "locality_name": "Camencea",
    "type": "full",
    "latitude": "47.28080000",
    "longitude": "28.68750000",
    "source": "posta-moldovei-via-vasilcovsky",
    "wikiDataId": null,
    "created_at": "2026-04-28T06:49:07",
    "updated_at": "2026-04-28T06:49:07",
    "flag": 1
  },
  {
    "id": 284118,
    "code": "MD-3526",
    "country_id": 144,
    "country_code": "MD",
    "state_id": 4361,
    "state_code": "OR",
    "city_id": null,
    "locality_name": "Donici",
    "type": "full",
    "latitude": "47.28440000",
    "longitude": "28.67000000",
    "source": "posta-moldovei-via-vasilcovsky",
    "wikiDataId": null,
    "created_at": "2026-04-28T06:49:07",
    "updated_at": "2026-04-28T06:49:07",
    "flag": 1
  },
  {
    "id": 284119,
    "code": "MD-3527",
    "country_id": 144,
    "country_code": "MD",
    "state_id": 4361,
    "state_code": "OR",
    "city_id": null,
    "locality_name": "Furceni",
    "type": "full",
    "latitude": "47.33640000",
    "longitude": "28.92560000",
    "source": "posta-moldovei-via-vasilcovsky",
    "wikiDataId": null,
    "created_at": "2026-04-28T06:49:07",
    "updated_at": "2026-04-28T06:49:07",
    "flag": 1
  },
  {
    "id": 284120,
    "code": "MD-3528",
    "country_id": 144,
    "country_code": "MD",
    "state_id": 4361,
    "state_code": "OR",
    "city_id": null,
    "locality_name": "Ghetlova",
    "type": "full",
    "latitude": "47.37190000",
    "longitude": "28.53220000",
    "source": "posta-moldovei-via-vasilcovsky",
    "wikiDataId": null,
    "created_at": "2026-04-28T06:49:07",
    "updated_at": "2026-04-28T06:49:07",
    "flag": 1
  },
  {
    "id": 284121,
    "code": "MD-3529",
    "country_id": 144,
    "country_code": "MD",
    "state_id": 4361,
    "state_code": "OR",
    "city_id": null,
    "locality_name": "Hîjdieni",
    "type": "full",
    "latitude": "47.45940000",
    "longitude": "28.91470000",
    "source": "posta-moldovei-via-vasilcovsky",
    "wikiDataId": null,
    "created_at": "2026-04-28T06:49:07",
    "updated_at": "2026-04-28T06:49:07",
    "flag": 1
  },
  {
    "id": 284122,
    "code": "MD-3530",
    "country_id": 144,
    "country_code": "MD",
    "state_id": 4361,
    "state_code": "OR",
    "city_id": null,
    "locality_name": "Hulboaca",
    "type": "full",
    "latitude": "47.37860000",
    "longitude": "28.55500000",
    "source": "posta-moldovei-via-vasilcovsky",
    "wikiDataId": null,
    "created_at": "2026-04-28T06:49:07",
    "updated_at": "2026-04-28T06:49:07",
    "flag": 1
  },
  {
    "id": 284123,
    "code": "MD-3531",
    "country_id": 144,
    "country_code": "MD",
    "state_id": 4361,
    "state_code": "OR",
    "city_id": null,
    "locality_name": "Isacova",
    "type": "full",
    "latitude": "47.37030000",
    "longitude": "28.71810000",
    "source": "posta-moldovei-via-vasilcovsky",
    "wikiDataId": null,
    "created_at": "2026-04-28T06:49:07",
    "updated_at": "2026-04-28T06:49:07",
    "flag": 1
  },
  {
    "id": 284124,
    "code": "MD-3532",
    "country_id": 144,
    "country_code": "MD",
    "state_id": 4361,
    "state_code": "OR",
    "city_id": null,
    "locality_name": "Ivancea",
    "type": "full",
    "latitude": "47.28470000",
    "longitude": "28.85690000",
    "source": "posta-moldovei-via-vasilcovsky",
    "wikiDataId": null,
    "created_at": "2026-04-28T06:49:07",
    "updated_at": "2026-04-28T06:49:07",
    "flag": 1
  },
  {
    "id": 284125,
    "code": "MD-3533",
    "country_id": 144,
    "country_code": "MD",
    "state_id": 4361,
    "state_code": "OR",
    "city_id": null,
    "locality_name": "Izvoare",
    "type": "full",
    "latitude": "47.55170000",
    "longitude": "28.95720000",
    "source": "posta-moldovei-via-vasilcovsky",
    "wikiDataId": null,
    "created_at": "2026-04-28T06:49:07",
    "updated_at": "2026-04-28T06:49:07",
    "flag": 1
  },
  {
    "id": 284126,
    "code": "MD-3534",
    "country_id": 144,
    "country_code": "MD",
    "state_id": 4361,
    "state_code": "OR",
    "city_id": null,
    "locality_name": "Jora de Jos",
    "type": "full",
    "latitude": "47.46500000",
    "longitude": "29.10830000",
    "source": "posta-moldovei-via-vasilcovsky",
    "wikiDataId": null,
    "created_at": "2026-04-28T06:49:07",
    "updated_at": "2026-04-28T06:49:07",
    "flag": 1
  },
  {
    "id": 284127,
    "code": "MD-3534",
    "country_id": 144,
    "country_code": "MD",
    "state_id": 4361,
    "state_code": "OR",
    "city_id": null,
    "locality_name": "Jora de Mijloc",
    "type": "full",
    "latitude": "47.47560000",
    "longitude": "29.09610000",
    "source": "posta-moldovei-via-vasilcovsky",
    "wikiDataId": null,
    "created_at": "2026-04-28T06:49:07",
    "updated_at": "2026-04-28T06:49:07",
    "flag": 1
  },
  {
    "id": 284128,
    "code": "MD-3535",
    "country_id": 144,
    "country_code": "MD",
    "state_id": 4361,
    "state_code": "OR",
    "city_id": null,
    "locality_name": "Jora de Sus",
    "type": "full",
    "latitude": "47.48670000",
    "longitude": "29.07610000",
    "source": "posta-moldovei-via-vasilcovsky",
    "wikiDataId": null,
    "created_at": "2026-04-28T06:49:07",
    "updated_at": "2026-04-28T06:49:07",
    "flag": 1
  },
  {
    "id": 284129,
    "code": "MD-3535",
    "country_id": 144,
    "country_code": "MD",
    "state_id": 4361,
    "state_code": "OR",
    "city_id": null,
    "locality_name": "Lopatna",
    "type": "full",
    "latitude": "47.49500000",
    "longitude": "29.05220000",
    "source": "posta-moldovei-via-vasilcovsky",
    "wikiDataId": null,
    "created_at": "2026-04-28T06:49:07",
    "updated_at": "2026-04-28T06:49:07",
    "flag": 1
  },
  {
    "id": 284130,
    "code": "MD-3536",
    "country_id": 144,
    "country_code": "MD",
    "state_id": 4361,
    "state_code": "OR",
    "city_id": null,
    "locality_name": "Mălaie şti",
    "type": "full",
    "latitude": "47.46310000",
    "longitude": "28.66360000",
    "source": "posta-moldovei-via-vasilcovsky",
    "wikiDataId": null,
    "created_at": "2026-04-28T06:49:07",
    "updated_at": "2026-04-28T06:49:07",
    "flag": 1
  },
  {
    "id": 284131,
    "code": "MD-3542",
    "country_id": 144,
    "country_code": "MD",
    "state_id": 4361,
    "state_code": "OR",
    "city_id": null,
    "locality_name": "Jeloboc",
    "type": "full",
    "latitude": "47.35690000",
    "longitude": "28.90470000",
    "source": "posta-moldovei-via-vasilcovsky",
    "wikiDataId": null,
    "created_at": "2026-04-28T06:49:07",
    "updated_at": "2026-04-28T06:49:07",
    "flag": 1
  },
  {
    "id": 284132,
    "code": "MD-3545",
    "country_id": 144,
    "country_code": "MD",
    "state_id": 4361,
    "state_code": "OR",
    "city_id": null,
    "locality_name": "Lucăşeuca",
    "type": "full",
    "latitude": "47.33500000",
    "longitude": "28.75580000",
    "source": "posta-moldovei-via-vasilcovsky",
    "wikiDataId": null,
    "created_at": "2026-04-28T06:49:07",
    "updated_at": "2026-04-28T06:49:07",
    "flag": 1
  },
  {
    "id": 284133,
    "code": "MD-3547",
    "country_id": 144,
    "country_code": "MD",
    "state_id": 4361,
    "state_code": "OR",
    "city_id": null,
    "locality_name": "Budăi",
    "type": "full",
    "latitude": "47.43440000",
    "longitude": "28.82110000",
    "source": "posta-moldovei-via-vasilcovsky",
    "wikiDataId": null,
    "created_at": "2026-04-28T06:49:07",
    "updated_at": "2026-04-28T06:49:07",
    "flag": 1
  },
  {
    "id": 284134,
    "code": "MD-3552",
    "country_id": 144,
    "country_code": "MD",
    "state_id": 4361,
    "state_code": "OR",
    "city_id": null,
    "locality_name": "Butuceni",
    "type": "full",
    "latitude": "47.30140000",
    "longitude": "28.97250000",
    "source": "posta-moldovei-via-vasilcovsky",
    "wikiDataId": null,
    "created_at": "2026-04-28T06:49:07",
    "updated_at": "2026-04-28T06:49:07",
    "flag": 1
  },
  {
    "id": 284135,
    "code": "MD-3556",
    "country_id": 144,
    "country_code": "MD",
    "state_id": 4361,
    "state_code": "OR",
    "city_id": null,
    "locality_name": "Andreevca",
    "type": "full",
    "latitude": "47.53890000",
    "longitude": "28.87750000",
    "source": "posta-moldovei-via-vasilcovsky",
    "wikiDataId": null,
    "created_at": "2026-04-28T06:49:07",
    "updated_at": "2026-04-28T06:49:07",
    "flag": 1
  },
  {
    "id": 284136,
    "code": "MD-3557",
    "country_id": 144,
    "country_code": "MD",
    "state_id": 4361,
    "state_code": "OR",
    "city_id": null,
    "locality_name": "Inculeţ",
    "type": "full",
    "latitude": "47.44890000",
    "longitude": "28.72190000",
    "source": "posta-moldovei-via-vasilcovsky",
    "wikiDataId": null,
    "created_at": "2026-04-28T06:49:07",
    "updated_at": "2026-04-28T06:49:07",
    "flag": 1
  },
  {
    "id": 284137,
    "code": "MD-3603",
    "country_id": 144,
    "country_code": "MD",
    "state_id": 4386,
    "state_code": "UN",
    "city_id": null,
    "locality_name": "Elizavetovca",
    "type": "full",
    "latitude": "47.24250000",
    "longitude": "27.76111000",
    "source": "posta-moldovei-via-vasilcovsky",
    "wikiDataId": null,
    "created_at": "2026-04-28T06:49:07",
    "updated_at": "2026-04-28T06:49:07",
    "flag": 1
  },
  {
    "id": 284138,
    "code": "MD-3606",
    "country_id": 144,
    "country_code": "MD",
    "state_id": 4386,
    "state_code": "UN",
    "city_id": null,
    "locality_name": "Elizavetovca",
    "type": "full",
    "latitude": "47.24360000",
    "longitude": "27.82280000",
    "source": "posta-moldovei-via-vasilcovsky",
    "wikiDataId": null,
    "created_at": "2026-04-28T06:49:07",
    "updated_at": "2026-04-28T06:49:07",
    "flag": 1
  },
  {
    "id": 284139,
    "code": "MD-3608",
    "country_id": 144,
    "country_code": "MD",
    "state_id": 4386,
    "state_code": "UN",
    "city_id": null,
    "locality_name": "Corneşti",
    "type": "full",
    "latitude": "47.38350000",
    "longitude": "27.98690000",
    "source": "posta-moldovei-via-vasilcovsky",
    "wikiDataId": null,
    "created_at": "2026-04-28T06:49:07",
    "updated_at": "2026-04-28T06:49:07",
    "flag": 1
  },
  {
    "id": 284140,
    "code": "MD-3608",
    "country_id": 144,
    "country_code": "MD",
    "state_id": 4386,
    "state_code": "UN",
    "city_id": null,
    "locality_name": "Corneşti Oraş",
    "type": "full",
    "latitude": "47.38350000",
    "longitude": "27.98690000",
    "source": "posta-moldovei-via-vasilcovsky",
    "wikiDataId": null,
    "created_at": "2026-04-28T06:49:07",
    "updated_at": "2026-04-28T06:49:07",
    "flag": 1
  },
  {
    "id": 284141,
    "code": "MD-3611",
    "country_id": 144,
    "country_code": "MD",
    "state_id": 4386,
    "state_code": "UN",
    "city_id": null,
    "locality_name": "Agronomovca",
    "type": "full",
    "latitude": "47.34861000",
    "longitude": "27.89639000",
    "source": "posta-moldovei-via-vasilcovsky",
    "wikiDataId": null,
    "created_at": "2026-04-28T06:49:07",
    "updated_at": "2026-04-28T06:49:07",
    "flag": 1
  },
  {
    "id": 284142,
    "code": "MD-3612",
    "country_id": 144,
    "country_code": "MD",
    "state_id": 4386,
    "state_code": "UN",
    "city_id": null,
    "locality_name": "Alexeevca",
    "type": "full",
    "latitude": "47.26360000",
    "longitude": "27.92970000",
    "source": "posta-moldovei-via-vasilcovsky",
    "wikiDataId": null,
    "created_at": "2026-04-28T06:49:07",
    "updated_at": "2026-04-28T06:49:07",
    "flag": 1
  },
  {
    "id": 284143,
    "code": "MD-3613",
    "country_id": 144,
    "country_code": "MD",
    "state_id": 4386,
    "state_code": "UN",
    "city_id": null,
    "locality_name": "Boghenii Noi",
    "type": "full",
    "latitude": "47.42530000",
    "longitude": "28.01440000",
    "source": "posta-moldovei-via-vasilcovsky",
    "wikiDataId": null,
    "created_at": "2026-04-28T06:49:07",
    "updated_at": "2026-04-28T06:49:07",
    "flag": 1
  },
  {
    "id": 284144,
    "code": "MD-3613",
    "country_id": 144,
    "country_code": "MD",
    "state_id": 4386,
    "state_code": "UN",
    "city_id": null,
    "locality_name": "Boghenii Vechi",
    "type": "full",
    "latitude": "47.42530000",
    "longitude": "28.01440000",
    "source": "posta-moldovei-via-vasilcovsky",
    "wikiDataId": null,
    "created_at": "2026-04-28T06:49:07",
    "updated_at": "2026-04-28T06:49:07",
    "flag": 1
  },
  {
    "id": 284145,
    "code": "MD-3614",
    "country_id": 144,
    "country_code": "MD",
    "state_id": 4386,
    "state_code": "UN",
    "city_id": null,
    "locality_name": "Boghenii Vechi",
    "type": "full",
    "latitude": "47.39720000",
    "longitude": "28.02610000",
    "source": "posta-moldovei-via-vasilcovsky",
    "wikiDataId": null,
    "created_at": "2026-04-28T06:49:07",
    "updated_at": "2026-04-28T06:49:07",
    "flag": 1
  },
  {
    "id": 284146,
    "code": "MD-3615",
    "country_id": 144,
    "country_code": "MD",
    "state_id": 4386,
    "state_code": "UN",
    "city_id": null,
    "locality_name": "Bumbăta",
    "type": "full",
    "latitude": "47.34080000",
    "longitude": "27.97440000",
    "source": "posta-moldovei-via-vasilcovsky",
    "wikiDataId": null,
    "created_at": "2026-04-28T06:49:07",
    "updated_at": "2026-04-28T06:49:07",
    "flag": 1
  },
  {
    "id": 284147,
    "code": "MD-3616",
    "country_id": 144,
    "country_code": "MD",
    "state_id": 4386,
    "state_code": "UN",
    "city_id": null,
    "locality_name": "Buşila",
    "type": "full",
    "latitude": "47.38750000",
    "longitude": "27.81170000",
    "source": "posta-moldovei-via-vasilcovsky",
    "wikiDataId": null,
    "created_at": "2026-04-28T06:49:07",
    "updated_at": "2026-04-28T06:49:07",
    "flag": 1
  },
  {
    "id": 284148,
    "code": "MD-3617",
    "country_id": 144,
    "country_code": "MD",
    "state_id": 4386,
    "state_code": "UN",
    "city_id": null,
    "locality_name": "Cetireni",
    "type": "full",
    "latitude": "47.22420000",
    "longitude": "27.90330000",
    "source": "posta-moldovei-via-vasilcovsky",
    "wikiDataId": null,
    "created_at": "2026-04-28T06:49:07",
    "updated_at": "2026-04-28T06:49:07",
    "flag": 1
  },
  {
    "id": 284149,
    "code": "MD-3617",
    "country_id": 144,
    "country_code": "MD",
    "state_id": 4386,
    "state_code": "UN",
    "city_id": null,
    "locality_name": "Floriţoaia Veche",
    "type": "full",
    "latitude": "47.20639000",
    "longitude": "27.90778000",
    "source": "posta-moldovei-via-vasilcovsky",
    "wikiDataId": null,
    "created_at": "2026-04-28T06:49:07",
    "updated_at": "2026-04-28T06:49:07",
    "flag": 1
  },
  {
    "id": 284150,
    "code": "MD-3618",
    "country_id": 144,
    "country_code": "MD",
    "state_id": 4386,
    "state_code": "UN",
    "city_id": null,
    "locality_name": "Chirileni",
    "type": "full",
    "latitude": "47.38080000",
    "longitude": "27.77610000",
    "source": "posta-moldovei-via-vasilcovsky",
    "wikiDataId": null,
    "created_at": "2026-04-28T06:49:07",
    "updated_at": "2026-04-28T06:49:07",
    "flag": 1
  },
  {
    "id": 284151,
    "code": "MD-3619",
    "country_id": 144,
    "country_code": "MD",
    "state_id": 4386,
    "state_code": "UN",
    "city_id": null,
    "locality_name": "Cioropcani",
    "type": "full",
    "latitude": "47.39780000",
    "longitude": "27.69970000",
    "source": "posta-moldovei-via-vasilcovsky",
    "wikiDataId": null,
    "created_at": "2026-04-28T06:49:07",
    "updated_at": "2026-04-28T06:49:07",
    "flag": 1
  },
  {
    "id": 284152,
    "code": "MD-3619",
    "country_id": 144,
    "country_code": "MD",
    "state_id": 4386,
    "state_code": "UN",
    "city_id": null,
    "locality_name": "Cioropcanii Noi",
    "type": "full",
    "latitude": "47.39780000",
    "longitude": "27.69970000",
    "source": "posta-moldovei-via-vasilcovsky",
    "wikiDataId": null,
    "created_at": "2026-04-28T06:49:07",
    "updated_at": "2026-04-28T06:49:07",
    "flag": 1
  },
  {
    "id": 284153,
    "code": "MD-3619",
    "country_id": 144,
    "country_code": "MD",
    "state_id": 4386,
    "state_code": "UN",
    "city_id": null,
    "locality_name": "Cioropcanii Vechi",
    "type": "full",
    "latitude": "47.39780000",
    "longitude": "27.69970000",
    "source": "posta-moldovei-via-vasilcovsky",
    "wikiDataId": null,
    "created_at": "2026-04-28T06:49:07",
    "updated_at": "2026-04-28T06:49:07",
    "flag": 1
  },
  {
    "id": 284154,
    "code": "MD-3620",
    "country_id": 144,
    "country_code": "MD",
    "state_id": 4386,
    "state_code": "UN",
    "city_id": null,
    "locality_name": "Condrăteşti",
    "type": "full",
    "latitude": "47.41220000",
    "longitude": "28.11220000",
    "source": "posta-moldovei-via-vasilcovsky",
    "wikiDataId": null,
    "created_at": "2026-04-28T06:49:07",
    "updated_at": "2026-04-28T06:49:07",
    "flag": 1
  },
  {
    "id": 284155,
    "code": "MD-3620",
    "country_id": 144,
    "country_code": "MD",
    "state_id": 4386,
    "state_code": "UN",
    "city_id": null,
    "locality_name": "Curtoaia",
    "type": "full",
    "latitude": "47.39280000",
    "longitude": "28.10470000",
    "source": "posta-moldovei-via-vasilcovsky",
    "wikiDataId": null,
    "created_at": "2026-04-28T06:49:07",
    "updated_at": "2026-04-28T06:49:07",
    "flag": 1
  },
  {
    "id": 284156,
    "code": "MD-3621",
    "country_id": 144,
    "country_code": "MD",
    "state_id": 4386,
    "state_code": "UN",
    "city_id": null,
    "locality_name": "Corneşti Sat",
    "type": "full",
    "latitude": "47.35611000",
    "longitude": "28.00833000",
    "source": "posta-moldovei-via-vasilcovsky",
    "wikiDataId": null,
    "created_at": "2026-04-28T06:49:07",
    "updated_at": "2026-04-28T06:49:07",
    "flag": 1
  },
  {
    "id": 284157,
    "code": "MD-3622",
    "country_id": 144,
    "country_code": "MD",
    "state_id": 4386,
    "state_code": "UN",
    "city_id": null,
    "locality_name": "Corn ova",
    "type": "full",
    "latitude": "47.39470000",
    "longitude": "28.17170000",
    "source": "posta-moldovei-via-vasilcovsky",
    "wikiDataId": null,
    "created_at": "2026-04-28T06:49:07",
    "updated_at": "2026-04-28T06:49:07",
    "flag": 1
  },
  {
    "id": 284158,
    "code": "MD-3623",
    "country_id": 144,
    "country_code": "MD",
    "state_id": 4386,
    "state_code": "UN",
    "city_id": null,
    "locality_name": "Costuleni",
    "type": "full",
    "latitude": "47.07810000",
    "longitude": "27.91190000",
    "source": "posta-moldovei-via-vasilcovsky",
    "wikiDataId": null,
    "created_at": "2026-04-28T06:49:07",
    "updated_at": "2026-04-28T06:49:07",
    "flag": 1
  },
  {
    "id": 284159,
    "code": "MD-3624",
    "country_id": 144,
    "country_code": "MD",
    "state_id": 4386,
    "state_code": "UN",
    "city_id": null,
    "locality_name": "Coşeni",
    "type": "full",
    "latitude": "47.44060000",
    "longitude": "27.92610000",
    "source": "posta-moldovei-via-vasilcovsky",
    "wikiDataId": null,
    "created_at": "2026-04-28T06:49:07",
    "updated_at": "2026-04-28T06:49:07",
    "flag": 1
  },
  {
    "id": 284160,
    "code": "MD-3625",
    "country_id": 144,
    "country_code": "MD",
    "state_id": 4386,
    "state_code": "UN",
    "city_id": null,
    "locality_name": "Drujba",
    "type": "full",
    "latitude": "47.43280000",
    "longitude": "28.07610000",
    "source": "posta-moldovei-via-vasilcovsky",
    "wikiDataId": null,
    "created_at": "2026-04-28T06:49:07",
    "updated_at": "2026-04-28T06:49:07",
    "flag": 1
  },
  {
    "id": 284161,
    "code": "MD-3626",
    "country_id": 144,
    "country_code": "MD",
    "state_id": 4386,
    "state_code": "UN",
    "city_id": null,
    "locality_name": "Floriţoaia Nouă",
    "type": "full",
    "latitude": "47.16720000",
    "longitude": "27.92530000",
    "source": "posta-moldovei-via-vasilcovsky",
    "wikiDataId": null,
    "created_at": "2026-04-28T06:49:07",
    "updated_at": "2026-04-28T06:49:07",
    "flag": 1
  },
  {
    "id": 284162,
    "code": "MD-3626",
    "country_id": 144,
    "country_code": "MD",
    "state_id": 4386,
    "state_code": "UN",
    "city_id": null,
    "locality_name": "Floriţoaia Veche",
    "type": "full",
    "latitude": "47.20640000",
    "longitude": "27.90780000",
    "source": "posta-moldovei-via-vasilcovsky",
    "wikiDataId": null,
    "created_at": "2026-04-28T06:49:07",
    "updated_at": "2026-04-28T06:49:07",
    "flag": 1
  },
  {
    "id": 284163,
    "code": "MD-3626",
    "country_id": 144,
    "country_code": "MD",
    "state_id": 4386,
    "state_code": "UN",
    "city_id": null,
    "locality_name": "Grozasca",
    "type": "full",
    "latitude": "47.18110000",
    "longitude": "27.89440000",
    "source": "posta-moldovei-via-vasilcovsky",
    "wikiDataId": null,
    "created_at": "2026-04-28T06:49:07",
    "updated_at": "2026-04-28T06:49:07",
    "flag": 1
  },
  {
    "id": 284164,
    "code": "MD-3627",
    "country_id": 144,
    "country_code": "MD",
    "state_id": 4386,
    "state_code": "UN",
    "city_id": null,
    "locality_name": "Buciumeni",
    "type": "full",
    "latitude": "47.37060000",
    "longitude": "27.71360000",
    "source": "posta-moldovei-via-vasilcovsky",
    "wikiDataId": null,
    "created_at": "2026-04-28T06:49:07",
    "updated_at": "2026-04-28T06:49:07",
    "flag": 1
  },
  {
    "id": 284165,
    "code": "MD-3627",
    "country_id": 144,
    "country_code": "MD",
    "state_id": 4386,
    "state_code": "UN",
    "city_id": null,
    "locality_name": "Floreşti",
    "type": "full",
    "latitude": "47.37060000",
    "longitude": "27.71360000",
    "source": "posta-moldovei-via-vasilcovsky",
    "wikiDataId": null,
    "created_at": "2026-04-28T06:49:07",
    "updated_at": "2026-04-28T06:49:07",
    "flag": 1
  },
  {
    "id": 284166,
    "code": "MD-3628",
    "country_id": 144,
    "country_code": "MD",
    "state_id": 4386,
    "state_code": "UN",
    "city_id": null,
    "locality_name": "Frăsineşti",
    "type": "full",
    "latitude": "47.03440000",
    "longitude": "28.01280000",
    "source": "posta-moldovei-via-vasilcovsky",
    "wikiDataId": null,
    "created_at": "2026-04-28T06:49:07",
    "updated_at": "2026-04-28T06:49:07",
    "flag": 1
  },
  {
    "id": 284167,
    "code": "MD-3629",
    "country_id": 144,
    "country_code": "MD",
    "state_id": 4386,
    "state_code": "UN",
    "city_id": null,
    "locality_name": "Gherman",
    "type": "full",
    "latitude": "47.35940000",
    "longitude": "27.60250000",
    "source": "posta-moldovei-via-vasilcovsky",
    "wikiDataId": null,
    "created_at": "2026-04-28T06:49:07",
    "updated_at": "2026-04-28T06:49:07",
    "flag": 1
  },
  {
    "id": 284168,
    "code": "MD-3630",
    "country_id": 144,
    "country_code": "MD",
    "state_id": 4386,
    "state_code": "UN",
    "city_id": null,
    "locality_name": "Grăseni",
    "type": "full",
    "latitude": "47.35030000",
    "longitude": "27.83530000",
    "source": "posta-moldovei-via-vasilcovsky",
    "wikiDataId": null,
    "created_at": "2026-04-28T06:49:07",
    "updated_at": "2026-04-28T06:49:07",
    "flag": 1
  },
  {
    "id": 284169,
    "code": "MD-3631",
    "country_id": 144,
    "country_code": "MD",
    "state_id": 4386,
    "state_code": "UN",
    "city_id": null,
    "locality_name": "Hîrceşti",
    "type": "full",
    "latitude": "47.39530000",
    "longitude": "28.08640000",
    "source": "posta-moldovei-via-vasilcovsky",
    "wikiDataId": null,
    "created_at": "2026-04-28T06:49:07",
    "updated_at": "2026-04-28T06:49:07",
    "flag": 1
  },
  {
    "id": 284170,
    "code": "MD-3641",
    "country_id": 144,
    "country_code": "MD",
    "state_id": 4386,
    "state_code": "UN",
    "city_id": null,
    "locality_name": "Hristoforovca",
    "type": "full",
    "latitude": "47.35470000",
    "longitude": "27.91830000",
    "source": "posta-moldovei-via-vasilcovsky",
    "wikiDataId": null,
    "created_at": "2026-04-28T06:49:07",
    "updated_at": "2026-04-28T06:49:07",
    "flag": 1
  },
  {
    "id": 284171,
    "code": "MD-3644",
    "country_id": 144,
    "country_code": "MD",
    "state_id": 4386,
    "state_code": "UN",
    "city_id": null,
    "locality_name": "Blindeşti",
    "type": "full",
    "latitude": "47.31310000",
    "longitude": "27.66920000",
    "source": "posta-moldovei-via-vasilcovsky",
    "wikiDataId": null,
    "created_at": "2026-04-28T06:49:07",
    "updated_at": "2026-04-28T06:49:07",
    "flag": 1
  },
  {
    "id": 284172,
    "code": "MD-3644",
    "country_id": 144,
    "country_code": "MD",
    "state_id": 4386,
    "state_code": "UN",
    "city_id": null,
    "locality_name": "Floreni",
    "type": "full",
    "latitude": "47.34640000",
    "longitude": "27.66390000",
    "source": "posta-moldovei-via-vasilcovsky",
    "wikiDataId": null,
    "created_at": "2026-04-28T06:49:07",
    "updated_at": "2026-04-28T06:49:07",
    "flag": 1
  },
  {
    "id": 284173,
    "code": "MD-3647",
    "country_id": 144,
    "country_code": "MD",
    "state_id": 4386,
    "state_code": "UN",
    "city_id": null,
    "locality_name": "Bulhac",
    "type": "full",
    "latitude": "47.42810000",
    "longitude": "27.74250000",
    "source": "posta-moldovei-via-vasilcovsky",
    "wikiDataId": null,
    "created_at": "2026-04-28T06:49:07",
    "updated_at": "2026-04-28T06:49:07",
    "flag": 1
  },
  {
    "id": 284174,
    "code": "MD-3650",
    "country_id": 144,
    "country_code": "MD",
    "state_id": 4386,
    "state_code": "UN",
    "city_id": null,
    "locality_name": "Floreni",
    "type": "full",
    "latitude": "47.24360000",
    "longitude": "27.82280000",
    "source": "posta-moldovei-via-vasilcovsky",
    "wikiDataId": null,
    "created_at": "2026-04-28T06:49:07",
    "updated_at": "2026-04-28T06:49:07",
    "flag": 1
  },
  {
    "id": 284175,
    "code": "MD-3651",
    "country_id": 144,
    "country_code": "MD",
    "state_id": 4386,
    "state_code": "UN",
    "city_id": null,
    "locality_name": "Buzduganii de Jos",
    "type": "full",
    "latitude": "47.14360000",
    "longitude": "27.81940000",
    "source": "posta-moldovei-via-vasilcovsky",
    "wikiDataId": null,
    "created_at": "2026-04-28T06:49:07",
    "updated_at": "2026-04-28T06:49:07",
    "flag": 1
  },
  {
    "id": 284176,
    "code": "MD-3651",
    "country_id": 144,
    "country_code": "MD",
    "state_id": 4386,
    "state_code": "UN",
    "city_id": null,
    "locality_name": "Buzduganii de Sus",
    "type": "full",
    "latitude": "47.16080000",
    "longitude": "27.86250000",
    "source": "posta-moldovei-via-vasilcovsky",
    "wikiDataId": null,
    "created_at": "2026-04-28T06:49:07",
    "updated_at": "2026-04-28T06:49:07",
    "flag": 1
  },
  {
    "id": 284177,
    "code": "MD-3701",
    "country_id": 144,
    "country_code": "MD",
    "state_id": 4377,
    "state_code": "ST",
    "city_id": null,
    "locality_name": "Străşeni",
    "type": "full",
    "latitude": "47.14139000",
    "longitude": "28.61028000",
    "source": "posta-moldovei-via-vasilcovsky",
    "wikiDataId": null,
    "created_at": "2026-04-28T06:49:07",
    "updated_at": "2026-04-28T06:49:07",
    "flag": 1
  },
  {
    "id": 284178,
    "code": "MD-3702",
    "country_id": 144,
    "country_code": "MD",
    "state_id": 4377,
    "state_code": "ST",
    "city_id": null,
    "locality_name": "Străşeni",
    "type": "full",
    "latitude": "47.14139000",
    "longitude": "28.61028000",
    "source": "posta-moldovei-via-vasilcovsky",
    "wikiDataId": null,
    "created_at": "2026-04-28T06:49:07",
    "updated_at": "2026-04-28T06:49:07",
    "flag": 1
  },
  {
    "id": 284179,
    "code": "MD-3703",
    "country_id": 144,
    "country_code": "MD",
    "state_id": 4377,
    "state_code": "ST",
    "city_id": null,
    "locality_name": "Făgureni",
    "type": "full",
    "latitude": "47.14530000",
    "longitude": "28.56280000",
    "source": "posta-moldovei-via-vasilcovsky",
    "wikiDataId": null,
    "created_at": "2026-04-28T06:49:07",
    "updated_at": "2026-04-28T06:49:07",
    "flag": 1
  },
  {
    "id": 284180,
    "code": "MD-3711",
    "country_id": 144,
    "country_code": "MD",
    "state_id": 4377,
    "state_code": "ST",
    "city_id": null,
    "locality_name": "Bucovăţ",
    "type": "full",
    "latitude": "47.18860000",
    "longitude": "28.45690000",
    "source": "posta-moldovei-via-vasilcovsky",
    "wikiDataId": null,
    "created_at": "2026-04-28T06:49:07",
    "updated_at": "2026-04-28T06:49:07",
    "flag": 1
  },
  {
    "id": 284181,
    "code": "MD-3712",
    "country_id": 144,
    "country_code": "MD",
    "state_id": 4377,
    "state_code": "ST",
    "city_id": null,
    "locality_name": "Căpriana",
    "type": "full",
    "latitude": "47.11750000",
    "longitude": "28.50440000",
    "source": "posta-moldovei-via-vasilcovsky",
    "wikiDataId": null,
    "created_at": "2026-04-28T06:49:07",
    "updated_at": "2026-04-28T06:49:07",
    "flag": 1
  },
  {
    "id": 284182,
    "code": "MD-3713",
    "country_id": 144,
    "country_code": "MD",
    "state_id": 4377,
    "state_code": "ST",
    "city_id": null,
    "locality_name": "Chirianca",
    "type": "full",
    "latitude": "47.25580000",
    "longitude": "28.53280000",
    "source": "posta-moldovei-via-vasilcovsky",
    "wikiDataId": null,
    "created_at": "2026-04-28T06:49:07",
    "updated_at": "2026-04-28T06:49:07",
    "flag": 1
  },
  {
    "id": 284183,
    "code": "MD-3714",
    "country_id": 144,
    "country_code": "MD",
    "state_id": 4377,
    "state_code": "ST",
    "city_id": null,
    "locality_name": "Codreanca",
    "type": "full",
    "latitude": "47.28670000",
    "longitude": "28.58970000",
    "source": "posta-moldovei-via-vasilcovsky",
    "wikiDataId": null,
    "created_at": "2026-04-28T06:49:07",
    "updated_at": "2026-04-28T06:49:07",
    "flag": 1
  },
  {
    "id": 284184,
    "code": "MD-3714",
    "country_id": 144,
    "country_code": "MD",
    "state_id": 4377,
    "state_code": "ST",
    "city_id": null,
    "locality_name": "Lupa-Recea",
    "type": "full",
    "latitude": "47.31280000",
    "longitude": "28.59250000",
    "source": "posta-moldovei-via-vasilcovsky",
    "wikiDataId": null,
    "created_at": "2026-04-28T06:49:07",
    "updated_at": "2026-04-28T06:49:07",
    "flag": 1
  },
  {
    "id": 284185,
    "code": "MD-3715",
    "country_id": 144,
    "country_code": "MD",
    "state_id": 4377,
    "state_code": "ST",
    "city_id": null,
    "locality_name": "Cojuşna",
    "type": "full",
    "latitude": "47.09280000",
    "longitude": "28.65810000",
    "source": "posta-moldovei-via-vasilcovsky",
    "wikiDataId": null,
    "created_at": "2026-04-28T06:49:07",
    "updated_at": "2026-04-28T06:49:07",
    "flag": 1
  },
  {
    "id": 284186,
    "code": "MD-3716",
    "country_id": 144,
    "country_code": "MD",
    "state_id": 4377,
    "state_code": "ST",
    "city_id": null,
    "locality_name": "Drăguşeni",
    "type": "full",
    "latitude": "47.21420000",
    "longitude": "28.66420000",
    "source": "posta-moldovei-via-vasilcovsky",
    "wikiDataId": null,
    "created_at": "2026-04-28T06:49:07",
    "updated_at": "2026-04-28T06:49:07",
    "flag": 1
  },
  {
    "id": 284187,
    "code": "MD-3717",
    "country_id": 144,
    "country_code": "MD",
    "state_id": 4377,
    "state_code": "ST",
    "city_id": null,
    "locality_name": "Găieşti",
    "type": "full",
    "latitude": "47.22810000",
    "longitude": "28.49810000",
    "source": "posta-moldovei-via-vasilcovsky",
    "wikiDataId": null,
    "created_at": "2026-04-28T06:49:07",
    "updated_at": "2026-04-28T06:49:07",
    "flag": 1
  },
  {
    "id": 284188,
    "code": "MD-3717",
    "country_id": 144,
    "country_code": "MD",
    "state_id": 4377,
    "state_code": "ST",
    "city_id": null,
    "locality_name": "Găieştii Noi",
    "type": "full",
    "latitude": "47.20750000",
    "longitude": "28.49560000",
    "source": "posta-moldovei-via-vasilcovsky",
    "wikiDataId": null,
    "created_at": "2026-04-28T06:49:07",
    "updated_at": "2026-04-28T06:49:07",
    "flag": 1
  },
  {
    "id": 284189,
    "code": "MD-3718",
    "country_id": 144,
    "country_code": "MD",
    "state_id": 4377,
    "state_code": "ST",
    "city_id": null,
    "locality_name": "Ghelăuza",
    "type": "full",
    "latitude": "47.19360000",
    "longitude": "28.59670000",
    "source": "posta-moldovei-via-vasilcovsky",
    "wikiDataId": null,
    "created_at": "2026-04-28T06:49:07",
    "updated_at": "2026-04-28T06:49:07",
    "flag": 1
  },
  {
    "id": 284190,
    "code": "MD-3718",
    "country_id": 144,
    "country_code": "MD",
    "state_id": 4377,
    "state_code": "ST",
    "city_id": null,
    "locality_name": "Saca",
    "type": "full",
    "latitude": "47.19420000",
    "longitude": "28.61080000",
    "source": "posta-moldovei-via-vasilcovsky",
    "wikiDataId": null,
    "created_at": "2026-04-28T06:49:07",
    "updated_at": "2026-04-28T06:49:07",
    "flag": 1
  },
  {
    "id": 284191,
    "code": "MD-3719",
    "country_id": 144,
    "country_code": "MD",
    "state_id": 4377,
    "state_code": "ST",
    "city_id": null,
    "locality_name": "Gornoe",
    "type": "full",
    "latitude": "47.20000000",
    "longitude": "28.60000000",
    "source": "posta-moldovei-via-vasilcovsky",
    "wikiDataId": null,
    "created_at": "2026-04-28T06:49:07",
    "updated_at": "2026-04-28T06:49:07",
    "flag": 1
  },
  {
    "id": 284192,
    "code": "MD-3720",
    "country_id": 144,
    "country_code": "MD",
    "state_id": 4377,
    "state_code": "ST",
    "city_id": null,
    "locality_name": "Grebleşi",
    "type": "full",
    "latitude": "47.23530000",
    "longitude": "28.60690000",
    "source": "posta-moldovei-via-vasilcovsky",
    "wikiDataId": null,
    "created_at": "2026-04-28T06:49:07",
    "updated_at": "2026-04-28T06:49:07",
    "flag": 1
  },
  {
    "id": 284193,
    "code": "MD-3720",
    "country_id": 144,
    "country_code": "MD",
    "state_id": 4377,
    "state_code": "ST",
    "city_id": null,
    "locality_name": "Mărtineşti",
    "type": "full",
    "latitude": "47.23530000",
    "longitude": "28.60690000",
    "source": "posta-moldovei-via-vasilcovsky",
    "wikiDataId": null,
    "created_at": "2026-04-28T06:49:07",
    "updated_at": "2026-04-28T06:49:07",
    "flag": 1
  },
  {
    "id": 284194,
    "code": "MD-3721",
    "country_id": 144,
    "country_code": "MD",
    "state_id": 4377,
    "state_code": "ST",
    "city_id": null,
    "locality_name": "Lozova",
    "type": "full",
    "latitude": "47.13280000",
    "longitude": "28.38580000",
    "source": "posta-moldovei-via-vasilcovsky",
    "wikiDataId": null,
    "created_at": "2026-04-28T06:49:07",
    "updated_at": "2026-04-28T06:49:07",
    "flag": 1
  },