[{"id":96833,"wikiDataId":"Q3726527","type":"CITY","city":"Tuluceşti","name":"Tuluceşti","country":"Romania","countryCode":"RO","region":"Galați County","regionCode":"GL","latitude":45.56667,"longitude":28.03333},{"id":96551,"wikiDataId":"Q1707028","type":"CITY","city":"Tunari","name":"Tunari","country":"Romania","countryCode":"RO","region":"Ilfov County","regionCode":"IF","latitude":44.55,"longitude":26.15},{"id":96146,"type":"CITY","city":"Tunelu-Teliu","name":"Tunelu-Teliu","country":"Romania","countryCode":"RO","region":"Brașov County","regionCode":"BV","latitude":45.7,"longitude":25.85},{"id":96816,"wikiDataId":"Q1089944","type":"CITY","city":"Tupilaţi","name":"Tupilaţi","country":"Romania","countryCode":"RO","region":"Neamț County","regionCode":"NT","latitude":47.06667,"longitude":26.63333},{"id":96665,"wikiDataId":"Q969857","type":"CITY","city":"Tur","name":"Tur","country":"Romania","countryCode":"RO","region":"Satu Mare County","regionCode":"SM","latitude":47.88231,"longitude":23.39045},{"id":96983,"wikiDataId":"Q2606841","type":"CITY","city":"Turburea","name":"Turburea","country":"Romania","countryCode":"RO","region":"Gorj County","regionCode":"GJ","latitude":44.71667,"longitude":23.51667},{"id":96187,"type":"CITY","city":"Turceni","name":"Turceni","country":"Romania","countryCode":"RO","region":"Gorj County","regionCode":"GJ","latitude":44.68333,"longitude":23.36667},{"id":96477,"type":"CITY","city":"Turcești","name":"Turcești","country":"Romania","countryCode":"RO","region":"Vâlcea County","regionCode":"VL","latitude":45.04023,"longitude":23.86574},{"id":96712,"wikiDataId":"Q2717399","type":"CITY","city":"Turcineşti","name":"Turcineşti","country":"Romania","countryCode":"RO","region":"Gorj County","regionCode":"GJ","latitude":45.1,"longitude":23.33333},{"id":96759,"wikiDataId":"Q1041615","type":"CITY","city":"Turcoaia","name":"Turcoaia","country":"Romania","countryCode":"RO","region":"Tulcea County","regionCode":"TL","latitude":45.11667,"longitude":28.18333},
{"id":96600,"wikiDataId":"Q3658195","type":"CITY","city":"Turda","name":"Turda","country":"Romania","countryCode":"RO","region":"Tulcea County","regionCode":"TL","latitude":44.97501,"longitude":28.62402},{"id":96670,"type":"CITY","city":"Turda","name":"Turda","country":"Romania","countryCode":"RO","region":"Cluj County","regionCode":"CJ","latitude":46.56667,"longitude":23.78333},{"id":96405,"wikiDataId":"Q15520545","type":"CITY","city":"Turdaş","name":"Turdaş","country":"Romania","countryCode":"RO","region":"Hunedoara County","regionCode":"HD","latitude":45.85,"longitude":23.11667},{"id":96928,"wikiDataId":"Q1325453","type":"CITY","city":"Tureac","name":"Tureac","country":"Romania","countryCode":"RO","region":"Bistrița-Năsăud County","regionCode":"BN","latitude":47.22967,"longitude":24.80589},{"id":96207,"wikiDataId":"Q1007278","type":"CITY","city":"Tureni","name":"Tureni","country":"Romania","countryCode":"RO","region":"Cluj County","regionCode":"CJ","latitude":46.62934,"longitude":23.7024},{"id":97016,"wikiDataId":"Q1093353","type":"CITY","city":"Turia","name":"Turia","country":"Romania","countryCode":"RO","region":"Covasna County","regionCode":"CV","latitude":46.03333,"longitude":26.05},{"id":97006,"wikiDataId":"Q1325556","type":"CITY","city":"Turluianu","name":"Turluianu","country":"Romania","countryCode":"RO","region":"Bacău County","regionCode":"BC","latitude":46.45298,"longitude":26.64607},{"id":96212,"wikiDataId":"Q831720","type":"CITY","city":"Turnu","name":"Turnu","country":"Romania","countryCode":"RO","region":"Arad County","regionCode":"AR","latitude":46.25764,"longitude":21.12657},{"id":96636,"type":"CITY","city":"Turnu Măgurele","name":"Turnu Măgurele","country":"Romania","countryCode":"RO","region":"Teleorman County","regionCode":"TR","latitude":43.7469,"longitude":24.86846},{"id":96233,"wikiDataId":"Q934617","type":"CITY","city":"Turnu Roşu","name":"Turnu Roşu","country":"Romania","countryCode":"RO","region":"Sibiu County","regionCode":"SB","latitude":45.63333,"longitude":24.3},
{"id":96317,"wikiDataId":"Q1069996","type":"CITY","city":"Turnu Ruieni","name":"Turnu Ruieni","country":"Romania","countryCode":"RO","region":"Caraș-Severin County","regionCode":"CS","latitude":45.3907,"longitude":22.33557},{"id":96573,"wikiDataId":"Q1189075","type":"CITY","city":"Turulung","name":"Turulung","country":"Romania","countryCode":"RO","region":"Satu Mare County","regionCode":"SM","latitude":47.93333,"longitude":23.08333},{"id":96762,"wikiDataId":"Q1190764","type":"CITY","city":"Turţ","name":"Turţ","country":"Romania","countryCode":"RO","region":"Satu Mare County","regionCode":"SM","latitude":47.98333,"longitude":23.21667},{"id":96326,"wikiDataId":"Q906817","type":"CITY","city":"Tuta","name":"Tuta","country":"Romania","countryCode":"RO","region":"Bacău County","regionCode":"BC","latitude":46.25643,"longitude":26.69103},{"id":97013,"wikiDataId":"Q12163040","type":"CITY","city":"Tutana","name":"Tutana","country":"Romania","countryCode":"RO","region":"Arges","regionCode":"AG","latitude":45.04286,"longitude":24.65122},{"id":97034,"wikiDataId":"Q2297470","type":"CITY","city":"Tutova","name":"Tutova","country":"Romania","countryCode":"RO","region":"Vaslui County","regionCode":"VS","latitude":46.11667,"longitude":27.55},{"id":96284,"wikiDataId":"Q1065953","type":"CITY","city":"Tuzla","name":"Tuzla","country":"Romania","countryCode":"RO","region":"Constanța County","regionCode":"CT","latitude":44.0,"longitude":28.63333},{"id":96501,"wikiDataId":"Q743547","type":"CITY","city":"Tuşnad","name":"Tuşnad","country":"Romania","countryCode":"RO","region":"Harghita County","regionCode":"HR","latitude":46.2,"longitude":25.9},{"id":96108,"wikiDataId":"Q1412307","type":"CITY","city":"Tușnadu Nou","name":"Tușnadu Nou","country":"Romania","countryCode":"RO","region":"Harghita County","regionCode":"HR","latitude":46.19364,"longitude":25.88757},{"id":96355,"wikiDataId":"Q12725227","type":"CITY","city":"Tâmboeşti","name":"Tâmboeşti","country":"Romania","countryCode":"RO","region":"Vrancea County","regionCode":"VN","latitude":45.51667,"longitude":27.05},
{"id":97024,"wikiDataId":"Q2465554","type":"CITY","city":"Tâmna","name":"Tâmna","country":"Romania","countryCode":"RO","region":"Mehedinți County","regionCode":"MH","latitude":44.56667,"longitude":23.01667},{"id":96377,"wikiDataId":"Q12161265","type":"CITY","city":"Tânganu","name":"Tânganu","country":"Romania","countryCode":"RO","region":"Ilfov County","regionCode":"IF","latitude":44.40628,"longitude":26.31262},{"id":96981,"wikiDataId":"Q12161273","type":"CITY","city":"Tântava","name":"Tântava","country":"Romania","countryCode":"RO","region":"Giurgiu County","regionCode":"GR","latitude":44.41511,"longitude":25.8245},{"id":96235,"wikiDataId":"Q16898233","type":"CITY","city":"Târgovişte","name":"Târgovişte","country":"Romania","countryCode":"RO","region":"Dâmbovița County","regionCode":"DB","latitude":44.92543,"longitude":25.4567},{"id":99334,"type":"CITY","city":"Târgu Bujor","name":"Târgu Bujor","country":"Romania","countryCode":"RO","region":"Galați County","regionCode":"GL","latitude":45.86667,"longitude":27.9},{"id":96973,"type":"CITY","city":"Târgu Cărbuneşti","name":"Târgu Cărbuneşti","country":"Romania","countryCode":"RO","region":"Gorj County","regionCode":"GJ","latitude":44.95,"longitude":23.51667},{"id":96849,"type":"CITY","city":"Târgu Frumos","name":"Târgu Frumos","country":"Romania","countryCode":"RO","region":"Iași County","regionCode":"IS","latitude":47.2,"longitude":27.0},{"id":97021,"type":"CITY","city":"Târgu Jiu","name":"Târgu Jiu","country":"Romania","countryCode":"RO","region":"Gorj County","regionCode":"GJ","latitude":45.05,"longitude":23.28333},{"id":96770,"wikiDataId":"Q16898396","type":"CITY","city":"Târgu Lăpuş","name":"Târgu Lăpuş","country":"Romania","countryCode":"RO","region":"Maramureș County","regionCode":"MM","latitude":47.45261,"longitude":23.86539},{"id":96338,"type":"CITY","city":"Târgu Neamţ","name":"Târgu Neamţ","country":"Romania","countryCode":"RO","region":"Neamț County","regionCode":"NT","latitude":47.2,"longitude":26.36667},
{"id":96352,"type":"CITY","city":"Târgu Ocna","name":"Târgu Ocna","country":"Romania","countryCode":"RO","region":"Bacău County","regionCode":"BC","latitude":46.27899,"longitude":26.61301},{"id":96406,"type":"CITY","city":"Târgu Secuiesc","name":"Târgu Secuiesc","country":"Romania","countryCode":"RO","region":"Covasna County","regionCode":"CV","latitude":46.0,"longitude":26.13333},{"id":96778,"wikiDataId":"Q15905310","type":"CITY","city":"Târgu Trotuş","name":"Târgu Trotuş","country":"Romania","countryCode":"RO","region":"Bacău County","regionCode":"BC","latitude":46.26667,"longitude":26.66667},{"id":96229,"type":"CITY","city":"Târgu-Mureş","name":"Târgu-Mureş","country":"Romania","countryCode":"RO","region":"Mureș County","regionCode":"MS","latitude":46.54245,"longitude":24.55747},{"id":96781,"wikiDataId":"Q1188294","type":"CITY","city":"Târguşor","name":"Târguşor","country":"Romania","countryCode":"RO","region":"Constanța County","regionCode":"CT","latitude":44.45,"longitude":28.41667},{"id":96418,"wikiDataId":"Q2720363","type":"CITY","city":"Târgşoru Vechi","name":"Târgşoru Vechi","country":"Romania","countryCode":"RO","region":"Prahova County","regionCode":"PH","latitude":44.86667,"longitude":25.91667},{"id":96785,"wikiDataId":"Q999223","type":"CITY","city":"Târlişua","name":"Târlişua","country":"Romania","countryCode":"RO","region":"Bistrița-Năsăud County","regionCode":"BN","latitude":47.38333,"longitude":24.18333},{"id":96192,"wikiDataId":"Q1077559","type":"CITY","city":"Târnava","name":"Târnava","country":"Romania","countryCode":"RO","region":"Sibiu County","regionCode":"SB","latitude":46.13975,"longitude":24.28926},{"id":96866,"wikiDataId":"Q12161336","type":"CITY","city":"Târnava","name":"Târnava","country":"Romania","countryCode":"RO","region":"Teleorman County","regionCode":"TR","latitude":44.1444,"longitude":25.56347},{"id":96178,"wikiDataId":"Q1079692","type":"CITY","city":"Târnova","name":"Târnova","country":"Romania","countryCode":"RO","region":"Arad County","regionCode":"AR","latitude":46.31667,"longitude":21.8},
{"id":97002,"wikiDataId":"Q75498","type":"CITY","city":"Târnova","name":"Târnova","country":"Romania","countryCode":"RO","region":"Caraș-Severin County","regionCode":"CS","latitude":45.3425,"longitude":22.00611},{"id":96631,"type":"CITY","city":"Târnăveni","name":"Târnăveni","country":"Romania","countryCode":"RO","region":"Mureș County","regionCode":"MS","latitude":46.33191,"longitude":24.29662},{"id":96972,"wikiDataId":"Q1079047","type":"CITY","city":"Târşolţ","name":"Târşolţ","country":"Romania","countryCode":"RO","region":"Satu Mare County","regionCode":"SM","latitude":47.95,"longitude":23.35},{"id":96181,"type":"CITY","city":"Târşolţel","name":"Târşolţel","country":"Romania","countryCode":"RO","region":"Satu Mare County","regionCode":"SM","latitude":47.95,"longitude":23.35},{"id":97003,"wikiDataId":"Q12160294","type":"CITY","city":"Tăbărăști","name":"Tăbărăști","country":"Romania","countryCode":"RO","region":"Buzău County","regionCode":"BZ","latitude":45.07948,"longitude":26.91943},{"id":96921,"wikiDataId":"Q2549068","type":"CITY","city":"Tăcuta","name":"Tăcuta","country":"Romania","countryCode":"RO","region":"Vaslui County","regionCode":"VS","latitude":46.91667,"longitude":27.68333},{"id":96289,"type":"CITY","city":"Tălmaciu","name":"Tălmaciu","country":"Romania","countryCode":"RO","region":"Sibiu County","regionCode":"SB","latitude":45.66714,"longitude":24.26464},{"id":96491,"wikiDataId":"Q3893977","type":"CITY","city":"Tălmăcel","name":"Tălmăcel","country":"Romania","countryCode":"RO","region":"Sibiu County","regionCode":"SB","latitude":45.64712,"longitude":24.2427},{"id":96327,"wikiDataId":"Q2543203","type":"CITY","city":"Tălpaș","name":"Tălpaș","country":"Romania","countryCode":"RO","region":"Dolj County","regionCode":"DJ","latitude":44.68227,"longitude":23.74553},{"id":96594,"wikiDataId":"Q12160418","type":"CITY","city":"Tălpigi","name":"Tălpigi","country":"Romania","countryCode":"RO","region":"Galați County","regionCode":"GL","latitude":46.00796,"longitude":27.47247},
{"id":96679,"wikiDataId":"Q730033","type":"CITY","city":"Tămașda","name":"Tămașda","country":"Romania","countryCode":"RO","region":"Bihor County","regionCode":"BH","latitude":46.64453,"longitude":21.55685},{"id":96793,"wikiDataId":"Q2716789","type":"CITY","city":"Tămădău Mare","name":"Tămădău Mare","country":"Romania","countryCode":"RO","region":"Călărași County","regionCode":"CL","latitude":44.46667,"longitude":26.55},{"id":96713,"wikiDataId":"Q1195088","type":"CITY","city":"Tămăşeni","name":"Tămăşeni","country":"Romania","countryCode":"RO","region":"Neamț County","regionCode":"NT","latitude":46.98333,"longitude":26.93333},{"id":96814,"wikiDataId":"Q1022806","type":"CITY","city":"Tămășeu","name":"Tămășeu","country":"Romania","countryCode":"RO","region":"Bihor County","regionCode":"BH","latitude":47.22116,"longitude":21.9276},{"id":96627,"wikiDataId":"Q12725228","type":"CITY","city":"Tănăsoaia","name":"Tănăsoaia","country":"Romania","countryCode":"RO","region":"Vrancea County","regionCode":"VN","latitude":46.1,"longitude":27.36667},{"id":96286,"wikiDataId":"Q1088264","type":"CITY","city":"Tărcaia","name":"Tărcaia","country":"Romania","countryCode":"RO","region":"Bihor County","regionCode":"BH","latitude":46.63333,"longitude":22.36667},{"id":96407,"wikiDataId":"Q12160938","type":"CITY","city":"Tăriceni","name":"Tăriceni","country":"Romania","countryCode":"RO","region":"Prahova County","regionCode":"PH","latitude":44.79624,"longitude":25.96958},{"id":96205,"wikiDataId":"Q15279391","type":"CITY","city":"Tărlungeni","name":"Tărlungeni","country":"Romania","countryCode":"RO","region":"Brașov County","regionCode":"BV","latitude":45.63333,"longitude":25.75},{"id":96955,"wikiDataId":"Q12160928","type":"CITY","city":"Tărtăşeşti","name":"Tărtăşeşti","country":"Romania","countryCode":"RO","region":"Dâmbovița County","regionCode":"DB","latitude":44.57722,"longitude":25.81278},{"id":96117,"wikiDataId":"Q6455505","type":"CITY","city":"Tătaru","name":"Tătaru","country":"Romania","countryCode":"RO","region":"Prahova County","regionCode":"PH","latitude":45.1,"longitude":26.33333},
{"id":96264,"wikiDataId":"Q12160965","type":"CITY","city":"Tătaru","name":"Tătaru","country":"Romania","countryCode":"RO","region":"Braila","regionCode":"BR","latitude":44.84482,"longitude":27.43376},{"id":96900,"wikiDataId":"Q2719298","type":"CITY","city":"Tătuleşti","name":"Tătuleşti","country":"Romania","countryCode":"RO","region":"Olt County","regionCode":"OT","latitude":44.63333,"longitude":24.63333},{"id":96204,"wikiDataId":"Q12160972","type":"CITY","city":"Tătărani","name":"Tătărani","country":"Romania","countryCode":"RO","region":"Dâmbovița County","regionCode":"DB","latitude":45.0,"longitude":25.26667},{"id":96523,"wikiDataId":"Q12160973","type":"CITY","city":"Tătărani","name":"Tătărani","country":"Romania","countryCode":"RO","region":"Prahova County","regionCode":"PH","latitude":44.89763,"longitude":26.03509},{"id":96313,"wikiDataId":"Q5070122","type":"CITY","city":"Tătăranu","name":"Tătăranu","country":"Romania","countryCode":"RO","region":"Vrancea County","regionCode":"VN","latitude":45.51667,"longitude":27.31667},{"id":96478,"wikiDataId":"Q2673463","type":"CITY","city":"Tătăruşi","name":"Tătăruşi","country":"Romania","countryCode":"RO","region":"Iași County","regionCode":"IS","latitude":47.35,"longitude":26.6},{"id":96988,"wikiDataId":"Q2298061","type":"CITY","city":"Tătărăni","name":"Tătărăni","country":"Romania","countryCode":"RO","region":"Vaslui County","regionCode":"VS","latitude":46.69422,"longitude":27.96443},{"id":97084,"wikiDataId":"Q15905191","type":"CITY","city":"Tătărăști","name":"Tătărăști","country":"Romania","countryCode":"RO","region":"Bacău County","regionCode":"BC","latitude":46.21667,"longitude":27.2},{"id":96661,"wikiDataId":"Q938018","type":"CITY","city":"Tătărăștii de Jos","name":"Tătărăștii de Jos","country":"Romania","countryCode":"RO","region":"Teleorman County","regionCode":"TR","latitude":44.37501,"longitude":25.17721},{"id":96549,"wikiDataId":"Q2723935","type":"CITY","city":"Tătărăștii de Sus","name":"Tătărăștii de Sus","country":"Romania","countryCode":"RO","region":"Teleorman County","regionCode":"TR","latitude":44.40768,"longitude":25.12192},
{"id":96151,"wikiDataId":"Q15931292","type":"CITY","city":"Tăureni","name":"Tăureni","country":"Romania","countryCode":"RO","region":"Harghita County","regionCode":"HR","latitude":46.26667,"longitude":25.25},{"id":96880,"wikiDataId":"Q548455","type":"CITY","city":"Tăut","name":"Tăut","country":"Romania","countryCode":"RO","region":"Bihor County","regionCode":"BH","latitude":46.7199,"longitude":21.83845},{"id":96628,"wikiDataId":"Q1088231","type":"CITY","city":"Tăuteu","name":"Tăuteu","country":"Romania","countryCode":"RO","region":"Bihor County","regionCode":"BH","latitude":47.26667,"longitude":22.33333},{"id":96649,"type":"CITY","city":"Tăuții de Sus","name":"Tăuții de Sus","country":"Romania","countryCode":"RO","region":"Maramureș County","regionCode":"MM","latitude":47.65665,"longitude":23.65841},{"id":96384,"type":"CITY","city":"Tăuții-Măgherăuș","name":"Tăuții-Măgherăuș","country":"Romania","countryCode":"RO","region":"Maramureș County","regionCode":"MM","latitude":47.65,"longitude":23.48333},{"id":96236,"type":"CITY","city":"Tăşnad","name":"Tăşnad","country":"Romania","countryCode":"RO","region":"Satu Mare County","regionCode":"SM","latitude":47.48333,"longitude":22.58333},{"id":97042,"wikiDataId":"Q539144","type":"CITY","city":"Tășad","name":"Tășad","country":"Romania","countryCode":"RO","region":"Bihor County","regionCode":"BH","latitude":46.93773,"longitude":22.12516},{"id":97085,"wikiDataId":"Q679787","type":"CITY","city":"Ucea de Jos","name":"Ucea de Jos","country":"Romania","countryCode":"RO","region":"Brașov County","regionCode":"BV","latitude":45.7841,"longitude":24.67097},{"id":96258,"wikiDataId":"Q3889990","type":"CITY","city":"Ucea de Sus","name":"Ucea de Sus","country":"Romania","countryCode":"RO","region":"Brașov County","regionCode":"BV","latitude":45.75,"longitude":24.68333},{"id":96275,"wikiDataId":"Q12163457","type":"CITY","city":"Uda","name":"Uda","country":"Romania","countryCode":"RO","region":"Iași County","regionCode":"IS","latitude":47.33645,"longitude":26.57165},
{"id":96596,"wikiDataId":"Q2534597","type":"CITY","city":"Uda","name":"Uda","country":"Romania","countryCode":"RO","region":"Arges","regionCode":"AG","latitude":44.91667,"longitude":24.56667},{"id":96640,"wikiDataId":"Q2549918","type":"CITY","city":"Uda-Clocociov","name":"Uda-Clocociov","country":"Romania","countryCode":"RO","region":"Teleorman County","regionCode":"TR","latitude":43.88791,"longitude":24.71437},{"id":96497,"wikiDataId":"Q12163452","type":"CITY","city":"Uda-Paciurea","name":"Uda-Paciurea","country":"Romania","countryCode":"RO","region":"Teleorman County","regionCode":"TR","latitude":43.87979,"longitude":24.72379},{"id":96768,"wikiDataId":"Q2606120","type":"CITY","city":"Udeşti","name":"Udeşti","country":"Romania","countryCode":"RO","region":"Suceava County","regionCode":"SV","latitude":47.56667,"longitude":26.41667},{"id":96667,"wikiDataId":"Q12163521","type":"CITY","city":"Udupu","name":"Udupu","country":"Romania","countryCode":"RO","region":"Teleorman County","regionCode":"TR","latitude":44.39657,"longitude":25.14488},{"id":100216,"wikiDataId":"Q611213","type":"CITY","city":"Uileacu de Beiuș","name":"Uileacu de Beiuș","country":"Romania","countryCode":"RO","region":"Bihor County","regionCode":"BH","latitude":46.68532,"longitude":22.22148},{"id":96957,"wikiDataId":"Q738105","type":"CITY","city":"Uioara de Jos","name":"Uioara de Jos","country":"Romania","countryCode":"RO","region":"Alba","regionCode":"AB","latitude":46.37087,"longitude":23.83863},{"id":96802,"wikiDataId":"Q932472","type":"CITY","city":"Uivar","name":"Uivar","country":"Romania","countryCode":"RO","region":"Timiș County","regionCode":"TM","latitude":45.65806,"longitude":20.90583},{"id":97091,"wikiDataId":"Q12164508","type":"CITY","city":"Ulieşti","name":"Ulieşti","country":"Romania","countryCode":"RO","region":"Dâmbovița County","regionCode":"DB","latitude":44.58333,"longitude":25.41667},{"id":97059,"wikiDataId":"Q1065999","type":"CITY","city":"Ulma","name":"Ulma","country":"Romania","countryCode":"RO","region":"Suceava County","regionCode":"SV","latitude":47.88333,"longitude":25.3},
{"id":95270,"wikiDataId":"Q12164445","type":"CITY","city":"Ulmeni","name":"Ulmeni","country":"Romania","countryCode":"RO","region":"Buzău County","regionCode":"BZ","latitude":45.06667,"longitude":26.65},{"id":95422,"type":"CITY","city":"Ulmeni","name":"Ulmeni","country":"Romania","countryCode":"RO","region":"Maramureș County","regionCode":"MM","latitude":47.46667,"longitude":23.3},{"id":95986,"wikiDataId":"Q2716801","type":"CITY","city":"Ulmeni","name":"Ulmeni","country":"Romania","countryCode":"RO","region":"Călărași County","regionCode":"CL","latitude":44.15,"longitude":26.71667},{"id":95406,"wikiDataId":"Q2717452","type":"CITY","city":"Ulmi","name":"Ulmi","country":"Romania","countryCode":"RO","region":"Giurgiu County","regionCode":"GR","latitude":44.48667,"longitude":25.78028},{"id":95527,"wikiDataId":"Q12164462","type":"CITY","city":"Ulmi","name":"Ulmi","country":"Romania","countryCode":"RO","region":"Dâmbovița County","regionCode":"DB","latitude":44.9,"longitude":25.5},{"id":95269,"wikiDataId":"Q12164457","type":"CITY","city":"Ulmu","name":"Ulmu","country":"Romania","countryCode":"RO","region":"Braila","regionCode":"BR","latitude":44.95,"longitude":27.31667},{"id":95571,"wikiDataId":"Q12164459","type":"CITY","city":"Ulmu","name":"Ulmu","country":"Romania","countryCode":"RO","region":"Călărași County","regionCode":"CL","latitude":44.26667,"longitude":26.91667},{"id":95549,"wikiDataId":"Q1065940","type":"CITY","city":"Umbrăreşti","name":"Umbrăreşti","country":"Romania","countryCode":"RO","region":"Galați County","regionCode":"GL","latitude":45.71667,"longitude":27.46667},{"id":95661,"wikiDataId":"Q12164552","type":"CITY","city":"Umbrărești","name":"Umbrărești","country":"Romania","countryCode":"RO","region":"Galați County","regionCode":"GL","latitude":45.84835,"longitude":27.91845},{"id":95729,"wikiDataId":"Q12164551","type":"CITY","city":"Umbrărești-Deal","name":"Umbrărești-Deal","country":"Romania","countryCode":"RO","region":"Galați County","regionCode":"GL","latitude":45.7,"longitude":27.46667},
{"id":95714,"wikiDataId":"Q16898438","type":"CITY","city":"Ungheni","name":"Ungheni","country":"Romania","countryCode":"RO","region":"Mureș County","regionCode":"MS","latitude":46.48333,"longitude":24.46667},{"id":96094,"wikiDataId":"Q2486540","type":"CITY","city":"Ungheni","name":"Ungheni","country":"Romania","countryCode":"RO","region":"Arges","regionCode":"AG","latitude":44.5,"longitude":24.96667},{"id":95806,"wikiDataId":"Q15281735","type":"CITY","city":"Ungra","name":"Ungra","country":"Romania","countryCode":"RO","region":"Brașov County","regionCode":"BV","latitude":45.98333,"longitude":25.26667},{"id":95651,"wikiDataId":"Q368122","type":"CITY","city":"Unguraş","name":"Unguraş","country":"Romania","countryCode":"RO","region":"Cluj County","regionCode":"CJ","latitude":47.11667,"longitude":24.05},{"id":95576,"wikiDataId":"Q12164593","type":"CITY","city":"Ungureni","name":"Ungureni","country":"Romania","countryCode":"RO","region":"Dâmbovița County","regionCode":"DB","latitude":44.57804,"longitude":25.50006},{"id":95664,"wikiDataId":"Q12164588","type":"CITY","city":"Ungureni","name":"Ungureni","country":"Romania","countryCode":"RO","region":"Galați County","regionCode":"GL","latitude":45.91307,"longitude":27.47},{"id":95779,"wikiDataId":"Q754611","type":"CITY","city":"Ungureni","name":"Ungureni","country":"Romania","countryCode":"RO","region":"Maramureș County","regionCode":"MM","latitude":47.54631,"longitude":23.95241},{"id":96023,"wikiDataId":"Q15928593","type":"CITY","city":"Ungureni","name":"Ungureni","country":"Romania","countryCode":"RO","region":"Bacău County","regionCode":"BC","latitude":46.52283,"longitude":27.11186},{"id":100596,"wikiDataId":"Q1087469","type":"CITY","city":"Ungureni","name":"Ungureni","country":"Romania","countryCode":"RO","region":"Botoșani County","regionCode":"BT","latitude":47.88176,"longitude":26.79899},{"id":95954,"type":"CITY","city":"Ungureni-Jianu","name":"Ungureni-Jianu","country":"Romania","countryCode":"RO","region":"Botoșani County","regionCode":"BT","latitude":47.88333,"longitude":26.78333},
{"id":95389,"wikiDataId":"Q12164603","type":"CITY","city":"Unguriu","name":"Unguriu","country":"Romania","countryCode":"RO","region":"Buzău County","regionCode":"BZ","latitude":45.27933,"longitude":26.63208},{"id":95155,"wikiDataId":"Q12164657","type":"CITY","city":"Unirea","name":"Unirea","country":"Romania","countryCode":"RO","region":"Vrancea County","regionCode":"VN","latitude":45.7402,"longitude":27.10741},{"id":95226,"wikiDataId":"Q12164656","type":"CITY","city":"Unirea","name":"Unirea","country":"Romania","countryCode":"RO","region":"Călărași County","regionCode":"CL","latitude":44.26667,"longitude":27.63333},{"id":95454,"wikiDataId":"Q620165","type":"CITY","city":"Unirea","name":"Unirea","country":"Romania","countryCode":"RO","region":"Bistrița-Năsăud County","regionCode":"BN","latitude":47.1606,"longitude":24.53078},{"id":95457,"wikiDataId":"Q1024232","type":"CITY","city":"Unirea","name":"Unirea","country":"Romania","countryCode":"RO","region":"Alba","regionCode":"AB","latitude":46.40387,"longitude":23.81314},{"id":95722,"wikiDataId":"Q2716458","type":"CITY","city":"Unirea","name":"Unirea","country":"Romania","countryCode":"RO","region":"Braila","regionCode":"BR","latitude":45.11667,"longitude":27.81667},{"id":96001,"wikiDataId":"Q1945757","type":"CITY","city":"Unirea","name":"Unirea","country":"Romania","countryCode":"RO","region":"Dolj County","regionCode":"DJ","latitude":44.15,"longitude":23.18333},{"id":95263,"wikiDataId":"Q2716340","type":"CITY","city":"Unţeni","name":"Unţeni","country":"Romania","countryCode":"RO","region":"Botoșani County","regionCode":"BT","latitude":47.8,"longitude":26.78333},{"id":95391,"wikiDataId":"Q755666","type":"CITY","city":"Urca","name":"Urca","country":"Romania","countryCode":"RO","region":"Cluj County","regionCode":"CJ","latitude":46.54885,"longitude":23.96187},{"id":95801,"wikiDataId":"Q2717917","type":"CITY","city":"Urdari","name":"Urdari","country":"Romania","countryCode":"RO","region":"Gorj County","regionCode":"GJ","latitude":44.8,"longitude":23.3},
{"id":95321,"wikiDataId":"Q2605237","type":"CITY","city":"Urecheni","name":"Urecheni","country":"Romania","countryCode":"RO","region":"Neamț County","regionCode":"NT","latitude":47.16667,"longitude":26.51667},{"id":95800,"wikiDataId":"Q1403943","type":"CITY","city":"Urecheşti","name":"Urecheşti","country":"Romania","countryCode":"RO","region":"Vrancea County","regionCode":"VN","latitude":45.6,"longitude":27.06667},{"id":96075,"wikiDataId":"Q15928882","type":"CITY","city":"Urecheşti","name":"Urecheşti","country":"Romania","countryCode":"RO","region":"Bacău County","regionCode":"BC","latitude":46.13333,"longitude":27.08333},{"id":95727,"type":"CITY","city":"Uricani","name":"Uricani","country":"Romania","countryCode":"RO","region":"Hunedoara County","regionCode":"HD","latitude":45.33731,"longitude":23.1524},{"id":95955,"wikiDataId":"Q999729","type":"CITY","city":"Uriu","name":"Uriu","country":"Romania","countryCode":"RO","region":"Bistrița-Năsăud County","regionCode":"BN","latitude":47.2,"longitude":24.05},{"id":96045,"type":"CITY","city":"Urlaţi","name":"Urlaţi","country":"Romania","countryCode":"RO","region":"Prahova County","regionCode":"PH","latitude":44.98333,"longitude":26.23333},{"id":95888,"wikiDataId":"Q12164760","type":"CITY","city":"Urleasca","name":"Urleasca","country":"Romania","countryCode":"RO","region":"Braila","regionCode":"BR","latitude":45.13697,"longitude":27.64736},{"id":95589,"wikiDataId":"Q12164753","type":"CITY","city":"Urleta","name":"Urleta","country":"Romania","countryCode":"RO","region":"Prahova County","regionCode":"PH","latitude":45.08732,"longitude":25.79354},{"id":95883,"wikiDataId":"Q1093127","type":"CITY","city":"Urmeniş","name":"Urmeniş","country":"Romania","countryCode":"RO","region":"Bistrița-Năsăud County","regionCode":"BN","latitude":46.76667,"longitude":24.36667},{"id":95257,"wikiDataId":"Q4302748","type":"CITY","city":"Ursa","name":"Ursa","country":"Romania","countryCode":"RO","region":"Olt County","regionCode":"OT","latitude":43.78783,"longitude":24.63787},
{"id":95600,"wikiDataId":"Q827813","type":"CITY","city":"Urseni","name":"Urseni","country":"Romania","countryCode":"RO","region":"Timiș County","regionCode":"TM","latitude":45.69269,"longitude":21.30993},{"id":101088,"wikiDataId":"Q2719825","type":"CITY","city":"Urzica","name":"Urzica","country":"Romania","countryCode":"RO","region":"Olt County","regionCode":"OT","latitude":43.8567,"longitude":24.28952},{"id":95370,"wikiDataId":"Q12164747","type":"CITY","city":"Urziceanca","name":"Urziceanca","country":"Romania","countryCode":"RO","region":"Dâmbovița County","regionCode":"DB","latitude":44.63052,"longitude":25.8424},{"id":95408,"wikiDataId":"Q870624","type":"CITY","city":"Urziceni","name":"Urziceni","country":"Romania","countryCode":"RO","region":"Satu Mare County","regionCode":"SM","latitude":47.73333,"longitude":22.4},{"id":96090,"type":"CITY","city":"Urziceni","name":"Urziceni","country":"Romania","countryCode":"RO","region":"Ialomița County","regionCode":"IL","latitude":44.71667,"longitude":26.63333},{"id":95368,"wikiDataId":"Q12164745","type":"CITY","city":"Urzicuţa","name":"Urzicuţa","country":"Romania","countryCode":"RO","region":"Dolj County","regionCode":"DJ","latitude":44.01667,"longitude":23.55},{"id":95578,"wikiDataId":"Q12164838","type":"CITY","city":"Urși","name":"Urși","country":"Romania","countryCode":"RO","region":"Vâlcea County","regionCode":"VL","latitude":44.99404,"longitude":24.08895},{"id":95659,"wikiDataId":"Q1078055","type":"CITY","city":"Ususău","name":"Ususău","country":"Romania","countryCode":"RO","region":"Arad County","regionCode":"AR","latitude":46.07063,"longitude":21.81371},{"id":95162,"wikiDataId":"Q28338","type":"CITY","city":"Utvin","name":"Utvin","country":"Romania","countryCode":"RO","region":"Timiș County","regionCode":"TM","latitude":45.71298,"longitude":21.13011},{"id":96061,"wikiDataId":"Q12163575","type":"CITY","city":"Uzunu","name":"Uzunu","country":"Romania","countryCode":"RO","region":"Giurgiu County","regionCode":"GR","latitude":44.14716,"longitude":25.96719},
{"id":95229,"wikiDataId":"Q737750","type":"CITY","city":"Vad","name":"Vad","country":"Romania","countryCode":"RO","region":"Cluj County","regionCode":"CJ","latitude":47.2,"longitude":23.75},{"id":95770,"wikiDataId":"Q1093254","type":"CITY","city":"Vadu Crişului","name":"Vadu Crişului","country":"Romania","countryCode":"RO","region":"Bihor County","regionCode":"BH","latitude":46.98333,"longitude":22.51667},{"id":95245,"wikiDataId":"Q996521","type":"CITY","city":"Vadu Izei","name":"Vadu Izei","country":"Romania","countryCode":"RO","region":"Maramureș County","regionCode":"MM","latitude":47.88821,"longitude":23.93209},{"id":95956,"wikiDataId":"Q649272","type":"CITY","city":"Vadu Moldovei","name":"Vadu Moldovei","country":"Romania","countryCode":"RO","region":"Suceava County","regionCode":"SV","latitude":47.38333,"longitude":26.36667},{"id":95952,"wikiDataId":"Q250889","type":"CITY","city":"Vadu Moţilor","name":"Vadu Moţilor","country":"Romania","countryCode":"RO","region":"Alba","regionCode":"AB","latitude":46.4,"longitude":22.96667},{"id":95128,"wikiDataId":"Q12087217","type":"CITY","city":"Vadu Paşii","name":"Vadu Paşii","country":"Romania","countryCode":"RO","region":"Buzău County","regionCode":"BZ","latitude":45.16667,"longitude":26.9},{"id":95573,"wikiDataId":"Q12087216","type":"CITY","city":"Vadu Părului","name":"Vadu Părului","country":"Romania","countryCode":"RO","region":"Prahova County","regionCode":"PH","latitude":44.93132,"longitude":26.2094},{"id":95771,"wikiDataId":"Q12087218","type":"CITY","city":"Vadu Roșca","name":"Vadu Roșca","country":"Romania","countryCode":"RO","region":"Vrancea County","regionCode":"VN","latitude":45.63864,"longitude":27.45716},{"id":95541,"wikiDataId":"Q12087219","type":"CITY","city":"Vadu Sorești","name":"Vadu Sorești","country":"Romania","countryCode":"RO","region":"Buzău County","regionCode":"BZ","latitude":45.315,"longitude":26.87748},{"id":95963,"wikiDataId":"Q6465501","type":"CITY","city":"Vadu Săpat","name":"Vadu Săpat","country":"Romania","countryCode":"RO","region":"Prahova County","regionCode":"PH","latitude":45.03973,"longitude":26.387},
{"id":95735,"wikiDataId":"Q722493","type":"CITY","city":"Vaida-Cămăraș","name":"Vaida-Cămăraș","country":"Romania","countryCode":"RO","region":"Cluj County","regionCode":"CJ","latitude":46.82823,"longitude":23.94724},{"id":95599,"wikiDataId":"Q1833002","type":"CITY","city":"Vaideeni","name":"Vaideeni","country":"Romania","countryCode":"RO","region":"Vâlcea County","regionCode":"VL","latitude":45.16667,"longitude":23.93333},{"id":95568,"wikiDataId":"Q1093240","type":"CITY","city":"Valcău de Jos","name":"Valcău de Jos","country":"Romania","countryCode":"RO","region":"Sălaj County","regionCode":"SJ","latitude":47.11667,"longitude":22.73333},{"id":95947,"type":"CITY","city":"Vale","name":"Vale","country":"Romania","countryCode":"RO","region":"Harghita County","regionCode":"HR","latitude":46.9491,"longitude":25.37869},{"id":95490,"wikiDataId":"Q12087402","type":"CITY","city":"Valea Argovei","name":"Valea Argovei","country":"Romania","countryCode":"RO","region":"Călărași County","regionCode":"CL","latitude":44.35,"longitude":26.78333},{"id":95866,"wikiDataId":"Q12087403","type":"CITY","city":"Valea Arini","name":"Valea Arini","country":"Romania","countryCode":"RO","region":"Neamț County","regionCode":"NT","latitude":47.12694,"longitude":26.29377},{"id":96026,"wikiDataId":"Q12087405","type":"CITY","city":"Valea Arinilor","name":"Valea Arinilor","country":"Romania","countryCode":"RO","region":"Bacău County","regionCode":"BC","latitude":46.49793,"longitude":26.50918},{"id":95472,"wikiDataId":"Q633314","type":"CITY","city":"Valea Bolvașnița","name":"Valea Bolvașnița","country":"Romania","countryCode":"RO","region":"Caraș-Severin County","regionCode":"CS","latitude":44.94602,"longitude":22.39019},{"id":95281,"wikiDataId":"Q12087411","type":"CITY","city":"Valea Borcutului","name":"Valea Borcutului","country":"Romania","countryCode":"RO","region":"Bistrița-Năsăud County","regionCode":"BN","latitude":47.37483,"longitude":24.65293},{"id":95130,"type":"CITY","city":"Valea Caselor","name":"Valea Caselor","country":"Romania","countryCode":"RO","region":"Arges","regionCode":"AG","latitude":45.35,"longitude":25.16667},
{"id":95894,"wikiDataId":"Q1126836","type":"CITY","city":"Valea Chioarului","name":"Valea Chioarului","country":"Romania","countryCode":"RO","region":"Maramureș County","regionCode":"MM","latitude":47.43333,"longitude":23.48333},{"id":95250,"wikiDataId":"Q12087661","type":"CITY","city":"Valea Ciorii","name":"Valea Ciorii","country":"Romania","countryCode":"RO","region":"Ialomița County","regionCode":"IL","latitude":44.71667,"longitude":27.56667},{"id":96056,"wikiDataId":"Q12087659","type":"CITY","city":"Valea Cireșului","name":"Valea Cireșului","country":"Romania","countryCode":"RO","region":"Teleorman County","regionCode":"TR","latitude":44.16699,"longitude":25.56437},{"id":95662,"wikiDataId":"Q1096174","type":"CITY","city":"Valea Crişului","name":"Valea Crişului","country":"Romania","countryCode":"RO","region":"Covasna County","regionCode":"CV","latitude":45.91667,"longitude":25.76667},{"id":95862,"wikiDataId":"Q12087472","type":"CITY","city":"Valea Cucului","name":"Valea Cucului","country":"Romania","countryCode":"RO","region":"Prahova County","regionCode":"PH","latitude":45.06525,"longitude":26.22793},{"id":95552,"wikiDataId":"Q12087460","type":"CITY","city":"Valea Cânepii","name":"Valea Cânepii","country":"Romania","countryCode":"RO","region":"Braila","regionCode":"BR","latitude":45.08333,"longitude":27.81667},{"id":95972,"wikiDataId":"Q6465406","type":"CITY","city":"Valea Călugărească","name":"Valea Călugărească","country":"Romania","countryCode":"RO","region":"Prahova County","regionCode":"PH","latitude":44.96667,"longitude":26.15},{"id":95412,"wikiDataId":"Q12087445","type":"CITY","city":"Valea Dacilor","name":"Valea Dacilor","country":"Romania","countryCode":"RO","region":"Constanța County","regionCode":"CT","latitude":44.19495,"longitude":28.31776},{"id":95221,"wikiDataId":"Q2484451","type":"CITY","city":"Valea Danului","name":"Valea Danului","country":"Romania","countryCode":"RO","region":"Arges","regionCode":"AG","latitude":45.18333,"longitude":24.65},{"id":95750,"wikiDataId":"Q2717802","type":"CITY","city":"Valea Dragului","name":"Valea Dragului","country":"Romania","countryCode":"RO","region":"Giurgiu County","regionCode":"GR","latitude":44.21222,"longitude":26.30361},
{"id":95539,"wikiDataId":"Q12087447","type":"CITY","city":"Valea Dulce","name":"Valea Dulce","country":"Romania","countryCode":"RO","region":"Prahova County","regionCode":"PH","latitude":45.11428,"longitude":26.20787},{"id":95438,"wikiDataId":"Q12087443","type":"CITY","city":"Valea Grecului","name":"Valea Grecului","country":"Romania","countryCode":"RO","region":"Vaslui County","regionCode":"VS","latitude":46.71985,"longitude":28.10123},{"id":96088,"wikiDataId":"Q12087669","type":"CITY","city":"Valea Iaşului","name":"Valea Iaşului","country":"Romania","countryCode":"RO","region":"Arges","regionCode":"AG","latitude":45.18333,"longitude":24.71667},{"id":95256,"wikiDataId":"Q656990","type":"CITY","city":"Valea Ierii","name":"Valea Ierii","country":"Romania","countryCode":"RO","region":"Cluj County","regionCode":"CJ","latitude":46.65,"longitude":23.35},{"id":95297,"wikiDataId":"Q283809","type":"CITY","city":"Valea Izvoarelor","name":"Valea Izvoarelor","country":"Romania","countryCode":"RO","region":"Mureș County","regionCode":"MS","latitude":46.43855,"longitude":24.37597},{"id":95796,"wikiDataId":"Q1176493","type":"CITY","city":"Valea Largă","name":"Valea Largă","country":"Romania","countryCode":"RO","region":"Mureș County","regionCode":"MS","latitude":46.62257,"longitude":24.07758},{"id":95287,"wikiDataId":"Q12087479","type":"CITY","city":"Valea Leurzii","name":"Valea Leurzii","country":"Romania","countryCode":"RO","region":"Dâmbovița County","regionCode":"DB","latitude":45.16186,"longitude":25.48533},{"id":95597,"wikiDataId":"Q1027068","type":"CITY","city":"Valea Lungă Alba Romania","name":"Valea Lungă Alba Romania","country":"Romania","countryCode":"RO","region":"Alba","regionCode":"AB","latitude":46.12592,"longitude":24.04541},{"id":95377,"wikiDataId":"Q12087484","type":"CITY","city":"Valea Lungă Ogrea","name":"Valea Lungă Ogrea","country":"Romania","countryCode":"RO","region":"Dâmbovița County","regionCode":"DB","latitude":45.05978,"longitude":25.59024},{"id":95228,"wikiDataId":"Q12087483","type":"CITY","city":"Valea Lungă-Cricov","name":"Valea Lungă-Cricov","country":"Romania","countryCode":"RO","region":"Dâmbovița County","regionCode":"DB","latitude":45.06528,"longitude":25.58793},
{"id":95420,"wikiDataId":"Q2537535","type":"CITY","city":"Valea Lupului","name":"Valea Lupului","country":"Romania","countryCode":"RO","region":"Iași County","regionCode":"IS","latitude":47.1792,"longitude":27.49965},{"id":95147,"wikiDataId":"Q2719540","type":"CITY","city":"Valea Mare","name":"Valea Mare","country":"Romania","countryCode":"RO","region":"Olt County","regionCode":"OT","latitude":44.46667,"longitude":24.43333},{"id":95374,"wikiDataId":"Q12128509","type":"CITY","city":"Valea Mare","name":"Valea Mare","country":"Romania","countryCode":"RO","region":"Dâmbovița County","regionCode":"DB","latitude":44.78333,"longitude":25.23333},{"id":95726,"wikiDataId":"Q64163","type":"CITY","city":"Valea Mare","name":"Valea Mare","country":"Romania","countryCode":"RO","region":"Covasna County","regionCode":"CV","latitude":45.76667,"longitude":26.0},{"id":95909,"wikiDataId":"Q2192326","type":"CITY","city":"Valea Mare","name":"Valea Mare","country":"Romania","countryCode":"RO","region":"Vâlcea County","regionCode":"VL","latitude":44.66667,"longitude":24.0},{"id":96044,"type":"CITY","city":"Valea Mare","name":"Valea Mare","country":"Romania","countryCode":"RO","region":"Gorj County","regionCode":"GJ","latitude":45.11263,"longitude":23.08004},{"id":96018,"wikiDataId":"Q3407923","type":"CITY","city":"Valea Mare Pravăț","name":"Valea Mare Pravăț","country":"Romania","countryCode":"RO","region":"Arges","regionCode":"AG","latitude":45.29171,"longitude":25.0925},{"id":95915,"wikiDataId":"Q12087498","type":"CITY","city":"Valea Mare-Podgoria","name":"Valea Mare-Podgoria","country":"Romania","countryCode":"RO","region":"Arges","regionCode":"AG","latitude":44.88513,"longitude":24.90613},{"id":95288,"wikiDataId":"Q12087530","type":"CITY","city":"Valea Merilor","name":"Valea Merilor","country":"Romania","countryCode":"RO","region":"Olt County","regionCode":"OT","latitude":44.47169,"longitude":24.65611},{"id":95459,"wikiDataId":"Q2605707","type":"CITY","city":"Valea Moldovei","name":"Valea Moldovei","country":"Romania","countryCode":"RO","region":"Suceava County","regionCode":"SV","latitude":47.46667,"longitude":26.03333},
{"id":95904,"wikiDataId":"Q2291419","type":"CITY","city":"Valea Măcrișului","name":"Valea Măcrișului","country":"Romania","countryCode":"RO","region":"Ialomița County","regionCode":"IL","latitude":44.74379,"longitude":26.83015},{"id":95244,"wikiDataId":"Q2717130","type":"CITY","city":"Valea Mărului","name":"Valea Mărului","country":"Romania","countryCode":"RO","region":"Galați County","regionCode":"GL","latitude":45.83866,"longitude":27.69138},{"id":95254,"wikiDataId":"Q1066301","type":"CITY","city":"Valea Nucarilor","name":"Valea Nucarilor","country":"Romania","countryCode":"RO","region":"Tulcea County","regionCode":"TL","latitude":45.03333,"longitude":28.93333},{"id":96070,"wikiDataId":"Q12087574","type":"CITY","city":"Valea Popii","name":"Valea Popii","country":"Romania","countryCode":"RO","region":"Arges","regionCode":"AG","latitude":45.09253,"longitude":25.0224},{"id":95903,"wikiDataId":"Q12087563","type":"CITY","city":"Valea Părului","name":"Valea Părului","country":"Romania","countryCode":"RO","region":"Teleorman County","regionCode":"TR","latitude":43.91727,"longitude":25.46589},{"id":95946,"wikiDataId":"Q12087564","type":"CITY","city":"Valea Părului","name":"Valea Părului","country":"Romania","countryCode":"RO","region":"Buzău County","regionCode":"BZ","latitude":45.36374,"longitude":26.77706},{"id":95637,"type":"CITY","city":"Valea Rece","name":"Valea Rece","country":"Romania","countryCode":"RO","region":"Harghita County","regionCode":"HR","latitude":46.62082,"longitude":25.95827},{"id":95466,"wikiDataId":"Q12087597","type":"CITY","city":"Valea Roșie","name":"Valea Roșie","country":"Romania","countryCode":"RO","region":"Călărași County","regionCode":"CL","latitude":44.17755,"longitude":26.63457},{"id":95944,"wikiDataId":"Q12087592","type":"CITY","city":"Valea Râmnicului","name":"Valea Râmnicului","country":"Romania","countryCode":"RO","region":"Buzău County","regionCode":"BZ","latitude":45.36395,"longitude":27.04197},{"id":95161,"wikiDataId":"Q12087604","type":"CITY","city":"Valea Salciei","name":"Valea Salciei","country":"Romania","countryCode":"RO","region":"Buzău County","regionCode":"BZ","latitude":45.49622,"longitude":26.82361},
{"id":95272,"wikiDataId":"Q754239","type":"CITY","city":"Valea Seacă","name":"Valea Seacă","country":"Romania","countryCode":"RO","region":"Satu Mare County","regionCode":"SM","latitude":48.0808,"longitude":23.16489},{"id":95821,"wikiDataId":"Q2719647","type":"CITY","city":"Valea Seacă","name":"Valea Seacă","country":"Romania","countryCode":"RO","region":"Iași County","regionCode":"IS","latitude":47.29219,"longitude":26.66876},{"id":95839,"wikiDataId":"Q15929154","type":"CITY","city":"Valea Seacă","name":"Valea Seacă","country":"Romania","countryCode":"RO","region":"Bacău County","regionCode":"BC","latitude":46.24281,"longitude":27.04594},{"id":95981,"wikiDataId":"Q12087628","type":"CITY","city":"Valea Seacă","name":"Valea Seacă","country":"Romania","countryCode":"RO","region":"Neamț County","regionCode":"NT","latitude":47.13944,"longitude":26.29956},{"id":95138,"wikiDataId":"Q2465429","type":"CITY","city":"Valea Stanciului","name":"Valea Stanciului","country":"Romania","countryCode":"RO","region":"Dolj County","regionCode":"DJ","latitude":43.98333,"longitude":23.86667},{"id":96057,"wikiDataId":"Q427384","type":"CITY","city":"Valea Strâmbă","name":"Valea Strâmbă","country":"Romania","countryCode":"RO","region":"Harghita County","regionCode":"HR","latitude":46.69429,"longitude":25.59956},{"id":95153,"wikiDataId":"Q13570094","type":"CITY","city":"Valea Sării","name":"Valea Sării","country":"Romania","countryCode":"RO","region":"Vrancea County","regionCode":"VN","latitude":45.87686,"longitude":26.79873},{"id":95329,"wikiDataId":"Q593601","type":"CITY","city":"Valea Teilor","name":"Valea Teilor","country":"Romania","countryCode":"RO","region":"Tulcea County","regionCode":"TL","latitude":45.1115,"longitude":28.48801},{"id":95569,"type":"CITY","city":"Valea Târsei","name":"Valea Târsei","country":"Romania","countryCode":"RO","region":"Prahova County","regionCode":"PH","latitude":45.17711,"longitude":25.63323},{"id":95989,"wikiDataId":"Q2605319","type":"CITY","city":"Valea Ursului","name":"Valea Ursului","country":"Romania","countryCode":"RO","region":"Neamț County","regionCode":"NT","latitude":46.81667,"longitude":27.08333},
{"id":95596,"wikiDataId":"Q1011619","type":"CITY","city":"Valea Viilor","name":"Valea Viilor","country":"Romania","countryCode":"RO","region":"Sibiu County","regionCode":"SB","latitude":46.08333,"longitude":24.28333},{"id":95213,"wikiDataId":"Q1188972","type":"CITY","city":"Valea Vinului","name":"Valea Vinului","country":"Romania","countryCode":"RO","region":"Satu Mare County","regionCode":"SM","latitude":47.71667,"longitude":23.18333},{"id":95371,"wikiDataId":"Q623992","type":"CITY","city":"Valea Vișeului","name":"Valea Vișeului","country":"Romania","countryCode":"RO","region":"Maramureș County","regionCode":"MM","latitude":47.91203,"longitude":24.15842},{"id":100984,"wikiDataId":"Q12087432","type":"CITY","city":"Valea Voievozilor","name":"Valea Voievozilor","country":"Romania","countryCode":"RO","region":"Dâmbovița County","regionCode":"DB","latitude":44.93805,"longitude":25.48518},{"id":95413,"wikiDataId":"Q12087670","type":"CITY","city":"Valea lui Ion","name":"Valea lui Ion","country":"Romania","countryCode":"RO","region":"Bacău County","regionCode":"BC","latitude":46.7035,"longitude":26.62499},{"id":95379,"type":"CITY","city":"Valea lui Mihai","name":"Valea lui Mihai","country":"Romania","countryCode":"RO","region":"Bihor County","regionCode":"BH","latitude":47.51667,"longitude":22.15},{"id":95861,"wikiDataId":"Q12087668","type":"CITY","city":"Valea Șoșii","name":"Valea Șoșii","country":"Romania","countryCode":"RO","region":"Bacău County","regionCode":"BC","latitude":46.4618,"longitude":26.54992},{"id":95233,"wikiDataId":"Q931160","type":"CITY","city":"Valu lui Traian","name":"Valu lui Traian","country":"Romania","countryCode":"RO","region":"Constanța County","regionCode":"CT","latitude":44.16667,"longitude":28.46667},{"id":95195,"wikiDataId":"Q930497","type":"CITY","city":"Vama","name":"Vama","country":"Romania","countryCode":"RO","region":"Satu Mare County","regionCode":"SM","latitude":47.83333,"longitude":23.4},{"id":95237,"wikiDataId":"Q2465898","type":"CITY","city":"Vama","name":"Vama","country":"Romania","countryCode":"RO","region":"Suceava County","regionCode":"SV","latitude":47.56667,"longitude":25.68333},
{"id":95795,"wikiDataId":"Q15281747","type":"CITY","city":"Vama Buzăului","name":"Vama Buzăului","country":"Romania","countryCode":"RO","region":"Brașov County","regionCode":"BV","latitude":45.59668,"longitude":25.99359},{"id":95334,"wikiDataId":"Q1018953","type":"CITY","city":"Variaş","name":"Variaş","country":"Romania","countryCode":"RO","region":"Timiș County","regionCode":"TM","latitude":46.01667,"longitude":20.95},{"id":95871,"wikiDataId":"Q12087808","type":"CITY","city":"Varnița","name":"Varnița","country":"Romania","countryCode":"RO","region":"Prahova County","regionCode":"PH","latitude":44.80679,"longitude":25.9453},{"id":95308,"wikiDataId":"Q12088040","type":"CITY","city":"Vasilaţi","name":"Vasilaţi","country":"Romania","countryCode":"RO","region":"Călărași County","regionCode":"CL","latitude":44.28778,"longitude":26.4475},{"id":95577,"type":"CITY","city":"Vaslui","name":"Vaslui","country":"Romania","countryCode":"RO","region":"Vaslui County","regionCode":"VS","latitude":46.63333,"longitude":27.73333},{"id":95354,"type":"CITY","city":"Vatra Dornei","name":"Vatra Dornei","country":"Romania","countryCode":"RO","region":"Suceava County","regionCode":"SV","latitude":47.35,"longitude":25.36667},{"id":95436,"wikiDataId":"Q933684","type":"CITY","city":"Vatra Moldoviţei","name":"Vatra Moldoviţei","country":"Romania","countryCode":"RO","region":"Suceava County","regionCode":"SV","latitude":47.65,"longitude":25.56667},{"id":95665,"type":"CITY","city":"Vaşcău","name":"Vaşcău","country":"Romania","countryCode":"RO","region":"Bihor County","regionCode":"BH","latitude":46.46667,"longitude":22.46667},{"id":95359,"wikiDataId":"Q12725259","type":"CITY","city":"Vaţa de Jos","name":"Vaţa de Jos","country":"Romania","countryCode":"RO","region":"Hunedoara County","regionCode":"HD","latitude":46.18333,"longitude":22.6},{"id":95181,"wikiDataId":"Q2721199","type":"CITY","city":"Vedea","name":"Vedea","country":"Romania","countryCode":"RO","region":"Teleorman County","regionCode":"TR","latitude":44.08333,"longitude":25.06667},
{"id":95470,"wikiDataId":"Q2535261","type":"CITY","city":"Vedea","name":"Vedea","country":"Romania","countryCode":"RO","region":"Arges","regionCode":"AG","latitude":44.78333,"longitude":24.61667},{"id":95523,"wikiDataId":"Q2718428","type":"CITY","city":"Vedea","name":"Vedea","country":"Romania","countryCode":"RO","region":"Giurgiu County","regionCode":"GR","latitude":43.78333,"longitude":25.78333},{"id":95544,"wikiDataId":"Q2136806","type":"CITY","city":"Vela","name":"Vela","country":"Romania","countryCode":"RO","region":"Dolj County","regionCode":"DJ","latitude":44.28333,"longitude":23.41667},{"id":95378,"wikiDataId":"Q12088674","type":"CITY","city":"Verbiţa","name":"Verbiţa","country":"Romania","countryCode":"RO","region":"Dolj County","regionCode":"DJ","latitude":44.3,"longitude":23.16667},{"id":95525,"wikiDataId":"Q648293","type":"CITY","city":"Verendin","name":"Verendin","country":"Romania","countryCode":"RO","region":"Caraș-Severin County","regionCode":"CS","latitude":45.07755,"longitude":22.23917},{"id":95791,"wikiDataId":"Q2606046","type":"CITY","city":"Vereşti","name":"Vereşti","country":"Romania","countryCode":"RO","region":"Suceava County","regionCode":"SV","latitude":47.6,"longitude":26.43333},{"id":95462,"wikiDataId":"Q12088682","type":"CITY","city":"Verguleasa","name":"Verguleasa","country":"Romania","countryCode":"RO","region":"Olt County","regionCode":"OT","latitude":44.65,"longitude":24.31667},{"id":95556,"wikiDataId":"Q75619","type":"CITY","city":"Vermeş","name":"Vermeş","country":"Romania","countryCode":"RO","region":"Caraș-Severin County","regionCode":"CS","latitude":45.52056,"longitude":21.65972},{"id":95555,"wikiDataId":"Q12088746","type":"CITY","city":"Vermești","name":"Vermești","country":"Romania","countryCode":"RO","region":"Bacău County","regionCode":"BC","latitude":46.42172,"longitude":26.4766},{"id":95609,"wikiDataId":"Q12088760","type":"CITY","city":"Verneşti","name":"Verneşti","country":"Romania","countryCode":"RO","region":"Buzău County","regionCode":"BZ","latitude":45.21667,"longitude":26.73333},
{"id":95639,"wikiDataId":"Q12088922","type":"CITY","city":"Verșeni","name":"Verșeni","country":"Romania","countryCode":"RO","region":"Iași County","regionCode":"IS","latitude":47.11294,"longitude":26.64341},{"id":95784,"wikiDataId":"Q12088925","type":"CITY","city":"Verșești","name":"Verșești","country":"Romania","countryCode":"RO","region":"Bacău County","regionCode":"BC","latitude":46.44904,"longitude":26.70183},{"id":96060,"wikiDataId":"Q843112","type":"CITY","city":"Veseuș","name":"Veseuș","country":"Romania","countryCode":"RO","region":"Alba","regionCode":"AB","latitude":46.27456,"longitude":24.14276},{"id":95712,"wikiDataId":"Q1188516","type":"CITY","city":"Vetiş","name":"Vetiş","country":"Romania","countryCode":"RO","region":"Satu Mare County","regionCode":"SM","latitude":47.8,"longitude":22.76667},{"id":100146,"wikiDataId":"Q2549105","type":"CITY","city":"Vetrişoaia","name":"Vetrişoaia","country":"Romania","countryCode":"RO","region":"Vaslui County","regionCode":"VS","latitude":46.43,"longitude":28.20833},{"id":95694,"type":"CITY","city":"Veza","name":"Veza","country":"Romania","countryCode":"RO","region":"Alba","regionCode":"AB","latitude":46.16747,"longitude":23.9247},{"id":95772,"wikiDataId":"Q1092574","type":"CITY","city":"Veţca","name":"Veţca","country":"Romania","countryCode":"RO","region":"Mureș County","regionCode":"MS","latitude":46.35,"longitude":24.78333},{"id":95398,"wikiDataId":"Q12089032","type":"CITY","city":"Veţel","name":"Veţel","country":"Romania","countryCode":"RO","region":"Hunedoara County","regionCode":"HD","latitude":45.9,"longitude":22.81667},{"id":95924,"wikiDataId":"Q3889873","type":"CITY","city":"Veștem","name":"Veștem","country":"Romania","countryCode":"RO","region":"Sibiu County","regionCode":"SB","latitude":45.71752,"longitude":24.23958},{"id":96097,"wikiDataId":"Q2604028","type":"CITY","city":"Vicovu de Jos","name":"Vicovu de Jos","country":"Romania","countryCode":"RO","region":"Suceava County","regionCode":"SV","latitude":47.9,"longitude":25.73333},
{"id":95437,"type":"CITY","city":"Vicovu de Sus","name":"Vicovu de Sus","country":"Romania","countryCode":"RO","region":"Suceava County","regionCode":"SV","latitude":47.93333,"longitude":25.68333},{"id":95934,"wikiDataId":"Q1084687","type":"CITY","city":"Victor Vlad Delamarina","name":"Victor Vlad Delamarina","country":"Romania","countryCode":"RO","region":"Timiș County","regionCode":"TM","latitude":45.64056,"longitude":21.89278},{"id":95282,"type":"CITY","city":"Victoria","name":"Victoria","country":"Romania","countryCode":"RO","region":"Brașov County","regionCode":"BV","latitude":45.72968,"longitude":24.7028},{"id":95617,"wikiDataId":"Q12093184","type":"CITY","city":"Victoria","name":"Victoria","country":"Romania","countryCode":"RO","region":"Botoșani County","regionCode":"BT","latitude":47.61018,"longitude":27.1673},{"id":95625,"wikiDataId":"Q2621166","type":"CITY","city":"Victoria","name":"Victoria","country":"Romania","countryCode":"RO","region":"Iași County","regionCode":"IS","latitude":47.28333,"longitude":27.58333},{"id":95958,"wikiDataId":"Q2536119","type":"CITY","city":"Victoria","name":"Victoria","country":"Romania","countryCode":"RO","region":"Braila","regionCode":"BR","latitude":44.81667,"longitude":27.61667},{"id":96072,"type":"CITY","city":"Videle","name":"Videle","country":"Romania","countryCode":"RO","region":"Teleorman County","regionCode":"TR","latitude":44.27806,"longitude":25.52444},{"id":95360,"wikiDataId":"Q920013","type":"CITY","city":"Vidra","name":"Vidra","country":"Romania","countryCode":"RO","region":"Alba","regionCode":"AB","latitude":46.36758,"longitude":22.88811},{"id":95489,"wikiDataId":"Q3827776","type":"CITY","city":"Vidra","name":"Vidra","country":"Romania","countryCode":"RO","region":"Ilfov County","regionCode":"IF","latitude":44.26056,"longitude":26.16972},{"id":95964,"wikiDataId":"Q12725257","type":"CITY","city":"Vidra","name":"Vidra","country":"Romania","countryCode":"RO","region":"Vrancea County","regionCode":"VN","latitude":45.91667,"longitude":26.9},
{"id":95285,"wikiDataId":"Q12093619","type":"CITY","city":"Vieru","name":"Vieru","country":"Romania","countryCode":"RO","region":"Giurgiu County","regionCode":"GR","latitude":43.88787,"longitude":25.80974},{"id":95666,"wikiDataId":"Q12093621","type":"CITY","city":"Vierșani","name":"Vierșani","country":"Romania","countryCode":"RO","region":"Gorj County","regionCode":"GJ","latitude":44.87875,"longitude":23.5312},{"id":95856,"wikiDataId":"Q12093588","type":"CITY","city":"Viforâta","name":"Viforâta","country":"Romania","countryCode":"RO","region":"Dâmbovița County","regionCode":"DB","latitude":44.96011,"longitude":25.45796},{"id":95392,"wikiDataId":"Q12093623","type":"CITY","city":"Viile","name":"Viile","country":"Romania","countryCode":"RO","region":"Galați County","regionCode":"GL","latitude":45.80691,"longitude":27.94748},{"id":95882,"wikiDataId":"Q12093622","type":"CITY","city":"Viile","name":"Viile","country":"Romania","countryCode":"RO","region":"Constanța County","regionCode":"CT","latitude":44.162,"longitude":27.75769},{"id":95683,"wikiDataId":"Q1190759","type":"CITY","city":"Viile Satu Mare","name":"Viile Satu Mare","country":"Romania","countryCode":"RO","region":"Satu Mare County","regionCode":"SM","latitude":47.66667,"longitude":22.95},{"id":98472,"wikiDataId":"Q753214","type":"CITY","city":"Viile Tecii","name":"Viile Tecii","country":"Romania","countryCode":"RO","region":"Bistrița-Năsăud County","regionCode":"BN","latitude":46.93333,"longitude":24.48333},{"id":95141,"wikiDataId":"Q12093637","type":"CITY","city":"Viişoara","name":"Viişoara","country":"Romania","countryCode":"RO","region":"Neamț County","regionCode":"NT","latitude":46.93333,"longitude":26.23333},{"id":95201,"wikiDataId":"Q12093628","type":"CITY","city":"Viişoara","name":"Viişoara","country":"Romania","countryCode":"RO","region":"Vaslui County","regionCode":"VS","latitude":46.38333,"longitude":27.88333},{"id":95204,"wikiDataId":"Q870900","type":"CITY","city":"Viişoara","name":"Viişoara","country":"Romania","countryCode":"RO","region":"Mureș County","regionCode":"MS","latitude":46.28333,"longitude":24.6},
{"id":95338,"wikiDataId":"Q375903","type":"CITY","city":"Viişoara","name":"Viişoara","country":"Romania","countryCode":"RO","region":"Cluj County","regionCode":"CJ","latitude":46.55,"longitude":23.91667},{"id":95563,"wikiDataId":"Q946989","type":"CITY","city":"Viişoara","name":"Viişoara","country":"Romania","countryCode":"RO","region":"Botoșani County","regionCode":"BT","latitude":48.16667,"longitude":26.73333},{"id":95594,"wikiDataId":"Q2721545","type":"CITY","city":"Viişoara","name":"Viişoara","country":"Romania","countryCode":"RO","region":"Teleorman County","regionCode":"TR","latitude":43.78333,"longitude":25.16667},{"id":95930,"wikiDataId":"Q6308162","type":"CITY","city":"Viişoara","name":"Viişoara","country":"Romania","countryCode":"RO","region":"Bihor County","regionCode":"BH","latitude":47.38333,"longitude":22.45},{"id":95323,"wikiDataId":"Q12093638","type":"CITY","city":"Viișoara","name":"Viișoara","country":"Romania","countryCode":"RO","region":"Bacău County","regionCode":"BC","latitude":46.28325,"longitude":26.66187},{"id":95425,"wikiDataId":"Q725695","type":"CITY","city":"Viișoara","name":"Viișoara","country":"Romania","countryCode":"RO","region":"Bistrița-Năsăud County","regionCode":"BN","latitude":47.10332,"longitude":24.44949},{"id":95687,"wikiDataId":"Q12093632","type":"CITY","city":"Viișoara","name":"Viișoara","country":"Romania","countryCode":"RO","region":"Dâmbovița County","regionCode":"DB","latitude":44.88116,"longitude":25.4273},{"id":96043,"wikiDataId":"Q12093636","type":"CITY","city":"Viișoara","name":"Viișoara","country":"Romania","countryCode":"RO","region":"Vrancea County","regionCode":"VN","latitude":46.0516,"longitude":27.09593},{"id":96076,"wikiDataId":"Q12093635","type":"CITY","city":"Viișoara","name":"Viișoara","country":"Romania","countryCode":"RO","region":"Constanța County","regionCode":"CT","latitude":44.07758,"longitude":28.19424},{"id":95718,"wikiDataId":"Q910148","type":"CITY","city":"Vima Mică","name":"Vima Mică","country":"Romania","countryCode":"RO","region":"Maramureș County","regionCode":"MM","latitude":47.4,"longitude":23.71667},
{"id":95583,"wikiDataId":"Q2548666","type":"CITY","city":"Vinderei","name":"Vinderei","country":"Romania","countryCode":"RO","region":"Vaslui County","regionCode":"VS","latitude":46.15,"longitude":27.8},{"id":95723,"type":"CITY","city":"Vinerea","name":"Vinerea","country":"Romania","countryCode":"RO","region":"Alba","regionCode":"AB","latitude":45.88632,"longitude":23.35289},{"id":96006,"wikiDataId":"Q1066840","type":"CITY","city":"Vinga","name":"Vinga","country":"Romania","countryCode":"RO","region":"Arad County","regionCode":"AR","latitude":46.01667,"longitude":21.2},{"id":95914,"wikiDataId":"Q725221","type":"CITY","city":"Vintere","name":"Vintere","country":"Romania","countryCode":"RO","region":"Bihor County","regionCode":"BH","latitude":46.76883,"longitude":22.14652},{"id":95756,"wikiDataId":"Q12093401","type":"CITY","city":"Vintileanca","name":"Vintileanca","country":"Romania","countryCode":"RO","region":"Buzău County","regionCode":"BZ","latitude":44.985,"longitude":26.58005},{"id":95432,"wikiDataId":"Q12725261","type":"CITY","city":"Vintileasca","name":"Vintileasca","country":"Romania","countryCode":"RO","region":"Vrancea County","regionCode":"VN","latitude":45.6,"longitude":26.73333},{"id":96014,"wikiDataId":"Q12093400","type":"CITY","city":"Vintilă Vodă","name":"Vintilă Vodă","country":"Romania","countryCode":"RO","region":"Buzău County","regionCode":"BZ","latitude":45.46667,"longitude":26.71667},{"id":100403,"wikiDataId":"Q684638","type":"CITY","city":"Vințu de Jos","name":"Vințu de Jos","country":"Romania","countryCode":"RO","region":"Alba","regionCode":"AB","latitude":45.99462,"longitude":23.48612},{"id":95966,"wikiDataId":"Q12093421","type":"CITY","city":"Vipereşti","name":"Vipereşti","country":"Romania","countryCode":"RO","region":"Buzău County","regionCode":"BZ","latitude":45.23333,"longitude":26.46667},{"id":95670,"wikiDataId":"Q935538","type":"CITY","city":"Viscri","name":"Viscri","country":"Romania","countryCode":"RO","region":"Brașov County","regionCode":"BV","latitude":46.05522,"longitude":25.09389},
{"id":95893,"wikiDataId":"Q2300944","type":"CITY","city":"Vitomireşti","name":"Vitomireşti","country":"Romania","countryCode":"RO","region":"Olt County","regionCode":"OT","latitude":44.86667,"longitude":24.4},{"id":96012,"wikiDataId":"Q2723941","type":"CITY","city":"Vităneşti","name":"Vităneşti","country":"Romania","countryCode":"RO","region":"Teleorman County","regionCode":"TR","latitude":44.0,"longitude":25.41667},{"id":95291,"wikiDataId":"Q12743592","type":"CITY","city":"Vitănești","name":"Vitănești","country":"Romania","countryCode":"RO","region":"Olt County","regionCode":"OT","latitude":44.5273,"longitude":24.69585},{"id":95622,"wikiDataId":"Q12093061","type":"CITY","city":"Vizantea-Mânăstirească","name":"Vizantea-Mânăstirească","country":"Romania","countryCode":"RO","region":"Vrancea County","regionCode":"VN","latitude":45.98333,"longitude":26.78333},{"id":95731,"wikiDataId":"Q2303235","type":"CITY","city":"Viziru","name":"Viziru","country":"Romania","countryCode":"RO","region":"Braila","regionCode":"BR","latitude":45.01667,"longitude":27.7},{"id":95843,"wikiDataId":"Q12093078","type":"CITY","city":"Vizurești","name":"Vizurești","country":"Romania","countryCode":"RO","region":"Dâmbovița County","regionCode":"DB","latitude":44.6404,"longitude":25.8074},{"id":95827,"wikiDataId":"Q3691118","type":"CITY","city":"Vişani","name":"Vişani","country":"Romania","countryCode":"RO","region":"Braila","regionCode":"BR","latitude":45.15,"longitude":27.28333},{"id":95184,"wikiDataId":"Q679924","type":"CITY","city":"Vişeu de Jos","name":"Vişeu de Jos","country":"Romania","countryCode":"RO","region":"Maramureș County","regionCode":"MM","latitude":47.72558,"longitude":24.36613},{"id":95445,"type":"CITY","city":"Vişeu de Sus","name":"Vişeu de Sus","country":"Romania","countryCode":"RO","region":"Maramureș County","regionCode":"MM","latitude":47.71667,"longitude":24.43333},{"id":95704,"wikiDataId":"Q12093607","type":"CITY","city":"Vişina","name":"Vişina","country":"Romania","countryCode":"RO","region":"Dâmbovița County","regionCode":"DB","latitude":44.58333,"longitude":25.33333},
{"id":96017,"wikiDataId":"Q12725262","type":"CITY","city":"Vişina","name":"Vişina","country":"Romania","countryCode":"RO","region":"Olt County","regionCode":"OT","latitude":43.86667,"longitude":24.45},{"id":95343,"wikiDataId":"Q12093610","type":"CITY","city":"Vişineşti","name":"Vişineşti","country":"Romania","countryCode":"RO","region":"Dâmbovița County","regionCode":"DB","latitude":45.1,"longitude":25.55},{"id":95658,"type":"CITY","city":"Vișeu de Mijloc","name":"Vișeu de Mijloc","country":"Romania","countryCode":"RO","region":"Maramureș County","regionCode":"MM","latitude":47.71562,"longitude":24.40661},{"id":95918,"wikiDataId":"Q5117234","type":"CITY","city":"Vișina Nouă","name":"Vișina Nouă","country":"Romania","countryCode":"RO","region":"Olt County","regionCode":"OT","latitude":43.87434,"longitude":24.4182},{"id":95415,"wikiDataId":"Q679883","type":"CITY","city":"Viștea de Jos","name":"Viștea de Jos","country":"Romania","countryCode":"RO","region":"Brașov County","regionCode":"BV","latitude":45.79582,"longitude":24.7238},{"id":95307,"wikiDataId":"Q12089806","type":"CITY","city":"Vlad Ţepeş","name":"Vlad Ţepeş","country":"Romania","countryCode":"RO","region":"Călărași County","regionCode":"CL","latitude":44.35,"longitude":27.08333},{"id":95236,"wikiDataId":"Q12089807","type":"CITY","city":"Vlad Țepeș","name":"Vlad Țepeș","country":"Romania","countryCode":"RO","region":"Giurgiu County","regionCode":"GR","latitude":44.13282,"longitude":26.13355},{"id":95921,"wikiDataId":"Q1011092","type":"CITY","city":"Vladimirescu","name":"Vladimirescu","country":"Romania","countryCode":"RO","region":"Arad County","regionCode":"AR","latitude":46.16628,"longitude":21.40102},{"id":95879,"type":"CITY","city":"Vlașca","name":"Vlașca","country":"Romania","countryCode":"RO","region":"Ialomița County","regionCode":"IL","latitude":44.39664,"longitude":27.84865},{"id":95275,"wikiDataId":"Q12089881","type":"CITY","city":"Vlădaia","name":"Vlădaia","country":"Romania","countryCode":"RO","region":"Mehedinți County","regionCode":"MH","latitude":44.35,"longitude":23.03333},
{"id":95310,"wikiDataId":"Q2291839","type":"CITY","city":"Vlădeni","name":"Vlădeni","country":"Romania","countryCode":"RO","region":"Ialomița County","regionCode":"IL","latitude":44.61667,"longitude":27.88333},{"id":95522,"wikiDataId":"Q3725389","type":"CITY","city":"Vlădeni","name":"Vlădeni","country":"Romania","countryCode":"RO","region":"Dâmbovița County","regionCode":"DB","latitude":44.8755,"longitude":25.77318},{"id":95570,"wikiDataId":"Q2719633","type":"CITY","city":"Vlădeni","name":"Vlădeni","country":"Romania","countryCode":"RO","region":"Iași County","regionCode":"IS","latitude":47.41667,"longitude":27.33333},{"id":95702,"wikiDataId":"Q2534419","type":"CITY","city":"Vlădeni","name":"Vlădeni","country":"Romania","countryCode":"RO","region":"Botoșani County","regionCode":"BT","latitude":47.71667,"longitude":26.51667},{"id":95319,"wikiDataId":"Q12089884","type":"CITY","city":"Vlădeni-Deal","name":"Vlădeni-Deal","country":"Romania","countryCode":"RO","region":"Botoșani County","regionCode":"BT","latitude":47.5225,"longitude":26.87295},{"id":95880,"wikiDataId":"Q2289419","type":"CITY","city":"Vlădeşti","name":"Vlădeşti","country":"Romania","countryCode":"RO","region":"Galați County","regionCode":"GL","latitude":45.85,"longitude":28.08333},{"id":95948,"wikiDataId":"Q1820060","type":"CITY","city":"Vlădeşti","name":"Vlădeşti","country":"Romania","countryCode":"RO","region":"Vâlcea County","regionCode":"VL","latitude":45.11667,"longitude":24.3},{"id":95496,"wikiDataId":"Q2535286","type":"CITY","city":"Vlădești","name":"Vlădești","country":"Romania","countryCode":"RO","region":"Arges","regionCode":"AG","latitude":45.15,"longitude":24.91667},{"id":95186,"wikiDataId":"Q12089908","type":"CITY","city":"Vlădila","name":"Vlădila","country":"Romania","countryCode":"RO","region":"Olt County","regionCode":"OT","latitude":44.0,"longitude":24.4},{"id":95945,"type":"CITY","city":"Vlăduleni","name":"Vlăduleni","country":"Romania","countryCode":"RO","region":"Gorj County","regionCode":"GJ","latitude":44.88857,"longitude":23.23727},
{"id":95929,"type":"CITY","city":"Vlăhiţa","name":"Vlăhiţa","country":"Romania","countryCode":"RO","region":"Harghita County","regionCode":"HR","latitude":46.35,"longitude":25.51667},{"id":95816,"wikiDataId":"Q12128588","type":"CITY","city":"Vlăsceni","name":"Vlăsceni","country":"Romania","countryCode":"RO","region":"Dâmbovița County","regionCode":"DB","latitude":44.58522,"longitude":25.59931},{"id":95709,"wikiDataId":"Q2715865","type":"CITY","city":"Vlăsineşti","name":"Vlăsineşti","country":"Romania","countryCode":"RO","region":"Botoșani County","regionCode":"BT","latitude":47.93333,"longitude":26.88333},{"id":95486,"wikiDataId":"Q12090796","type":"CITY","city":"Voetin","name":"Voetin","country":"Romania","countryCode":"RO","region":"Vrancea County","regionCode":"VN","latitude":45.4437,"longitude":27.14587},{"id":95188,"wikiDataId":"Q3915485","type":"CITY","city":"Voiceşti","name":"Voiceşti","country":"Romania","countryCode":"RO","region":"Vâlcea County","regionCode":"VL","latitude":44.6,"longitude":24.28333},{"id":95277,"wikiDataId":"Q12090784","type":"CITY","city":"Voievodeasa","name":"Voievodeasa","country":"Romania","countryCode":"RO","region":"Suceava County","regionCode":"SV","latitude":47.79953,"longitude":25.74939},{"id":95613,"wikiDataId":"Q608864","type":"CITY","city":"Voila","name":"Voila","country":"Romania","countryCode":"RO","region":"Brașov County","regionCode":"BV","latitude":45.81839,"longitude":24.84215},{"id":95189,"wikiDataId":"Q2548640","type":"CITY","city":"Voineasa","name":"Voineasa","country":"Romania","countryCode":"RO","region":"Vâlcea County","regionCode":"VL","latitude":45.41667,"longitude":23.95},{"id":95867,"wikiDataId":"Q12090228","type":"CITY","city":"Voineasa","name":"Voineasa","country":"Romania","countryCode":"RO","region":"Olt County","regionCode":"OT","latitude":44.28333,"longitude":24.13333},{"id":95591,"wikiDataId":"Q12090218","type":"CITY","city":"Voineşti","name":"Voineşti","country":"Romania","countryCode":"RO","region":"Dâmbovița County","regionCode":"DB","latitude":45.06667,"longitude":25.25},
{"id":95647,"wikiDataId":"Q2721387","type":"CITY","city":"Voineşti","name":"Voineşti","country":"Romania","countryCode":"RO","region":"Vaslui County","regionCode":"VS","latitude":46.56667,"longitude":27.41667},{"id":95677,"wikiDataId":"Q2719670","type":"CITY","city":"Voineşti","name":"Voineşti","country":"Romania","countryCode":"RO","region":"Iași County","regionCode":"IS","latitude":47.06667,"longitude":27.41667},{"id":95533,"wikiDataId":"Q12090216","type":"CITY","city":"Voinești","name":"Voinești","country":"Romania","countryCode":"RO","region":"Arges","regionCode":"AG","latitude":45.30007,"longitude":25.07225},{"id":95646,"wikiDataId":"Q1022869","type":"CITY","city":"Voiteg","name":"Voiteg","country":"Romania","countryCode":"RO","region":"Timiș County","regionCode":"TM","latitude":45.46889,"longitude":21.23917},{"id":95135,"wikiDataId":"Q12090246","type":"CITY","city":"Voiteștii din Vale","name":"Voiteștii din Vale","country":"Romania","countryCode":"RO","region":"Gorj County","regionCode":"GJ","latitude":45.08746,"longitude":23.42145},{"id":95588,"wikiDataId":"Q2720010","type":"CITY","city":"Voitinel","name":"Voitinel","country":"Romania","countryCode":"RO","region":"Suceava County","regionCode":"SV","latitude":47.88366,"longitude":25.75735},{"id":95164,"wikiDataId":"Q1090722","type":"CITY","city":"Voivodeni","name":"Voivodeni","country":"Romania","countryCode":"RO","region":"Mureș County","regionCode":"MS","latitude":46.7,"longitude":24.63333},{"id":96077,"wikiDataId":"Q657343","type":"CITY","city":"Voivozi","name":"Voivozi","country":"Romania","countryCode":"RO","region":"Bihor County","regionCode":"BH","latitude":47.21562,"longitude":22.39024},{"id":95797,"wikiDataId":"Q2465580","type":"CITY","city":"Voloiac","name":"Voloiac","country":"Romania","countryCode":"RO","region":"Mehedinți County","regionCode":"MH","latitude":44.61667,"longitude":23.1},{"id":95247,"wikiDataId":"Q1195081","type":"CITY","city":"Volovăţ","name":"Volovăţ","country":"Romania","countryCode":"RO","region":"Suceava County","regionCode":"SV","latitude":47.81667,"longitude":25.9},
{"id":95545,"type":"CITY","city":"Voluntari","name":"Voluntari","country":"Romania","countryCode":"RO","region":"Ilfov County","regionCode":"IF","latitude":44.49002,"longitude":26.17338},{"id":160616,"wikiDataId":"Q639520","type":"CITY","city":"Voluntari City","name":"Voluntari City","country":"Romania","countryCode":"RO","region":"Ilfov County","regionCode":"IF","latitude":44.49023,"longitude":26.18439},{"id":95656,"wikiDataId":"Q2536063","type":"CITY","city":"Vorniceni","name":"Vorniceni","country":"Romania","countryCode":"RO","region":"Botoșani County","regionCode":"BT","latitude":47.98333,"longitude":26.66667},{"id":95926,"wikiDataId":"Q2121427","type":"CITY","city":"Vorona","name":"Vorona","country":"Romania","countryCode":"RO","region":"Botoșani County","regionCode":"BT","latitude":47.57714,"longitude":26.63078},{"id":95776,"wikiDataId":"Q12090645","type":"CITY","city":"Vorona Teodoru","name":"Vorona Teodoru","country":"Romania","countryCode":"RO","region":"Botoșani County","regionCode":"BT","latitude":47.55,"longitude":26.6},{"id":95301,"wikiDataId":"Q5065980","type":"CITY","city":"Vorţa","name":"Vorţa","country":"Romania","countryCode":"RO","region":"Hunedoara County","regionCode":"HD","latitude":46.01667,"longitude":22.68333},{"id":96081,"wikiDataId":"Q1092183","type":"CITY","city":"Voșlăbeni","name":"Voșlăbeni","country":"Romania","countryCode":"RO","region":"Harghita County","regionCode":"HR","latitude":46.65,"longitude":25.63333},{"id":100772,"wikiDataId":"Q977930","type":"CITY","city":"Vrani","name":"Vrani","country":"Romania","countryCode":"RO","region":"Caraș-Severin County","regionCode":"CS","latitude":45.03833,"longitude":21.4925},{"id":95520,"wikiDataId":"Q2357474","type":"CITY","city":"Vrata","name":"Vrata","country":"Romania","countryCode":"RO","region":"Mehedinți County","regionCode":"MH","latitude":44.19197,"longitude":22.84928},{"id":95920,"wikiDataId":"Q3916053","type":"CITY","city":"Vrâncioaia","name":"Vrâncioaia","country":"Romania","countryCode":"RO","region":"Vrancea County","regionCode":"VN","latitude":45.85,"longitude":26.73333},
{"id":95734,"wikiDataId":"Q12090832","type":"CITY","city":"Vrănești","name":"Vrănești","country":"Romania","countryCode":"RO","region":"Arges","regionCode":"AG","latitude":44.84595,"longitude":25.00716},{"id":95264,"wikiDataId":"Q3563817","type":"CITY","city":"Vulcan","name":"Vulcan","country":"Romania","countryCode":"RO","region":"Brașov County","regionCode":"BV","latitude":45.63333,"longitude":25.41667},{"id":95476,"type":"CITY","city":"Vulcan","name":"Vulcan","country":"Romania","countryCode":"RO","region":"Hunedoara County","regionCode":"HD","latitude":45.38333,"longitude":23.26667},{"id":95134,"wikiDataId":"Q12092770","type":"CITY","city":"Vulcana Băi","name":"Vulcana Băi","country":"Romania","countryCode":"RO","region":"Dâmbovița County","regionCode":"DB","latitude":45.07982,"longitude":25.38219},{"id":95248,"wikiDataId":"Q12092771","type":"CITY","city":"Vulcana de Sus","name":"Vulcana de Sus","country":"Romania","countryCode":"RO","region":"Dâmbovița County","regionCode":"DB","latitude":45.10125,"longitude":25.35826},{"id":95361,"wikiDataId":"Q12092772","type":"CITY","city":"Vulcana-Pandele","name":"Vulcana-Pandele","country":"Romania","countryCode":"RO","region":"Dâmbovița County","regionCode":"DB","latitude":45.01558,"longitude":25.39319},{"id":95495,"wikiDataId":"Q12092784","type":"CITY","city":"Vulcăneasa","name":"Vulcăneasa","country":"Romania","countryCode":"RO","region":"Vrancea County","regionCode":"VN","latitude":45.77388,"longitude":26.90981},{"id":95315,"wikiDataId":"Q5117092","type":"CITY","city":"Vulpeni","name":"Vulpeni","country":"Romania","countryCode":"RO","region":"Olt County","regionCode":"OT","latitude":44.46667,"longitude":23.91667},{"id":95132,"wikiDataId":"Q239519","type":"CITY","city":"Vultureni","name":"Vultureni","country":"Romania","countryCode":"RO","region":"Cluj County","regionCode":"CJ","latitude":46.96667,"longitude":23.56667},{"id":95993,"wikiDataId":"Q15929197","type":"CITY","city":"Vultureni","name":"Vultureni","country":"Romania","countryCode":"RO","region":"Bacău County","regionCode":"BC","latitude":46.36667,"longitude":27.28333},
{"id":95499,"wikiDataId":"Q12092796","type":"CITY","city":"Vultureşti","name":"Vultureşti","country":"Romania","countryCode":"RO","region":"Olt County","regionCode":"OT","latitude":44.73333,"longitude":24.31667},{"id":95840,"wikiDataId":"Q2548723","type":"CITY","city":"Vultureşti","name":"Vultureşti","country":"Romania","countryCode":"RO","region":"Vaslui County","regionCode":"VS","latitude":46.81667,"longitude":27.53333},{"id":96086,"wikiDataId":"Q1170587","type":"CITY","city":"Vultureşti","name":"Vultureşti","country":"Romania","countryCode":"RO","region":"Suceava County","regionCode":"SV","latitude":47.51667,"longitude":26.45},{"id":95572,"wikiDataId":"Q2534657","type":"CITY","city":"Vulturești","name":"Vulturești","country":"Romania","countryCode":"RO","region":"Arges","regionCode":"AG","latitude":45.06618,"longitude":25.08347},{"id":95655,"wikiDataId":"Q589501","type":"CITY","city":"Vulturu","name":"Vulturu","country":"Romania","countryCode":"RO","region":"Constanța County","regionCode":"CT","latitude":44.65,"longitude":28.26667},{"id":95749,"wikiDataId":"Q14738917","type":"CITY","city":"Vulturu","name":"Vulturu","country":"Romania","countryCode":"RO","region":"Vrancea County","regionCode":"VN","latitude":45.61667,"longitude":27.41667},{"id":96067,"wikiDataId":"Q743662","type":"CITY","city":"Vurpăr","name":"Vurpăr","country":"Romania","countryCode":"RO","region":"Alba","regionCode":"AB","latitude":46.0,"longitude":23.46667},{"id":96079,"wikiDataId":"Q1077190","type":"CITY","city":"Vurpăr","name":"Vurpăr","country":"Romania","countryCode":"RO","region":"Sibiu County","regionCode":"SB","latitude":45.9,"longitude":24.35},{"id":95616,"wikiDataId":"Q2549087","type":"CITY","city":"Vutcani","name":"Vutcani","country":"Romania","countryCode":"RO","region":"Vaslui County","regionCode":"VS","latitude":46.46667,"longitude":27.96667},{"id":95559,"wikiDataId":"Q10832330","type":"CITY","city":"Vâlcele","name":"Vâlcele","country":"Romania","countryCode":"RO","region":"Covasna County","regionCode":"CV","latitude":45.85,"longitude":25.68333},
{"id":95631,"wikiDataId":"Q12725277","type":"CITY","city":"Vâlcele","name":"Vâlcele","country":"Romania","countryCode":"RO","region":"Olt County","regionCode":"OT","latitude":44.28263,"longitude":24.54376},{"id":95715,"wikiDataId":"Q12089355","type":"CITY","city":"Vâlcele","name":"Vâlcele","country":"Romania","countryCode":"RO","region":"Bacău County","regionCode":"BC","latitude":46.29801,"longitude":26.60005},{"id":95854,"wikiDataId":"Q12089347","type":"CITY","city":"Vâlcele","name":"Vâlcele","country":"Romania","countryCode":"RO","region":"Buzău County","regionCode":"BZ","latitude":45.08692,"longitude":26.63353},{"id":95423,"wikiDataId":"Q12089362","type":"CITY","city":"Vâlcelele","name":"Vâlcelele","country":"Romania","countryCode":"RO","region":"Călărași County","regionCode":"CL","latitude":44.38834,"longitude":27.15022},{"id":95881,"wikiDataId":"Q12743733","type":"CITY","city":"Vâlcelele","name":"Vâlcelele","country":"Romania","countryCode":"RO","region":"Buzău County","regionCode":"BZ","latitude":45.3443,"longitude":27.34937},{"id":95385,"wikiDataId":"Q12089358","type":"CITY","city":"Vâlcelele de Sus","name":"Vâlcelele de Sus","country":"Romania","countryCode":"RO","region":"Olt County","regionCode":"OT","latitude":44.28461,"longitude":24.55821},{"id":96078,"wikiDataId":"Q6468441","type":"CITY","city":"Vâlcăneşti","name":"Vâlcăneşti","country":"Romania","countryCode":"RO","region":"Prahova County","regionCode":"PH","latitude":45.11667,"longitude":25.93333},{"id":95780,"type":"CITY","city":"Vânju-Mare","name":"Vânju-Mare","country":"Romania","countryCode":"RO","region":"Mehedinți County","regionCode":"MH","latitude":44.42528,"longitude":22.86972},{"id":95630,"wikiDataId":"Q12089406","type":"CITY","city":"Vânjuleţ","name":"Vânjuleţ","country":"Romania","countryCode":"RO","region":"Mehedinți County","regionCode":"MH","latitude":44.44111,"longitude":22.7925},{"id":95137,"wikiDataId":"Q965720","type":"CITY","city":"Vânători","name":"Vânători","country":"Romania","countryCode":"RO","region":"Mehedinți County","regionCode":"MH","latitude":44.24278,"longitude":22.92889},
{"id":95180,"wikiDataId":"Q1057402","type":"CITY","city":"Vânători","name":"Vânători","country":"Romania","countryCode":"RO","region":"Mureș County","regionCode":"MS","latitude":46.23333,"longitude":24.93333},{"id":95369,"wikiDataId":"Q2722130","type":"CITY","city":"Vânători","name":"Vânători","country":"Romania","countryCode":"RO","region":"Vrancea County","regionCode":"VN","latitude":45.73333,"longitude":27.25},{"id":95431,"wikiDataId":"Q12089401","type":"CITY","city":"Vânători","name":"Vânători","country":"Romania","countryCode":"RO","region":"Iași County","regionCode":"IS","latitude":47.23333,"longitude":27.53333},{"id":95478,"wikiDataId":"Q2291891","type":"CITY","city":"Vânători","name":"Vânători","country":"Romania","countryCode":"RO","region":"Galați County","regionCode":"GL","latitude":45.53333,"longitude":28.01667},{"id":95895,"wikiDataId":"Q250929","type":"CITY","city":"Vânători","name":"Vânători","country":"Romania","countryCode":"RO","region":"Arad County","regionCode":"AR","latitude":46.62456,"longitude":21.67332},{"id":95268,"wikiDataId":"Q2719573","type":"CITY","city":"Vânători-Neamţ","name":"Vânători-Neamţ","country":"Romania","countryCode":"RO","region":"Neamț County","regionCode":"NT","latitude":47.2,"longitude":26.31667},{"id":96069,"wikiDataId":"Q12089405","type":"CITY","city":"Vânătorii Mari","name":"Vânătorii Mari","country":"Romania","countryCode":"RO","region":"Giurgiu County","regionCode":"GR","latitude":44.48898,"longitude":25.54548},{"id":95427,"wikiDataId":"Q2539316","type":"CITY","city":"Vânătorii Mici","name":"Vânătorii Mici","country":"Romania","countryCode":"RO","region":"Giurgiu County","regionCode":"GR","latitude":44.49028,"longitude":25.55889},{"id":95846,"wikiDataId":"Q1087974","type":"CITY","city":"Vârciorog","name":"Vârciorog","country":"Romania","countryCode":"RO","region":"Bihor County","regionCode":"BH","latitude":46.96667,"longitude":22.3},{"id":95460,"wikiDataId":"Q1442449","type":"CITY","city":"Vârciorova","name":"Vârciorova","country":"Romania","countryCode":"RO","region":"Caraș-Severin County","regionCode":"CS","latitude":45.3271,"longitude":22.35208},
{"id":95376,"wikiDataId":"Q2716359","type":"CITY","city":"Vârfu Câmpului","name":"Vârfu Câmpului","country":"Romania","countryCode":"RO","region":"Botoșani County","regionCode":"BT","latitude":47.84566,"longitude":26.33056},{"id":95707,"wikiDataId":"Q12089542","type":"CITY","city":"Vârfuri","name":"Vârfuri","country":"Romania","countryCode":"RO","region":"Dâmbovița County","regionCode":"DB","latitude":45.1,"longitude":25.51667},{"id":95494,"wikiDataId":"Q1033072","type":"CITY","city":"Vârfurile","name":"Vârfurile","country":"Romania","countryCode":"RO","region":"Arad County","regionCode":"AR","latitude":46.31667,"longitude":22.51667},{"id":95719,"wikiDataId":"Q3563934","type":"CITY","city":"Vârghiş","name":"Vârghiş","country":"Romania","countryCode":"RO","region":"Covasna County","regionCode":"CV","latitude":46.13333,"longitude":25.53333},{"id":96048,"wikiDataId":"Q13570124","type":"CITY","city":"Vârlezi","name":"Vârlezi","country":"Romania","countryCode":"RO","region":"Galați County","regionCode":"GL","latitude":45.9,"longitude":27.85},{"id":95342,"type":"CITY","city":"Vârteju","name":"Vârteju","country":"Romania","countryCode":"RO","region":"Ilfov County","regionCode":"IF","latitude":44.35606,"longitude":25.99183},{"id":95932,"wikiDataId":"Q12089529","type":"CITY","city":"Vârteşcoiu","name":"Vârteşcoiu","country":"Romania","countryCode":"RO","region":"Vrancea County","regionCode":"VN","latitude":45.73333,"longitude":27.08333},{"id":95685,"wikiDataId":"Q12089530","type":"CITY","city":"Vârtoapele de Jos","name":"Vârtoapele de Jos","country":"Romania","countryCode":"RO","region":"Teleorman County","regionCode":"TR","latitude":44.18333,"longitude":25.2},{"id":95174,"wikiDataId":"Q12089532","type":"CITY","city":"Vârtoapele de Sus","name":"Vârtoapele de Sus","country":"Romania","countryCode":"RO","region":"Teleorman County","regionCode":"TR","latitude":44.19182,"longitude":25.20025},{"id":95874,"wikiDataId":"Q2334983","type":"CITY","city":"Vârtop","name":"Vârtop","country":"Romania","countryCode":"RO","region":"Dolj County","regionCode":"DJ","latitude":44.20682,"longitude":23.34869},
{"id":95668,"wikiDataId":"Q2465775","type":"CITY","city":"Vârvoru de Jos","name":"Vârvoru de Jos","country":"Romania","countryCode":"RO","region":"Dolj County","regionCode":"DJ","latitude":44.24415,"longitude":23.6079},{"id":95983,"wikiDataId":"Q1081416","type":"CITY","city":"Vârşolţ","name":"Vârşolţ","country":"Romania","countryCode":"RO","region":"Sălaj County","regionCode":"SJ","latitude":47.2,"longitude":22.93333},{"id":95255,"wikiDataId":"Q1040259","type":"CITY","city":"Văculeşti","name":"Văculeşti","country":"Romania","countryCode":"RO","region":"Botoșani County","regionCode":"BT","latitude":47.88333,"longitude":26.41667},{"id":95220,"wikiDataId":"Q848236","type":"CITY","city":"Văcăreni","name":"Văcăreni","country":"Romania","countryCode":"RO","region":"Tulcea County","regionCode":"TL","latitude":45.32415,"longitude":28.19512},{"id":95645,"wikiDataId":"Q12088182","type":"CITY","city":"Văcăreşti","name":"Văcăreşti","country":"Romania","countryCode":"RO","region":"Dâmbovița County","regionCode":"DB","latitude":44.85,"longitude":25.48333},{"id":95474,"wikiDataId":"Q14823583","type":"CITY","city":"Vădastra","name":"Vădastra","country":"Romania","countryCode":"RO","region":"Olt County","regionCode":"OT","latitude":43.86667,"longitude":24.36667},{"id":95540,"wikiDataId":"Q2535722","type":"CITY","city":"Vădeni","name":"Vădeni","country":"Romania","countryCode":"RO","region":"Braila","regionCode":"BR","latitude":45.36667,"longitude":27.93333},{"id":96082,"wikiDataId":"Q12088155","type":"CITY","city":"Vădurele","name":"Vădurele","country":"Romania","countryCode":"RO","region":"Neamț County","regionCode":"NT","latitude":46.72958,"longitude":26.57173},{"id":95835,"wikiDataId":"Q14823530","type":"CITY","city":"Vădăstriţa","name":"Vădăstriţa","country":"Romania","countryCode":"RO","region":"Olt County","regionCode":"OT","latitude":43.85,"longitude":24.33333},{"id":95238,"wikiDataId":"Q2718327","type":"CITY","city":"Văgiuleşti","name":"Văgiuleşti","country":"Romania","countryCode":"RO","region":"Gorj County","regionCode":"GJ","latitude":44.71667,"longitude":23.08333},
{"id":95348,"wikiDataId":"Q976479","type":"CITY","city":"Vălcani","name":"Vălcani","country":"Romania","countryCode":"RO","region":"Timiș County","regionCode":"TM","latitude":46.00357,"longitude":20.39865},{"id":95386,"wikiDataId":"Q750740","type":"CITY","city":"Văleni","name":"Văleni","country":"Romania","countryCode":"RO","region":"Maramureș County","regionCode":"MM","latitude":47.78559,"longitude":24.01625},{"id":95512,"wikiDataId":"Q12088214","type":"CITY","city":"Văleni","name":"Văleni","country":"Romania","countryCode":"RO","region":"Neamț County","regionCode":"NT","latitude":46.90291,"longitude":26.38945},{"id":95518,"wikiDataId":"Q2719284","type":"CITY","city":"Văleni","name":"Văleni","country":"Romania","countryCode":"RO","region":"Olt County","regionCode":"OT","latitude":44.23333,"longitude":24.78333},{"id":96603,"wikiDataId":"Q12088216","type":"CITY","city":"Văleni","name":"Văleni","country":"Romania","countryCode":"RO","region":"Vaslui County","regionCode":"VS","latitude":46.59278,"longitude":28.0625},{"id":95276,"wikiDataId":"Q12088201","type":"CITY","city":"Văleni-Dâmbovița","name":"Văleni-Dâmbovița","country":"Romania","countryCode":"RO","region":"Dâmbovița County","regionCode":"DB","latitude":45.16667,"longitude":25.18333},{"id":95346,"wikiDataId":"Q12088202","type":"CITY","city":"Văleni-Podgoria","name":"Văleni-Podgoria","country":"Romania","countryCode":"RO","region":"Arges","regionCode":"AG","latitude":44.85755,"longitude":24.9893},{"id":95127,"type":"CITY","city":"Vălenii de Munte","name":"Vălenii de Munte","country":"Romania","countryCode":"RO","region":"Prahova County","regionCode":"PH","latitude":45.18333,"longitude":26.03333},{"id":95403,"wikiDataId":"Q738173","type":"CITY","city":"Vălenii de Mureș","name":"Vălenii de Mureș","country":"Romania","countryCode":"RO","region":"Mureș County","regionCode":"MS","latitude":46.89274,"longitude":24.79793},{"id":95939,"wikiDataId":"Q268472","type":"CITY","city":"Vălenii Șomcutei","name":"Vălenii Șomcutei","country":"Romania","countryCode":"RO","region":"Maramureș County","regionCode":"MM","latitude":47.47291,"longitude":23.45138},
{"id":95849,"wikiDataId":"Q920517","type":"CITY","city":"Văliug","name":"Văliug","country":"Romania","countryCode":"RO","region":"Caraș-Severin County","regionCode":"CS","latitude":45.23333,"longitude":22.03333},{"id":95142,"wikiDataId":"Q5053888","type":"CITY","city":"Vălişoara","name":"Vălişoara","country":"Romania","countryCode":"RO","region":"Hunedoara County","regionCode":"HD","latitude":46.05,"longitude":22.85},{"id":95739,"wikiDataId":"Q12088615","type":"CITY","city":"Văratec","name":"Văratec","country":"Romania","countryCode":"RO","region":"Suceava County","regionCode":"SV","latitude":47.63988,"longitude":26.40312},{"id":95534,"wikiDataId":"Q12088673","type":"CITY","city":"Vărbila","name":"Vărbila","country":"Romania","countryCode":"RO","region":"Prahova County","regionCode":"PH","latitude":45.04654,"longitude":26.19691},{"id":95194,"wikiDataId":"Q6467336","type":"CITY","city":"Vărbilău","name":"Vărbilău","country":"Romania","countryCode":"RO","region":"Prahova County","regionCode":"PH","latitude":45.18333,"longitude":25.95},{"id":95669,"wikiDataId":"Q875818","type":"CITY","city":"Vărgata","name":"Vărgata","country":"Romania","countryCode":"RO","region":"Mureș County","regionCode":"MS","latitude":46.56667,"longitude":24.8},{"id":96049,"wikiDataId":"Q291013","type":"CITY","city":"Vărădia","name":"Vărădia","country":"Romania","countryCode":"RO","region":"Caraș-Severin County","regionCode":"CS","latitude":45.07833,"longitude":21.54694},{"id":95863,"wikiDataId":"Q1092976","type":"CITY","city":"Vărădia de Mureş","name":"Vărădia de Mureş","country":"Romania","countryCode":"RO","region":"Arad County","regionCode":"AR","latitude":46.01667,"longitude":22.15},{"id":95193,"wikiDataId":"Q2717739","type":"CITY","city":"Vărăşti","name":"Vărăşti","country":"Romania","countryCode":"RO","region":"Giurgiu County","regionCode":"GR","latitude":44.23778,"longitude":26.24861},{"id":95667,"wikiDataId":"Q12088729","type":"CITY","city":"Vărăști","name":"Vărăști","country":"Romania","countryCode":"RO","region":"Călărași County","regionCode":"CL","latitude":44.21244,"longitude":26.97188},
{"id":95326,"wikiDataId":"Q1075741","type":"CITY","city":"Vărşag","name":"Vărşag","country":"Romania","countryCode":"RO","region":"Harghita County","regionCode":"HR","latitude":46.51667,"longitude":25.35},{"id":96073,"wikiDataId":"Q999449","type":"CITY","city":"Vătava","name":"Vătava","country":"Romania","countryCode":"RO","region":"Mureș County","regionCode":"MS","latitude":46.96667,"longitude":24.76667},{"id":96041,"wikiDataId":"Q722465","type":"CITY","city":"Vășad","name":"Vășad","country":"Romania","countryCode":"RO","region":"Bihor County","regionCode":"BH","latitude":47.5186,"longitude":22.2566},{"id":95136,"wikiDataId":"Q12105190","type":"CITY","city":"Zagavia","name":"Zagavia","country":"Romania","countryCode":"RO","region":"Iași County","regionCode":"IS","latitude":47.41911,"longitude":26.8979},{"id":95449,"wikiDataId":"Q82557","type":"CITY","city":"Zagon","name":"Zagon","country":"Romania","countryCode":"RO","region":"Covasna County","regionCode":"CV","latitude":45.76667,"longitude":26.11667},{"id":95789,"wikiDataId":"Q1092803","type":"CITY","city":"Zagra","name":"Zagra","country":"Romania","countryCode":"RO","region":"Bistrița-Năsăud County","regionCode":"BN","latitude":47.33333,"longitude":24.28333},{"id":96039,"wikiDataId":"Q140478","type":"CITY","city":"Zagăr","name":"Zagăr","country":"Romania","countryCode":"RO","region":"Mureș County","regionCode":"MS","latitude":46.35,"longitude":24.61667},{"id":95240,"wikiDataId":"Q1191338","type":"CITY","city":"Zalha","name":"Zalha","country":"Romania","countryCode":"RO","region":"Sălaj County","regionCode":"SJ","latitude":47.18333,"longitude":23.53333},{"id":96009,"type":"CITY","city":"Zalău","name":"Zalău","country":"Romania","countryCode":"RO","region":"Sălaj County","regionCode":"SJ","latitude":47.2,"longitude":23.05},{"id":95603,"wikiDataId":"Q5062934","type":"CITY","city":"Zam","name":"Zam","country":"Romania","countryCode":"RO","region":"Hunedoara County","regionCode":"HD","latitude":46.0,"longitude":22.45},
{"id":95388,"wikiDataId":"Q2604047","type":"CITY","city":"Zamostea","name":"Zamostea","country":"Romania","countryCode":"RO","region":"Suceava County","regionCode":"SV","latitude":47.86667,"longitude":26.2},{"id":95471,"wikiDataId":"Q1092538","type":"CITY","city":"Zau de Câmpie","name":"Zau de Câmpie","country":"Romania","countryCode":"RO","region":"Mureș County","regionCode":"MS","latitude":46.61382,"longitude":24.1308},{"id":95261,"wikiDataId":"Q8274402","type":"CITY","city":"Zdrapți","name":"Zdrapți","country":"Romania","countryCode":"RO","region":"Hunedoara County","regionCode":"HD","latitude":46.15612,"longitude":22.86954},{"id":95870,"wikiDataId":"Q3623720","type":"CITY","city":"Zebil","name":"Zebil","country":"Romania","countryCode":"RO","region":"Tulcea County","regionCode":"TL","latitude":44.946,"longitude":28.76873},{"id":95502,"wikiDataId":"Q15933798","type":"CITY","city":"Zemeş","name":"Zemeş","country":"Romania","countryCode":"RO","region":"Bacău County","regionCode":"BC","latitude":46.58333,"longitude":26.41667},{"id":95192,"type":"CITY","city":"Zencani","name":"Zencani","country":"Romania","countryCode":"RO","region":"Harghita County","regionCode":"HR","latitude":46.927,"longitude":25.33411},{"id":95363,"wikiDataId":"Q1088047","type":"CITY","city":"Zerind","name":"Zerind","country":"Romania","countryCode":"RO","region":"Arad County","regionCode":"AR","latitude":46.61667,"longitude":21.51667},{"id":95604,"wikiDataId":"Q1096335","type":"CITY","city":"Zetea","name":"Zetea","country":"Romania","countryCode":"RO","region":"Harghita County","regionCode":"HR","latitude":46.38333,"longitude":25.36667},{"id":95178,"wikiDataId":"Q12107261","type":"CITY","city":"Ziduri","name":"Ziduri","country":"Romania","countryCode":"RO","region":"Buzău County","regionCode":"BZ","latitude":45.3,"longitude":27.08333},{"id":95786,"wikiDataId":"Q12107264","type":"CITY","city":"Zidurile","name":"Zidurile","country":"Romania","countryCode":"RO","region":"Dâmbovița County","regionCode":"DB","latitude":44.58176,"longitude":25.55458},
{"id":95833,"wikiDataId":"Q1082229","type":"CITY","city":"Zimandu Nou","name":"Zimandu Nou","country":"Romania","countryCode":"RO","region":"Arad County","regionCode":"AR","latitude":46.28333,"longitude":21.4},{"id":95535,"wikiDataId":"Q1088010","type":"CITY","city":"Zimbor","name":"Zimbor","country":"Romania","countryCode":"RO","region":"Sălaj County","regionCode":"SJ","latitude":47.0,"longitude":23.26667},{"id":95500,"type":"CITY","city":"Zimnicea","name":"Zimnicea","country":"Romania","countryCode":"RO","region":"Teleorman County","regionCode":"TR","latitude":43.65638,"longitude":25.36454},{"id":95923,"wikiDataId":"Q12107281","type":"CITY","city":"Zimnicele","name":"Zimnicele","country":"Romania","countryCode":"RO","region":"Teleorman County","regionCode":"TR","latitude":43.66126,"longitude":25.41291},{"id":95612,"wikiDataId":"Q740224","type":"CITY","city":"Zizin","name":"Zizin","country":"Romania","countryCode":"RO","region":"Brașov County","regionCode":"BV","latitude":45.63697,"longitude":25.77898},{"id":95417,"type":"CITY","city":"Zlatna","name":"Zlatna","country":"Romania","countryCode":"RO","region":"Alba","regionCode":"AB","latitude":46.10633,"longitude":23.23162},{"id":95753,"wikiDataId":"Q12106746","type":"CITY","city":"Zlătunoaia","name":"Zlătunoaia","country":"Romania","countryCode":"RO","region":"Botoșani County","regionCode":"BT","latitude":47.65026,"longitude":27.00743},{"id":95292,"type":"CITY","city":"Zlătărei","name":"Zlătărei","country":"Romania","countryCode":"RO","region":"Vâlcea County","regionCode":"VL","latitude":44.63057,"longitude":24.25788},{"id":95962,"wikiDataId":"Q12106771","type":"CITY","city":"Zmeu","name":"Zmeu","country":"Romania","countryCode":"RO","region":"Iași County","regionCode":"IS","latitude":47.19161,"longitude":27.17917},{"id":95717,"wikiDataId":"Q12107073","type":"CITY","city":"Zorești","name":"Zorești","country":"Romania","countryCode":"RO","region":"Buzău County","regionCode":"BZ","latitude":45.18177,"longitude":26.70291},
{"id":95811,"wikiDataId":"Q12107116","type":"CITY","city":"Zorile","name":"Zorile","country":"Romania","countryCode":"RO","region":"Giurgiu County","regionCode":"GR","latitude":44.37864,"longitude":25.80678},{"id":95532,"wikiDataId":"Q2548630","type":"CITY","city":"Zorleni","name":"Zorleni","country":"Romania","countryCode":"RO","region":"Vaslui County","regionCode":"VS","latitude":46.26667,"longitude":27.71667},{"id":95279,"wikiDataId":"Q75425","type":"CITY","city":"Zorlenţu Mare","name":"Zorlenţu Mare","country":"Romania","countryCode":"RO","region":"Caraș-Severin County","regionCode":"CS","latitude":45.45056,"longitude":21.95611},{"id":95733,"wikiDataId":"Q2464968","type":"CITY","city":"Zvoriştea","name":"Zvoriştea","country":"Romania","countryCode":"RO","region":"Suceava County","regionCode":"SV","latitude":47.83333,"longitude":26.28333},{"id":95384,"wikiDataId":"Q2545403","type":"CITY","city":"Zâmbreasca","name":"Zâmbreasca","country":"Romania","countryCode":"RO","region":"Teleorman County","regionCode":"TR","latitude":44.31667,"longitude":24.98333},{"id":95173,"wikiDataId":"Q1070545","type":"CITY","city":"Zăbala","name":"Zăbala","country":"Romania","countryCode":"RO","region":"Covasna County","regionCode":"CV","latitude":45.9,"longitude":26.18333},{"id":96020,"wikiDataId":"Q248910","type":"CITY","city":"Zăbrani","name":"Zăbrani","country":"Romania","countryCode":"RO","region":"Arad County","regionCode":"AR","latitude":46.06667,"longitude":21.55},{"id":95689,"wikiDataId":"Q1190586","type":"CITY","city":"Zădăreni","name":"Zădăreni","country":"Romania","countryCode":"RO","region":"Arad County","regionCode":"AR","latitude":46.13274,"longitude":21.21821},{"id":95908,"wikiDataId":"Q2605252","type":"CITY","city":"Zăneşti","name":"Zăneşti","country":"Romania","countryCode":"RO","region":"Neamț County","regionCode":"NT","latitude":46.81667,"longitude":26.55},