[{"id":128614,"wikiDataId":"Q3461765","type":"CITY","city":"East Hampton North","name":"East Hampton North","country":"United States of America","countryCode":"US","region":"New York","regionCode":"NY","latitude":40.97276,"longitude":-72.18911},{"id":122456,"type":"CITY","city":"East Hanover","name":"East Hanover","country":"United States of America","countryCode":"US","region":"New Jersey","regionCode":"NJ","latitude":40.8201,"longitude":-74.36487},{"id":128780,"wikiDataId":"Q1069687","type":"CITY","city":"East Harlem","name":"East Harlem","country":"United States of America","countryCode":"US","region":"New York","regionCode":"NY","latitude":40.79472,"longitude":-73.9425},{"id":119136,"wikiDataId":"Q754618","type":"CITY","city":"East Hartford","name":"East Hartford","country":"United States of America","countryCode":"US","region":"Connecticut","regionCode":"CT","latitude":41.78232,"longitude":-72.61203},{"id":120885,"wikiDataId":"Q5328564","type":"CITY","city":"East Harwich","name":"East Harwich","country":"United States of America","countryCode":"US","region":"Massachusetts","regionCode":"MA","latitude":41.70011,"longitude":-70.02724},{"id":119357,"wikiDataId":"Q755413","type":"CITY","city":"East Haven","name":"East Haven","country":"United States of America","countryCode":"US","region":"Connecticut","regionCode":"CT","latitude":41.27621,"longitude":-72.86843},{"id":120352,"wikiDataId":"Q2242336","type":"CITY","city":"East Hazel Crest","name":"East Hazel Crest","country":"United States of America","countryCode":"US","region":"Illinois","regionCode":"IL","latitude":41.57365,"longitude":-87.64643},{"id":127588,"wikiDataId":"Q967025","type":"CITY","city":"East Helena","name":"East Helena","country":"United States of America","countryCode":"US","region":"Montana","regionCode":"MT","latitude":46.58966,"longitude":-111.91555},{"id":126269,"wikiDataId":"Q976954","type":"CITY","city":"East Hemet","name":"East Hemet","country":"United States of America","countryCode":"US","region":"California","regionCode":"CA","latitude":33.74002,"longitude":-116.93891},{"id":120031,"wikiDataId":"Q1374795","type":"CITY","city":"East Highland Park","name":"East Highland Park","country":"United States of America","countryCode":"US","region":"Virginia","regionCode":"VA","latitude":37.58098,"longitude":-77.40693},
{"id":129791,"wikiDataId":"Q1515580","type":"CITY","city":"East Hill-Meridian","name":"East Hill-Meridian","country":"United States of America","countryCode":"US","region":"Washington","regionCode":"WA","latitude":47.41052,"longitude":-122.17369},{"id":123687,"wikiDataId":"Q3449095","type":"CITY","city":"East Hills","name":"East Hills","country":"United States of America","countryCode":"US","region":"New York","regionCode":"NY","latitude":40.79371,"longitude":-73.62707},{"id":129158,"wikiDataId":"Q4243048","type":"CITY","city":"East Honolulu","name":"East Honolulu","country":"United States of America","countryCode":"US","region":"Hawaii","regionCode":"HI","latitude":21.28906,"longitude":-157.71734},{"id":116016,"type":"CITY","city":"East Independence","name":"East Independence","country":"United States of America","countryCode":"US","region":"Missouri","regionCode":"MO","latitude":39.09556,"longitude":-94.35523},{"id":123123,"wikiDataId":"Q3469029","type":"CITY","city":"East Islip","name":"East Islip","country":"United States of America","countryCode":"US","region":"New York","regionCode":"NY","latitude":40.73204,"longitude":-73.18567},{"id":123802,"wikiDataId":"Q3461274","type":"CITY","city":"East Ithaca","name":"East Ithaca","country":"United States of America","countryCode":"US","region":"New York","regionCode":"NY","latitude":42.43952,"longitude":-76.47855},{"id":121678,"wikiDataId":"Q1813148","type":"CITY","city":"East Jordan","name":"East Jordan","country":"United States of America","countryCode":"US","region":"Michigan","regionCode":"MI","latitude":45.15806,"longitude":-85.12423},{"id":122960,"wikiDataId":"Q2304461","type":"CITY","city":"East Kingston","name":"East Kingston","country":"United States of America","countryCode":"US","region":"New Hampshire","regionCode":"NH","latitude":42.92564,"longitude":-71.01672},{"id":127044,"wikiDataId":"Q1277933","type":"CITY","city":"East La Mirada","name":"East La Mirada","country":"United States of America","countryCode":"US","region":"California","regionCode":"CA","latitude":33.92446,"longitude":-117.98895},{"id":113343,"wikiDataId":"Q965206","type":"CITY","city":"East Lake","name":"East Lake","country":"United States of America","countryCode":"US","region":"Florida","regionCode":"FL","latitude":28.11085,"longitude":-82.69482},
{"id":128563,"wikiDataId":"Q2098201","type":"CITY","city":"East Lake-Orient Park","name":"East Lake-Orient Park","country":"United States of America","countryCode":"US","region":"Florida","regionCode":"FL","latitude":27.98269,"longitude":-82.37878},{"id":117842,"wikiDataId":"Q1131428","type":"CITY","city":"East Lansdowne","name":"East Lansdowne","country":"United States of America","countryCode":"US","region":"Pennsylvania","regionCode":"PA","latitude":39.94567,"longitude":-75.26129},{"id":121699,"wikiDataId":"Q871265","type":"CITY","city":"East Lansing","name":"East Lansing","country":"United States of America","countryCode":"US","region":"Michigan","regionCode":"MI","latitude":42.73698,"longitude":-84.48387},{"id":119705,"wikiDataId":"Q5328826","type":"CITY","city":"East Lexington","name":"East Lexington","country":"United States of America","countryCode":"US","region":"Virginia","regionCode":"VA","latitude":37.79291,"longitude":-79.42532},{"id":123408,"wikiDataId":"Q998893","type":"CITY","city":"East Liverpool","name":"East Liverpool","country":"United States of America","countryCode":"US","region":"Ohio","regionCode":"OH","latitude":40.61868,"longitude":-80.57729},{"id":121019,"wikiDataId":"Q2302480","type":"CITY","city":"East Longmeadow","name":"East Longmeadow","country":"United States of America","countryCode":"US","region":"Massachusetts","regionCode":"MA","latitude":42.06454,"longitude":-72.51259},{"id":126163,"wikiDataId":"Q690991","type":"CITY","city":"East Los Angeles","name":"East Los Angeles","country":"United States of America","countryCode":"US","region":"California","regionCode":"CA","latitude":34.0239,"longitude":-118.17202},{"id":121448,"wikiDataId":"Q3451632","type":"CITY","city":"East Machias","name":"East Machias","country":"United States of America","countryCode":"US","region":"Maine","regionCode":"ME","latitude":44.73924,"longitude":-67.38999},{"id":123780,"wikiDataId":"Q519420","type":"CITY","city":"East Massapequa","name":"East Massapequa","country":"United States of America","countryCode":"US","region":"New York","regionCode":"NY","latitude":40.67343,"longitude":-73.43651},{"id":124614,"wikiDataId":"Q1133015","type":"CITY","city":"East McKeesport","name":"East McKeesport","country":"United States of America","countryCode":"US","region":"Pennsylvania","regionCode":"PA","latitude":40.38312,"longitude":-79.80644},
{"id":123138,"wikiDataId":"Q2026633","type":"CITY","city":"East Meadow","name":"East Meadow","country":"United States of America","countryCode":"US","region":"New York","regionCode":"NY","latitude":40.71399,"longitude":-73.55902},{"id":122663,"wikiDataId":"Q4165159","type":"CITY","city":"East Merrimack","name":"East Merrimack","country":"United States of America","countryCode":"US","region":"New Hampshire","regionCode":"NH","latitude":42.86814,"longitude":-71.4834},{"id":128192,"wikiDataId":"Q2782610","type":"CITY","city":"East Millcreek","name":"East Millcreek","country":"United States of America","countryCode":"US","region":"Utah","regionCode":"UT","latitude":40.69995,"longitude":-111.81049},{"id":121496,"wikiDataId":"Q3450506","type":"CITY","city":"East Millinocket","name":"East Millinocket","country":"United States of America","countryCode":"US","region":"Maine","regionCode":"ME","latitude":45.62755,"longitude":-68.57448},{"id":113504,"wikiDataId":"Q8771466","type":"CITY","city":"East Milton","name":"East Milton","country":"United States of America","countryCode":"US","region":"Florida","regionCode":"FL","latitude":30.61519,"longitude":-87.02163},{"id":127647,"wikiDataId":"Q955834","type":"CITY","city":"East Missoula","name":"East Missoula","country":"United States of America","countryCode":"US","region":"Montana","regionCode":"MT","latitude":46.87076,"longitude":-113.94455},{"id":120695,"wikiDataId":"Q578055","type":"CITY","city":"East Moline","name":"East Moline","country":"United States of America","countryCode":"US","region":"Illinois","regionCode":"IL","latitude":41.50087,"longitude":-90.4443},{"id":123639,"wikiDataId":"Q3462105","type":"CITY","city":"East Moriches","name":"East Moriches","country":"United States of America","countryCode":"US","region":"New York","regionCode":"NY","latitude":40.8051,"longitude":-72.76093},{"id":113378,"wikiDataId":"Q3046528","type":"CITY","city":"East Naples","name":"East Naples","country":"United States of America","countryCode":"US","region":"Florida","regionCode":"FL","latitude":26.13842,"longitude":-81.76648},{"id":123487,"wikiDataId":"Q3294366","type":"CITY","city":"East New York","name":"East New York","country":"United States of America","countryCode":"US","region":"New York","regionCode":"NY","latitude":40.66677,"longitude":-73.88236},
{"id":122794,"wikiDataId":"Q1087639","type":"CITY","city":"East Newark","name":"East Newark","country":"United States of America","countryCode":"US","region":"New Jersey","regionCode":"NJ","latitude":40.74843,"longitude":-74.16181},{"id":114586,"wikiDataId":"Q2451815","type":"CITY","city":"East Newnan","name":"East Newnan","country":"United States of America","countryCode":"US","region":"Georgia","regionCode":"GA","latitude":33.35067,"longitude":-84.7766},{"id":123181,"wikiDataId":"Q3459309","type":"CITY","city":"East Northport","name":"East Northport","country":"United States of America","countryCode":"US","region":"New York","regionCode":"NY","latitude":40.87676,"longitude":-73.32456},{"id":119294,"wikiDataId":"Q5329059","type":"CITY","city":"East Norwalk","name":"East Norwalk","country":"United States of America","countryCode":"US","region":"Connecticut","regionCode":"CT","latitude":41.10565,"longitude":-73.39845},{"id":123632,"wikiDataId":"Q3477013","type":"CITY","city":"East Norwich","name":"East Norwich","country":"United States of America","countryCode":"US","region":"New York","regionCode":"NY","latitude":40.84677,"longitude":-73.53512},{"id":126252,"wikiDataId":"Q2781014","type":"CITY","city":"East Oakdale","name":"East Oakdale","country":"United States of America","countryCode":"US","region":"California","regionCode":"CA","latitude":37.78798,"longitude":-120.80382},{"id":122138,"wikiDataId":"Q988515","type":"CITY","city":"East Orange","name":"East Orange","country":"United States of America","countryCode":"US","region":"New Jersey","regionCode":"NJ","latitude":40.76732,"longitude":-74.20487},{"id":114040,"wikiDataId":"Q2350905","type":"CITY","city":"East Palatka","name":"East Palatka","country":"United States of America","countryCode":"US","region":"Florida","regionCode":"FL","latitude":29.6583,"longitude":-81.59841},{"id":124072,"wikiDataId":"Q1924957","type":"CITY","city":"East Palestine","name":"East Palestine","country":"United States of America","countryCode":"US","region":"Ohio","regionCode":"OH","latitude":40.83395,"longitude":-80.54035},{"id":126586,"wikiDataId":"Q988697","type":"CITY","city":"East Palo Alto","name":"East Palo Alto","country":"United States of America","countryCode":"US","region":"California","regionCode":"CA","latitude":37.46883,"longitude":-122.14108},
{"id":126681,"wikiDataId":"Q1973893","type":"CITY","city":"East Pasadena","name":"East Pasadena","country":"United States of America","countryCode":"US","region":"California","regionCode":"CA","latitude":34.13814,"longitude":-118.07384},{"id":123351,"wikiDataId":"Q3459226","type":"CITY","city":"East Patchogue","name":"East Patchogue","country":"United States of America","countryCode":"US","region":"New York","regionCode":"NY","latitude":40.76704,"longitude":-72.99622},{"id":113862,"type":"CITY","city":"East Pensacola Heights","name":"East Pensacola Heights","country":"United States of America","countryCode":"US","region":"Florida","regionCode":"FL","latitude":30.42881,"longitude":-87.17997},{"id":120181,"wikiDataId":"Q506116","type":"CITY","city":"East Peoria","name":"East Peoria","country":"United States of America","countryCode":"US","region":"Illinois","regionCode":"IL","latitude":40.66615,"longitude":-89.5801},{"id":120666,"wikiDataId":"Q5329136","type":"CITY","city":"East Pepperell","name":"East Pepperell","country":"United States of America","countryCode":"US","region":"Massachusetts","regionCode":"MA","latitude":42.66537,"longitude":-71.57312},{"id":113690,"wikiDataId":"Q2001259","type":"CITY","city":"East Perrine","name":"East Perrine","country":"United States of America","countryCode":"US","region":"Florida","regionCode":"FL","latitude":25.60872,"longitude":-80.33894},{"id":125020,"wikiDataId":"Q1133960","type":"CITY","city":"East Petersburg","name":"East Petersburg","country":"United States of America","countryCode":"US","region":"Pennsylvania","regionCode":"PA","latitude":40.1001,"longitude":-76.35413},{"id":124397,"wikiDataId":"Q1130285","type":"CITY","city":"East Pittsburgh","name":"East Pittsburgh","country":"United States of America","countryCode":"US","region":"Pennsylvania","regionCode":"PA","latitude":40.39562,"longitude":-79.83866},{"id":114244,"wikiDataId":"Q2933940","type":"CITY","city":"East Point","name":"East Point","country":"United States of America","countryCode":"US","region":"Georgia","regionCode":"GA","latitude":33.67955,"longitude":-84.43937},{"id":128193,"wikiDataId":"Q1503774","type":"CITY","city":"East Port Orchard","name":"East Port Orchard","country":"United States of America","countryCode":"US","region":"Washington","regionCode":"WA","latitude":47.52343,"longitude":-122.6243},
{"id":126732,"wikiDataId":"Q2676537","type":"CITY","city":"East Porterville","name":"East Porterville","country":"United States of America","countryCode":"US","region":"California","regionCode":"CA","latitude":36.05745,"longitude":-118.97566},{"id":115759,"wikiDataId":"Q607653","type":"CITY","city":"East Prairie","name":"East Prairie","country":"United States of America","countryCode":"US","region":"Missouri","regionCode":"MO","latitude":36.77978,"longitude":-89.38563},{"id":125756,"wikiDataId":"Q54268","type":"CITY","city":"East Providence","name":"East Providence","country":"United States of America","countryCode":"US","region":"Rhode Island","regionCode":"RI","latitude":41.81371,"longitude":-71.37005},{"id":126889,"wikiDataId":"Q2103573","type":"CITY","city":"East Quincy","name":"East Quincy","country":"United States of America","countryCode":"US","region":"California","regionCode":"CA","latitude":39.93406,"longitude":-120.89801},{"id":123759,"wikiDataId":"Q3469038","type":"CITY","city":"East Quogue","name":"East Quogue","country":"United States of America","countryCode":"US","region":"New York","regionCode":"NY","latitude":40.84066,"longitude":-72.58148},{"id":127017,"wikiDataId":"Q1277813","type":"CITY","city":"East Rancho Dominguez","name":"East Rancho Dominguez","country":"United States of America","countryCode":"US","region":"California","regionCode":"CA","latitude":33.89807,"longitude":-118.19535},{"id":128447,"wikiDataId":"Q1508714","type":"CITY","city":"East Renton Highlands","name":"East Renton Highlands","country":"United States of America","countryCode":"US","region":"Washington","regionCode":"WA","latitude":47.48482,"longitude":-122.11234},{"id":126949,"wikiDataId":"Q2317126","type":"CITY","city":"East Richmond Heights","name":"East Richmond Heights","country":"United States of America","countryCode":"US","region":"California","regionCode":"CA","latitude":37.94492,"longitude":-122.31358},{"id":118010,"wikiDataId":"Q2360439","type":"CITY","city":"East Ridge","name":"East Ridge","country":"United States of America","countryCode":"US","region":"Tennessee","regionCode":"TN","latitude":35.01424,"longitude":-85.2519},{"id":115983,"wikiDataId":"Q754784","type":"CITY","city":"East Riverdale","name":"East Riverdale","country":"United States of America","countryCode":"US","region":"Maryland","regionCode":"MD","latitude":38.96206,"longitude":-76.92192},
{"id":123243,"wikiDataId":"Q3476557","type":"CITY","city":"East Rochester","name":"East Rochester","country":"United States of America","countryCode":"US","region":"New York","regionCode":"NY","latitude":43.10867,"longitude":-77.4875},{"id":123514,"wikiDataId":"Q3451866","type":"CITY","city":"East Rockaway","name":"East Rockaway","country":"United States of America","countryCode":"US","region":"New York","regionCode":"NY","latitude":40.64205,"longitude":-73.66957},{"id":116668,"wikiDataId":"Q2023745","type":"CITY","city":"East Rockingham","name":"East Rockingham","country":"United States of America","countryCode":"US","region":"North Carolina","regionCode":"NC","latitude":34.91821,"longitude":-79.76256},{"id":122379,"wikiDataId":"Q746830","type":"CITY","city":"East Rutherford","name":"East Rutherford","country":"United States of America","countryCode":"US","region":"New Jersey","regionCode":"NJ","latitude":40.83399,"longitude":-74.09709},{"id":126067,"wikiDataId":"Q1277999","type":"CITY","city":"East Sahuarita","name":"East Sahuarita","country":"United States of America","countryCode":"US","region":"Arizona","regionCode":"AZ","latitude":31.94286,"longitude":-110.92842},{"id":115016,"wikiDataId":"Q577891","type":"CITY","city":"East Saint Louis","name":"East Saint Louis","country":"United States of America","countryCode":"US","region":"Illinois","regionCode":"IL","latitude":38.6245,"longitude":-90.15094},{"id":126892,"wikiDataId":"Q1252788","type":"CITY","city":"East San Gabriel","name":"East San Gabriel","country":"United States of America","countryCode":"US","region":"California","regionCode":"CA","latitude":34.09168,"longitude":-118.09118},{"id":120373,"wikiDataId":"Q5329328","type":"CITY","city":"East Sandwich","name":"East Sandwich","country":"United States of America","countryCode":"US","region":"Massachusetts","regionCode":"MA","latitude":41.74177,"longitude":-70.45169},{"id":123793,"type":"CITY","city":"East Setauket","name":"East Setauket","country":"United States of America","countryCode":"US","region":"New York","regionCode":"NY","latitude":40.94149,"longitude":-73.10594},{"id":123187,"wikiDataId":"Q3461394","type":"CITY","city":"East Shoreham","name":"East Shoreham","country":"United States of America","countryCode":"US","region":"New York","regionCode":"NY","latitude":40.94482,"longitude":-72.87955},
{"id":126127,"wikiDataId":"Q1955566","type":"CITY","city":"East Sonora","name":"East Sonora","country":"United States of America","countryCode":"US","region":"California","regionCode":"CA","latitude":37.9777,"longitude":-120.3613},{"id":116553,"wikiDataId":"Q2025086","type":"CITY","city":"East Spencer","name":"East Spencer","country":"United States of America","countryCode":"US","region":"North Carolina","regionCode":"NC","latitude":35.68181,"longitude":-80.43228},{"id":124284,"wikiDataId":"Q1132229","type":"CITY","city":"East Stroudsburg","name":"East Stroudsburg","country":"United States of America","countryCode":"US","region":"Pennsylvania","regionCode":"PA","latitude":40.99954,"longitude":-75.18129},{"id":117206,"wikiDataId":"Q3313601","type":"CITY","city":"East Sumter","name":"East Sumter","country":"United States of America","countryCode":"US","region":"South Carolina","regionCode":"SC","latitude":33.92544,"longitude":-80.29619},{"id":123481,"wikiDataId":"Q3453158","type":"CITY","city":"East Syracuse","name":"East Syracuse","country":"United States of America","countryCode":"US","region":"New York","regionCode":"NY","latitude":43.06534,"longitude":-76.07853},{"id":121609,"wikiDataId":"Q3308092","type":"CITY","city":"East Tawas","name":"East Tawas","country":"United States of America","countryCode":"US","region":"Michigan","regionCode":"MI","latitude":44.27946,"longitude":-83.49025},{"id":123341,"wikiDataId":"Q5329558","type":"CITY","city":"East Tremont","name":"East Tremont","country":"United States of America","countryCode":"US","region":"New York","regionCode":"NY","latitude":40.84538,"longitude":-73.89097},{"id":125257,"wikiDataId":"Q1278054","type":"CITY","city":"East Troy","name":"East Troy","country":"United States of America","countryCode":"US","region":"Wisconsin","regionCode":"WI","latitude":42.78529,"longitude":-88.4051},{"id":117709,"wikiDataId":"Q1132322","type":"CITY","city":"East Uniontown","name":"East Uniontown","country":"United States of America","countryCode":"US","region":"Pennsylvania","regionCode":"PA","latitude":39.8998,"longitude":-79.69782},{"id":129631,"wikiDataId":"Q5329588","type":"CITY","city":"East Valley","name":"East Valley","country":"United States of America","countryCode":"US","region":"Nevada","regionCode":"NV","latitude":38.9434,"longitude":-119.69923},
{"id":123883,"wikiDataId":"Q1043326","type":"CITY","city":"East Village","name":"East Village","country":"United States of America","countryCode":"US","region":"New York","regionCode":"NY","latitude":40.72927,"longitude":-73.98736},{"id":124463,"wikiDataId":"Q1131763","type":"CITY","city":"East Washington","name":"East Washington","country":"United States of America","countryCode":"US","region":"Pennsylvania","regionCode":"PA","latitude":40.17368,"longitude":-80.23756},{"id":128965,"wikiDataId":"Q988279","type":"CITY","city":"East Wenatchee","name":"East Wenatchee","country":"United States of America","countryCode":"US","region":"Washington","regionCode":"WA","latitude":47.41568,"longitude":-120.29313},{"id":128257,"wikiDataId":"Q1515111","type":"CITY","city":"East Wenatchee Bench","name":"East Wenatchee Bench","country":"United States of America","countryCode":"US","region":"Washington","regionCode":"WA","latitude":47.42568,"longitude":-120.28118},{"id":123223,"wikiDataId":"Q3451936","type":"CITY","city":"East Williston","name":"East Williston","country":"United States of America","countryCode":"US","region":"New York","regionCode":"NY","latitude":40.75843,"longitude":-73.63485},{"id":125251,"wikiDataId":"Q2408937","type":"CITY","city":"East Windsor","name":"East Windsor","country":"United States of America","countryCode":"US","region":"Connecticut","regionCode":"CT","latitude":41.91232,"longitude":-72.54509},{"id":117647,"wikiDataId":"Q1134726","type":"CITY","city":"East York","name":"East York","country":"United States of America","countryCode":"US","region":"Pennsylvania","regionCode":"PA","latitude":39.97371,"longitude":-76.68636},{"id":123855,"wikiDataId":"Q3461287","type":"CITY","city":"Eastchester","name":"Eastchester","country":"United States of America","countryCode":"US","region":"New York","regionCode":"NY","latitude":40.95833,"longitude":-73.80861},{"id":128643,"wikiDataId":"Q1508690","type":"CITY","city":"Eastgate","name":"Eastgate","country":"United States of America","countryCode":"US","region":"Washington","regionCode":"WA","latitude":47.57266,"longitude":-122.14578},{"id":120215,"wikiDataId":"Q2303096","type":"CITY","city":"Eastham","name":"Eastham","country":"United States of America","countryCode":"US","region":"Massachusetts","regionCode":"MA","latitude":41.83011,"longitude":-69.97391},
{"id":120447,"wikiDataId":"Q1988974","type":"CITY","city":"Easthampton","name":"Easthampton","country":"United States of America","countryCode":"US","region":"Massachusetts","regionCode":"MA","latitude":42.26676,"longitude":-72.66898},{"id":123169,"wikiDataId":"Q525588","type":"CITY","city":"Eastlake","name":"Eastlake","country":"United States of America","countryCode":"US","region":"Ohio","regionCode":"OH","latitude":41.65394,"longitude":-81.45039},{"id":118660,"wikiDataId":"Q981858","type":"CITY","city":"Eastland","name":"Eastland","country":"United States of America","countryCode":"US","region":"Texas","regionCode":"TX","latitude":32.40152,"longitude":-98.81756},{"id":170943,"wikiDataId":"Q156270","type":"ADM2","city":"Eastland County","name":"Eastland County","country":"United States of America","countryCode":"US","region":"Texas","regionCode":"TX","latitude":32.32707,"longitude":-98.83232},{"id":124632,"wikiDataId":"Q1132462","type":"CITY","city":"Eastlawn Gardens","name":"Eastlawn Gardens","country":"United States of America","countryCode":"US","region":"Pennsylvania","regionCode":"PA","latitude":40.75065,"longitude":-75.29573},{"id":114274,"wikiDataId":"Q1278280","type":"CITY","city":"Eastman","name":"Eastman","country":"United States of America","countryCode":"US","region":"Georgia","regionCode":"GA","latitude":32.19767,"longitude":-83.17765},{"id":129656,"wikiDataId":"Q5816770","type":"CITY","city":"Eastmont","name":"Eastmont","country":"United States of America","countryCode":"US","region":"Washington","regionCode":"WA","latitude":47.8974,"longitude":-122.18154},{"id":116072,"wikiDataId":"Q754306","type":"CITY","city":"Easton","name":"Easton","country":"United States of America","countryCode":"US","region":"Maryland","regionCode":"MD","latitude":38.77428,"longitude":-76.07633},{"id":119163,"wikiDataId":"Q2323099","type":"CITY","city":"Easton","name":"Easton","country":"United States of America","countryCode":"US","region":"Connecticut","regionCode":"CT","latitude":41.25287,"longitude":-73.29734},{"id":120285,"wikiDataId":"Q2418423","type":"CITY","city":"Easton","name":"Easton","country":"United States of America","countryCode":"US","region":"Massachusetts","regionCode":"MA","latitude":42.02454,"longitude":-71.12866},
{"id":121665,"wikiDataId":"Q3450654","type":"CITY","city":"Easton","name":"Easton","country":"United States of America","countryCode":"US","region":"Maine","regionCode":"ME","latitude":46.64115,"longitude":-67.90947},{"id":124282,"wikiDataId":"Q1056542","type":"CITY","city":"Easton","name":"Easton","country":"United States of America","countryCode":"US","region":"Pennsylvania","regionCode":"PA","latitude":40.68843,"longitude":-75.22073},{"id":125807,"type":"CITY","city":"Easton","name":"Easton","country":"United States of America","countryCode":"US","region":"Wisconsin","regionCode":"WI","latitude":43.83803,"longitude":-89.80679},{"id":126750,"wikiDataId":"Q3389296","type":"CITY","city":"Easton","name":"Easton","country":"United States of America","countryCode":"US","region":"California","regionCode":"CA","latitude":36.65023,"longitude":-119.7907},{"id":116392,"wikiDataId":"Q924702","type":"CITY","city":"Eastover","name":"Eastover","country":"United States of America","countryCode":"US","region":"North Carolina","regionCode":"NC","latitude":35.1,"longitude":-78.8},{"id":113118,"wikiDataId":"Q524696","type":"CITY","city":"Eastpoint","name":"Eastpoint","country":"United States of America","countryCode":"US","region":"Florida","regionCode":"FL","latitude":29.7366,"longitude":-84.87852},{"id":121909,"wikiDataId":"Q1022748","type":"CITY","city":"Eastpointe","name":"Eastpointe","country":"United States of America","countryCode":"US","region":"Michigan","regionCode":"MI","latitude":42.46837,"longitude":-82.95547},{"id":121235,"wikiDataId":"Q785669","type":"CITY","city":"Eastport","name":"Eastport","country":"United States of America","countryCode":"US","region":"Maine","regionCode":"ME","latitude":44.90619,"longitude":-66.98998},{"id":123367,"wikiDataId":"Q3469016","type":"CITY","city":"Eastport","name":"Eastport","country":"United States of America","countryCode":"US","region":"New York","regionCode":"NY","latitude":40.82593,"longitude":-72.73177},{"id":129442,"wikiDataId":"Q3046621","type":"CITY","city":"Eastvale","name":"Eastvale","country":"United States of America","countryCode":"US","region":"California","regionCode":"CA","latitude":33.96358,"longitude":-117.56418},
{"id":119478,"wikiDataId":"Q987458","type":"CITY","city":"Eastville","name":"Eastville","country":"United States of America","countryCode":"US","region":"Virginia","regionCode":"VA","latitude":37.35264,"longitude":-75.94576},{"id":116017,"wikiDataId":"Q2082432","type":"CITY","city":"Eastwood","name":"Eastwood","country":"United States of America","countryCode":"US","region":"Louisiana","regionCode":"LA","latitude":32.55626,"longitude":-93.56712},{"id":121537,"wikiDataId":"Q2499096","type":"CITY","city":"Eastwood","name":"Eastwood","country":"United States of America","countryCode":"US","region":"Michigan","regionCode":"MI","latitude":42.3031,"longitude":-85.55028},{"id":116334,"wikiDataId":"Q1000148","type":"CITY","city":"Eaton","name":"Eaton","country":"United States of America","countryCode":"US","region":"Ohio","regionCode":"OH","latitude":39.74394,"longitude":-84.63662},{"id":120139,"wikiDataId":"Q2260681","type":"CITY","city":"Eaton","name":"Eaton","country":"United States of America","countryCode":"US","region":"Indiana","regionCode":"IN","latitude":40.34032,"longitude":-85.3508},{"id":128068,"wikiDataId":"Q153195","type":"CITY","city":"Eaton","name":"Eaton","country":"United States of America","countryCode":"US","region":"Colorado","regionCode":"CO","latitude":40.53026,"longitude":-104.71135},{"id":171508,"wikiDataId":"Q490813","type":"ADM2","city":"Eaton County","name":"Eaton County","country":"United States of America","countryCode":"US","region":"Michigan","regionCode":"MI","latitude":42.59607,"longitude":-84.83831},{"id":123786,"wikiDataId":"Q2549110","type":"CITY","city":"Eaton Estates","name":"Eaton Estates","country":"United States of America","countryCode":"US","region":"Ohio","regionCode":"OH","latitude":41.30894,"longitude":-82.0057},{"id":121523,"wikiDataId":"Q578282","type":"CITY","city":"Eaton Rapids","name":"Eaton Rapids","country":"United States of America","countryCode":"US","region":"Michigan","regionCode":"MI","latitude":42.5092,"longitude":-84.65581},{"id":123398,"wikiDataId":"Q3461752","type":"CITY","city":"Eatons Neck","name":"Eatons Neck","country":"United States of America","countryCode":"US","region":"New York","regionCode":"NY","latitude":40.93065,"longitude":-73.40151},
{"id":114583,"wikiDataId":"Q1010015","type":"CITY","city":"Eatonton","name":"Eatonton","country":"United States of America","countryCode":"US","region":"Georgia","regionCode":"GA","latitude":33.3268,"longitude":-83.3885},{"id":122265,"wikiDataId":"Q1084454","type":"CITY","city":"Eatontown","name":"Eatontown","country":"United States of America","countryCode":"US","region":"New Jersey","regionCode":"NJ","latitude":40.29622,"longitude":-74.05097},{"id":113720,"wikiDataId":"Q1992883","type":"CITY","city":"Eatonville","name":"Eatonville","country":"United States of America","countryCode":"US","region":"Florida","regionCode":"FL","latitude":28.61472,"longitude":-81.38062},{"id":128227,"wikiDataId":"Q1515430","type":"CITY","city":"Eatonville","name":"Eatonville","country":"United States of America","countryCode":"US","region":"Washington","regionCode":"WA","latitude":46.86733,"longitude":-122.2665},{"id":125728,"wikiDataId":"Q122563","type":"CITY","city":"Eau Claire","name":"Eau Claire","country":"United States of America","countryCode":"US","region":"Wisconsin","regionCode":"WI","latitude":44.81135,"longitude":-91.49849},{"id":172049,"wikiDataId":"Q484133","type":"ADM2","city":"Eau Claire County","name":"Eau Claire County","country":"United States of America","countryCode":"US","region":"Wisconsin","regionCode":"WI","latitude":44.72677,"longitude":-91.286},{"id":124251,"wikiDataId":"Q1130214","type":"CITY","city":"Ebensburg","name":"Ebensburg","country":"United States of America","countryCode":"US","region":"Pennsylvania","regionCode":"PA","latitude":40.48507,"longitude":-78.72474},{"id":116465,"wikiDataId":"Q1085753","type":"CITY","city":"Echelon","name":"Echelon","country":"United States of America","countryCode":"US","region":"New Jersey","regionCode":"NJ","latitude":39.84845,"longitude":-74.99572},{"id":129495,"type":"CITY","city":"Echo Park","name":"Echo Park","country":"United States of America","countryCode":"US","region":"California","regionCode":"CA","latitude":34.07808,"longitude":-118.26066},{"id":169861,"wikiDataId":"Q493029","type":"ADM2","city":"Echols County","name":"Echols County","country":"United States of America","countryCode":"US","region":"Georgia","regionCode":"GA","latitude":30.71009,"longitude":-82.89394},
{"id":113079,"wikiDataId":"Q67141","type":"CITY","city":"Eclectic","name":"Eclectic","country":"United States of America","countryCode":"US","region":"Alabama","regionCode":"AL","latitude":32.63541,"longitude":-86.03441},{"id":124459,"wikiDataId":"Q521011","type":"CITY","city":"Economy","name":"Economy","country":"United States of America","countryCode":"US","region":"Pennsylvania","regionCode":"PA","latitude":40.60007,"longitude":-80.22478},{"id":121711,"wikiDataId":"Q2514286","type":"CITY","city":"Ecorse","name":"Ecorse","country":"United States of America","countryCode":"US","region":"Michigan","regionCode":"MI","latitude":42.24448,"longitude":-83.14576},{"id":172318,"wikiDataId":"Q109810","type":"ADM2","city":"Ector County","name":"Ector County","country":"United States of America","countryCode":"US","region":"Texas","regionCode":"TX","latitude":31.86916,"longitude":-102.54276},{"id":118820,"wikiDataId":"Q981965","type":"CITY","city":"Edcouch","name":"Edcouch","country":"United States of America","countryCode":"US","region":"Texas","regionCode":"TX","latitude":26.29396,"longitude":-97.96056},{"id":121456,"wikiDataId":"Q3476939","type":"CITY","city":"Eddington","name":"Eddington","country":"United States of America","countryCode":"US","region":"Maine","regionCode":"ME","latitude":44.82618,"longitude":-68.69337},{"id":124255,"wikiDataId":"Q5336601","type":"CITY","city":"Eddington","name":"Eddington","country":"United States of America","countryCode":"US","region":"Pennsylvania","regionCode":"PA","latitude":40.08456,"longitude":-74.94489},{"id":171678,"wikiDataId":"Q48863","type":"ADM2","city":"Eddy County","name":"Eddy County","country":"United States of America","countryCode":"US","region":"North Dakota","regionCode":"ND","latitude":47.71759,"longitude":-98.90158},{"id":172255,"wikiDataId":"Q485245","type":"ADM2","city":"Eddy County","name":"Eddy County","country":"United States of America","countryCode":"US","region":"New Mexico","regionCode":"NM","latitude":32.47149,"longitude":-104.30431},{"id":117098,"wikiDataId":"Q1132373","type":"CITY","city":"Eddystone","name":"Eddystone","country":"United States of America","countryCode":"US","region":"Pennsylvania","regionCode":"PA","latitude":39.86011,"longitude":-75.34436},
{"id":114124,"wikiDataId":"Q2478869","type":"CITY","city":"Eddyville","name":"Eddyville","country":"United States of America","countryCode":"US","region":"Kentucky","regionCode":"KY","latitude":37.0945,"longitude":-88.0803},{"id":119565,"wikiDataId":"Q990626","type":"CITY","city":"Eddyville","name":"Eddyville","country":"United States of America","countryCode":"US","region":"Iowa","regionCode":"IA","latitude":41.1565,"longitude":-92.63739},{"id":116297,"wikiDataId":"Q1283521","type":"CITY","city":"Eden","name":"Eden","country":"United States of America","countryCode":"US","region":"North Carolina","regionCode":"NC","latitude":36.48847,"longitude":-79.7667},{"id":119029,"wikiDataId":"Q973537","type":"CITY","city":"Eden","name":"Eden","country":"United States of America","countryCode":"US","region":"Texas","regionCode":"TX","latitude":31.21628,"longitude":-99.84563},{"id":123688,"wikiDataId":"Q2861937","type":"CITY","city":"Eden","name":"Eden","country":"United States of America","countryCode":"US","region":"New York","regionCode":"NY","latitude":42.65228,"longitude":-78.89698},{"id":115433,"wikiDataId":"Q2442676","type":"CITY","city":"Eden Isle","name":"Eden Isle","country":"United States of America","countryCode":"US","region":"Louisiana","regionCode":"LA","latitude":30.22853,"longitude":-89.79867},{"id":121917,"wikiDataId":"Q985558","type":"CITY","city":"Eden Prairie","name":"Eden Prairie","country":"United States of America","countryCode":"US","region":"Minnesota","regionCode":"MN","latitude":44.85469,"longitude":-93.47079},{"id":121763,"wikiDataId":"Q1865486","type":"CITY","city":"Eden Valley","name":"Eden Valley","country":"United States of America","countryCode":"US","region":"Minnesota","regionCode":"MN","latitude":45.32607,"longitude":-94.54611},{"id":116762,"wikiDataId":"Q2028258","type":"CITY","city":"Edenton","name":"Edenton","country":"United States of America","countryCode":"US","region":"North Carolina","regionCode":"NC","latitude":36.05794,"longitude":-76.60772},{"id":125406,"wikiDataId":"Q2540991","type":"CITY","city":"Edgar","name":"Edgar","country":"United States of America","countryCode":"US","region":"Wisconsin","regionCode":"WI","latitude":44.92719,"longitude":-89.96346},
{"id":169987,"wikiDataId":"Q484124","type":"ADM2","city":"Edgar County","name":"Edgar County","country":"United States of America","countryCode":"US","region":"Illinois","regionCode":"IL","latitude":39.67853,"longitude":-87.74557},{"id":115899,"wikiDataId":"Q3302605","type":"CITY","city":"Edgard","name":"Edgard","country":"United States of America","countryCode":"US","region":"Louisiana","regionCode":"LA","latitude":30.04326,"longitude":-90.56009},{"id":120411,"wikiDataId":"Q985233","type":"CITY","city":"Edgartown","name":"Edgartown","country":"United States of America","countryCode":"US","region":"Massachusetts","regionCode":"MA","latitude":41.38901,"longitude":-70.51336},{"id":118855,"wikiDataId":"Q975372","type":"CITY","city":"Edgecliff Village","name":"Edgecliff Village","country":"United States of America","countryCode":"US","region":"Texas","regionCode":"TX","latitude":32.65763,"longitude":-97.34279},{"id":121247,"type":"CITY","city":"Edgecomb","name":"Edgecomb","country":"United States of America","countryCode":"US","region":"Maine","regionCode":"ME","latitude":43.95841,"longitude":-69.6306},{"id":170575,"wikiDataId":"Q118127","type":"ADM2","city":"Edgecombe County","name":"Edgecombe County","country":"United States of America","countryCode":"US","region":"North Carolina","regionCode":"NC","latitude":35.91298,"longitude":-77.59707},{"id":117274,"wikiDataId":"Q1016590","type":"CITY","city":"Edgefield","name":"Edgefield","country":"United States of America","countryCode":"US","region":"South Carolina","regionCode":"SC","latitude":33.78958,"longitude":-81.92956},{"id":170779,"wikiDataId":"Q495096","type":"ADM2","city":"Edgefield County","name":"Edgefield County","country":"United States of America","countryCode":"US","region":"South Carolina","regionCode":"SC","latitude":33.77229,"longitude":-81.96658},{"id":115218,"wikiDataId":"Q754445","type":"CITY","city":"Edgemere","name":"Edgemere","country":"United States of America","countryCode":"US","region":"Maryland","regionCode":"MD","latitude":39.24205,"longitude":-76.44802},{"id":123188,"type":"CITY","city":"Edgemere","name":"Edgemere","country":"United States of America","countryCode":"US","region":"New York","regionCode":"NY","latitude":40.59622,"longitude":-73.76763},
{"id":121582,"wikiDataId":"Q2136198","type":"CITY","city":"Edgemont Park","name":"Edgemont Park","country":"United States of America","countryCode":"US","region":"Michigan","regionCode":"MI","latitude":42.7467,"longitude":-84.59359},{"id":113405,"wikiDataId":"Q586805","type":"CITY","city":"Edgemoor","name":"Edgemoor","country":"United States of America","countryCode":"US","region":"Delaware","regionCode":"DE","latitude":39.75011,"longitude":-75.49964},{"id":114944,"wikiDataId":"Q2654605","type":"CITY","city":"Edgerton","name":"Edgerton","country":"United States of America","countryCode":"US","region":"Kansas","regionCode":"KS","latitude":38.76473,"longitude":-95.00802},{"id":122034,"wikiDataId":"Q2230895","type":"CITY","city":"Edgerton","name":"Edgerton","country":"United States of America","countryCode":"US","region":"Minnesota","regionCode":"MN","latitude":43.87247,"longitude":-96.12864},{"id":124061,"wikiDataId":"Q2666993","type":"CITY","city":"Edgerton","name":"Edgerton","country":"United States of America","countryCode":"US","region":"Ohio","regionCode":"OH","latitude":41.44866,"longitude":-84.74801},{"id":125960,"wikiDataId":"Q1569885","type":"CITY","city":"Edgerton","name":"Edgerton","country":"United States of America","countryCode":"US","region":"Wisconsin","regionCode":"WI","latitude":42.83528,"longitude":-89.06761},{"id":113984,"wikiDataId":"Q2227289","type":"CITY","city":"Edgewater","name":"Edgewater","country":"United States of America","countryCode":"US","region":"Florida","regionCode":"FL","latitude":28.98888,"longitude":-80.90228},{"id":115734,"wikiDataId":"Q5337831","type":"CITY","city":"Edgewater","name":"Edgewater","country":"United States of America","countryCode":"US","region":"Maryland","regionCode":"MD","latitude":38.95706,"longitude":-76.54996},{"id":120290,"wikiDataId":"Q3047557","type":"CITY","city":"Edgewater","name":"Edgewater","country":"United States of America","countryCode":"US","region":"Illinois","regionCode":"IL","latitude":41.98337,"longitude":-87.66395},{"id":122913,"wikiDataId":"Q178035","type":"CITY","city":"Edgewater","name":"Edgewater","country":"United States of America","countryCode":"US","region":"New Jersey","regionCode":"NJ","latitude":40.82704,"longitude":-73.97569},
{"id":126780,"wikiDataId":"Q2129231","type":"CITY","city":"Edgewater","name":"Edgewater","country":"United States of America","countryCode":"US","region":"Colorado","regionCode":"CO","latitude":39.75304,"longitude":-105.06415},{"id":122401,"type":"CITY","city":"Edgewater Park","name":"Edgewater Park","country":"United States of America","countryCode":"US","region":"New Jersey","regionCode":"NJ","latitude":40.06817,"longitude":-74.90072},{"id":113979,"wikiDataId":"Q2153764","type":"CITY","city":"Edgewood","name":"Edgewood","country":"United States of America","countryCode":"US","region":"Florida","regionCode":"FL","latitude":28.48612,"longitude":-81.37229},{"id":114663,"wikiDataId":"Q2695538","type":"CITY","city":"Edgewood","name":"Edgewood","country":"United States of America","countryCode":"US","region":"Kentucky","regionCode":"KY","latitude":39.01867,"longitude":-84.58189},{"id":116038,"wikiDataId":"Q755908","type":"CITY","city":"Edgewood","name":"Edgewood","country":"United States of America","countryCode":"US","region":"Maryland","regionCode":"MD","latitude":39.41872,"longitude":-76.2944},{"id":118288,"wikiDataId":"Q970916","type":"CITY","city":"Edgewood","name":"Edgewood","country":"United States of America","countryCode":"US","region":"Texas","regionCode":"TX","latitude":32.69818,"longitude":-95.88524},{"id":120323,"wikiDataId":"Q2473132","type":"CITY","city":"Edgewood","name":"Edgewood","country":"United States of America","countryCode":"US","region":"Indiana","regionCode":"IN","latitude":40.10337,"longitude":-85.73414},{"id":123479,"wikiDataId":"Q2221831","type":"CITY","city":"Edgewood","name":"Edgewood","country":"United States of America","countryCode":"US","region":"Ohio","regionCode":"OH","latitude":41.87283,"longitude":-80.77286},{"id":124543,"wikiDataId":"Q1134644","type":"CITY","city":"Edgewood","name":"Edgewood","country":"United States of America","countryCode":"US","region":"Pennsylvania","regionCode":"PA","latitude":40.43201,"longitude":-79.88144},{"id":127139,"wikiDataId":"Q2151287","type":"CITY","city":"Edgewood","name":"Edgewood","country":"United States of America","countryCode":"US","region":"New Mexico","regionCode":"NM","latitude":35.06144,"longitude":-106.19141},
{"id":128588,"wikiDataId":"Q1508050","type":"CITY","city":"Edgewood","name":"Edgewood","country":"United States of America","countryCode":"US","region":"Washington","regionCode":"WA","latitude":47.2501,"longitude":-122.29373},{"id":125056,"wikiDataId":"Q1130822","type":"CITY","city":"Edgeworth","name":"Edgeworth","country":"United States of America","countryCode":"US","region":"Pennsylvania","regionCode":"PA","latitude":40.55118,"longitude":-80.19284},{"id":119928,"wikiDataId":"Q959969","type":"CITY","city":"Edina","name":"Edina","country":"United States of America","countryCode":"US","region":"Missouri","regionCode":"MO","latitude":40.16754,"longitude":-92.17268},{"id":121292,"wikiDataId":"Q957763","type":"CITY","city":"Edina","name":"Edina","country":"United States of America","countryCode":"US","region":"Minnesota","regionCode":"MN","latitude":44.88969,"longitude":-93.34995},{"id":125045,"wikiDataId":"Q1132020","type":"CITY","city":"Edinboro","name":"Edinboro","country":"United States of America","countryCode":"US","region":"Pennsylvania","regionCode":"PA","latitude":41.87422,"longitude":-80.13172},{"id":114101,"wikiDataId":"Q2475431","type":"CITY","city":"Edinburg","name":"Edinburg","country":"United States of America","countryCode":"US","region":"Illinois","regionCode":"IL","latitude":39.65727,"longitude":-89.38953},{"id":119080,"wikiDataId":"Q978246","type":"CITY","city":"Edinburg","name":"Edinburg","country":"United States of America","countryCode":"US","region":"Texas","regionCode":"TX","latitude":26.30174,"longitude":-98.16334},{"id":119393,"wikiDataId":"Q1375136","type":"CITY","city":"Edinburg","name":"Edinburg","country":"United States of America","countryCode":"US","region":"Virginia","regionCode":"VA","latitude":38.82095,"longitude":-78.56585},{"id":123522,"wikiDataId":"Q3708962","type":"CITY","city":"Edinburg","name":"Edinburg","country":"United States of America","countryCode":"US","region":"New York","regionCode":"NY","latitude":43.22174,"longitude":-74.10402},{"id":114760,"wikiDataId":"Q2617448","type":"CITY","city":"Edinburgh","name":"Edinburgh","country":"United States of America","countryCode":"US","region":"Indiana","regionCode":"IN","latitude":39.35422,"longitude":-85.96666},
{"id":114765,"wikiDataId":"Q2700555","type":"CITY","city":"Edison","name":"Edison","country":"United States of America","countryCode":"US","region":"Georgia","regionCode":"GA","latitude":31.55823,"longitude":-84.73825},{"id":122901,"type":"CITY","city":"Edison","name":"Edison","country":"United States of America","countryCode":"US","region":"New Jersey","regionCode":"NJ","latitude":40.51872,"longitude":-74.4121},{"id":117603,"type":"CITY","city":"Edisto","name":"Edisto","country":"United States of America","countryCode":"US","region":"South Carolina","regionCode":"SC","latitude":33.47654,"longitude":-80.8987},{"id":117403,"wikiDataId":"Q862645","type":"CITY","city":"Edmond","name":"Edmond","country":"United States of America","countryCode":"US","region":"Oklahoma","regionCode":"OK","latitude":35.65283,"longitude":-97.4781},{"id":128940,"wikiDataId":"Q1055845","type":"CITY","city":"Edmonds","name":"Edmonds","country":"United States of America","countryCode":"US","region":"Washington","regionCode":"WA","latitude":47.81065,"longitude":-122.37736},{"id":170186,"wikiDataId":"Q500742","type":"ADM2","city":"Edmonson County","name":"Edmonson County","country":"United States of America","countryCode":"US","region":"Kentucky","regionCode":"KY","latitude":37.20884,"longitude":-86.23862},{"id":115551,"wikiDataId":"Q754767","type":"CITY","city":"Edmonston","name":"Edmonston","country":"United States of America","countryCode":"US","region":"Maryland","regionCode":"MD","latitude":38.94678,"longitude":-76.93109},{"id":114726,"wikiDataId":"Q669416","type":"CITY","city":"Edmonton","name":"Edmonton","country":"United States of America","countryCode":"US","region":"Kentucky","regionCode":"KY","latitude":36.98006,"longitude":-85.61219},{"id":121590,"wikiDataId":"Q2228001","type":"CITY","city":"Edmore","name":"Edmore","country":"United States of America","countryCode":"US","region":"Michigan","regionCode":"MI","latitude":43.40809,"longitude":-85.03863},{"id":171987,"wikiDataId":"Q179954","type":"ADM2","city":"Edmunds County","name":"Edmunds County","country":"United States of America","countryCode":"US","region":"South Dakota","regionCode":"SD","latitude":45.4188,"longitude":-99.21533},
{"id":112292,"wikiDataId":"Q973102","type":"CITY","city":"Edna","name":"Edna","country":"United States of America","countryCode":"US","region":"Texas","regionCode":"TX","latitude":28.97859,"longitude":-96.64609},{"id":116554,"wikiDataId":"Q5672835","type":"CITY","city":"Edneyville","name":"Edneyville","country":"United States of America","countryCode":"US","region":"North Carolina","regionCode":"NC","latitude":35.39401,"longitude":-82.34095},{"id":116793,"wikiDataId":"Q1925376","type":"CITY","city":"Edwards","name":"Edwards","country":"United States of America","countryCode":"US","region":"Mississippi","regionCode":"MS","latitude":32.33015,"longitude":-90.60565},{"id":126935,"wikiDataId":"Q534396","type":"CITY","city":"Edwards","name":"Edwards","country":"United States of America","countryCode":"US","region":"Colorado","regionCode":"CO","latitude":39.64499,"longitude":-106.5942},{"id":130017,"type":"CITY","city":"Edwards Air Force Base","name":"Edwards Air Force Base","country":"United States of America","countryCode":"US","region":"California","regionCode":"CA","latitude":34.91637,"longitude":-117.93535},{"id":169985,"wikiDataId":"Q112488","type":"ADM2","city":"Edwards County","name":"Edwards County","country":"United States of America","countryCode":"US","region":"Illinois","regionCode":"IL","latitude":38.41653,"longitude":-88.05327},{"id":170094,"wikiDataId":"Q376764","type":"ADM2","city":"Edwards County","name":"Edwards County","country":"United States of America","countryCode":"US","region":"Kansas","regionCode":"KS","latitude":37.88765,"longitude":-99.31217},{"id":172315,"wikiDataId":"Q26595","type":"ADM2","city":"Edwards County","name":"Edwards County","country":"United States of America","countryCode":"US","region":"Texas","regionCode":"TX","latitude":29.98263,"longitude":-100.30474},{"id":121256,"wikiDataId":"Q2591312","type":"CITY","city":"Edwardsburg","name":"Edwardsburg","country":"United States of America","countryCode":"US","region":"Michigan","regionCode":"MI","latitude":41.7956,"longitude":-86.08084},{"id":114396,"wikiDataId":"Q2159100","type":"CITY","city":"Edwardsville","name":"Edwardsville","country":"United States of America","countryCode":"US","region":"Kansas","regionCode":"KS","latitude":39.06112,"longitude":-94.81968},
{"id":114607,"wikiDataId":"Q577939","type":"CITY","city":"Edwardsville","name":"Edwardsville","country":"United States of America","countryCode":"US","region":"Illinois","regionCode":"IL","latitude":38.81144,"longitude":-89.95316},{"id":124244,"wikiDataId":"Q1133659","type":"CITY","city":"Edwardsville","name":"Edwardsville","country":"United States of America","countryCode":"US","region":"Pennsylvania","regionCode":"PA","latitude":41.26953,"longitude":-75.91631},{"id":114250,"wikiDataId":"Q577958","type":"CITY","city":"Effingham","name":"Effingham","country":"United States of America","countryCode":"US","region":"Illinois","regionCode":"IL","latitude":39.12004,"longitude":-88.54338},{"id":122652,"wikiDataId":"Q2430133","type":"CITY","city":"Effingham","name":"Effingham","country":"United States of America","countryCode":"US","region":"New Hampshire","regionCode":"NH","latitude":43.76119,"longitude":-70.99645},{"id":169863,"wikiDataId":"Q156637","type":"ADM2","city":"Effingham County","name":"Effingham County","country":"United States of America","countryCode":"US","region":"Georgia","regionCode":"GA","latitude":32.36731,"longitude":-81.34134},{"id":169988,"wikiDataId":"Q110561","type":"ADM2","city":"Effingham County","name":"Effingham County","country":"United States of America","countryCode":"US","region":"Illinois","regionCode":"IL","latitude":39.05977,"longitude":-88.58986},{"id":124749,"wikiDataId":"Q5347511","type":"CITY","city":"Effort","name":"Effort","country":"United States of America","countryCode":"US","region":"Pennsylvania","regionCode":"PA","latitude":40.93926,"longitude":-75.43491},{"id":116984,"wikiDataId":"Q1082961","type":"CITY","city":"Egg Harbor City","name":"Egg Harbor City","country":"United States of America","countryCode":"US","region":"New Jersey","regionCode":"NJ","latitude":39.52873,"longitude":-74.64794},{"id":124046,"wikiDataId":"Q5347902","type":"CITY","city":"Eggertsville","name":"Eggertsville","country":"United States of America","countryCode":"US","region":"New York","regionCode":"NY","latitude":42.96339,"longitude":-78.80392},{"id":128251,"wikiDataId":"Q1298115","type":"CITY","city":"Eglin Air Force Base","name":"Eglin Air Force Base","country":"United States of America","countryCode":"US","region":"Florida","regionCode":"FL","latitude":30.45907,"longitude":-86.55026},
{"id":113662,"type":"CITY","city":"Eglin Village","name":"Eglin Village","country":"United States of America","countryCode":"US","region":"Florida","regionCode":"FL","latitude":30.46298,"longitude":-86.5394},{"id":124209,"wikiDataId":"Q5348306","type":"CITY","city":"Egypt","name":"Egypt","country":"United States of America","countryCode":"US","region":"Pennsylvania","regionCode":"PA","latitude":40.6801,"longitude":-75.52991},{"id":113319,"wikiDataId":"Q2464022","type":"CITY","city":"Egypt Lake-Leto","name":"Egypt Lake-Leto","country":"United States of America","countryCode":"US","region":"Florida","regionCode":"FL","latitude":28.01769,"longitude":-82.50619},{"id":125730,"wikiDataId":"Q1299923","type":"CITY","city":"Ehrenberg","name":"Ehrenberg","country":"United States of America","countryCode":"US","region":"Arizona","regionCode":"AZ","latitude":33.60419,"longitude":-114.52523},{"id":127239,"wikiDataId":"Q181297","type":"CITY","city":"Eidson Road","name":"Eidson Road","country":"United States of America","countryCode":"US","region":"Texas","regionCode":"TX","latitude":28.6772,"longitude":-100.48702},{"id":129263,"type":"CITY","city":"Eielson Air Force Base","name":"Eielson Air Force Base","country":"United States of America","countryCode":"US","region":"Alaska","regionCode":"AK","latitude":64.66327,"longitude":-147.05442},{"id":127709,"wikiDataId":"Q961306","type":"CITY","city":"Ekalaka","name":"Ekalaka","country":"United States of America","countryCode":"US","region":"Montana","regionCode":"MT","latitude":45.88889,"longitude":-104.55273},{"id":126366,"wikiDataId":"Q369947","type":"CITY","city":"El Cajon","name":"El Cajon","country":"United States of America","countryCode":"US","region":"California","regionCode":"CA","latitude":32.79477,"longitude":-116.96253},{"id":118720,"wikiDataId":"Q969474","type":"CITY","city":"El Campo","name":"El Campo","country":"United States of America","countryCode":"US","region":"Texas","regionCode":"TX","latitude":29.19664,"longitude":-96.26969},{"id":118679,"wikiDataId":"Q971105","type":"CITY","city":"El Cenizo","name":"El Cenizo","country":"United States of America","countryCode":"US","region":"Texas","regionCode":"TX","latitude":27.35224,"longitude":-99.49254},
{"id":126387,"wikiDataId":"Q495369","type":"CITY","city":"El Centro","name":"El Centro","country":"United States of America","countryCode":"US","region":"California","regionCode":"CA","latitude":32.792,"longitude":-115.56305},{"id":126931,"wikiDataId":"Q996569","type":"CITY","city":"El Cerrito","name":"El Cerrito","country":"United States of America","countryCode":"US","region":"California","regionCode":"CA","latitude":37.91576,"longitude":-122.31164},{"id":126514,"wikiDataId":"Q3458276","type":"CITY","city":"El Cerrito Corona","name":"El Cerrito Corona","country":"United States of America","countryCode":"US","region":"California","regionCode":"CA","latitude":33.84057,"longitude":-117.52283},{"id":127237,"type":"CITY","city":"El Cerro","name":"El Cerro","country":"United States of America","countryCode":"US","region":"New Mexico","regionCode":"NM","latitude":34.727,"longitude":-106.71086},{"id":129590,"wikiDataId":"Q5821355","type":"CITY","city":"El Cerro Mission","name":"El Cerro Mission","country":"United States of America","countryCode":"US","region":"New Mexico","regionCode":"NM","latitude":34.76227,"longitude":-106.6445},{"id":112540,"wikiDataId":"Q79489","type":"CITY","city":"El Dorado","name":"El Dorado","country":"United States of America","countryCode":"US","region":"Arkansas","regionCode":"AR","latitude":33.20763,"longitude":-92.66627},{"id":114278,"wikiDataId":"Q630677","type":"CITY","city":"El Dorado","name":"El Dorado","country":"United States of America","countryCode":"US","region":"Kansas","regionCode":"KS","latitude":37.81724,"longitude":-96.86225},{"id":172128,"wikiDataId":"Q108093","type":"ADM2","city":"El Dorado County","name":"El Dorado County","country":"United States of America","countryCode":"US","region":"California","regionCode":"CA","latitude":38.77874,"longitude":-120.52465},{"id":126245,"wikiDataId":"Q2218053","type":"CITY","city":"El Dorado Hills","name":"El Dorado Hills","country":"United States of America","countryCode":"US","region":"California","regionCode":"CA","latitude":38.68574,"longitude":-121.08217},{"id":115106,"wikiDataId":"Q1023032","type":"CITY","city":"El Dorado Springs","name":"El Dorado Springs","country":"United States of America","countryCode":"US","region":"Missouri","regionCode":"MO","latitude":37.87698,"longitude":-94.02133},
{"id":126521,"wikiDataId":"Q1324217","type":"CITY","city":"El Granada","name":"El Granada","country":"United States of America","countryCode":"US","region":"California","regionCode":"CA","latitude":37.50272,"longitude":-122.46942},{"id":126983,"wikiDataId":"Q1324271","type":"CITY","city":"El Jebel","name":"El Jebel","country":"United States of America","countryCode":"US","region":"Colorado","regionCode":"CO","latitude":39.39498,"longitude":-107.09033},{"id":118370,"wikiDataId":"Q981260","type":"CITY","city":"El Lago","name":"El Lago","country":"United States of America","countryCode":"US","region":"Texas","regionCode":"TX","latitude":29.56356,"longitude":-95.04521},{"id":125440,"wikiDataId":"Q79434","type":"CITY","city":"El Mirage","name":"El Mirage","country":"United States of America","countryCode":"US","region":"Arizona","regionCode":"AZ","latitude":33.61309,"longitude":-112.3246},{"id":126809,"wikiDataId":"Q595550","type":"CITY","city":"El Monte","name":"El Monte","country":"United States of America","countryCode":"US","region":"California","regionCode":"CA","latitude":34.06862,"longitude":-118.02757},{"id":120316,"wikiDataId":"Q575590","type":"CITY","city":"El Paso","name":"El Paso","country":"United States of America","countryCode":"US","region":"Illinois","regionCode":"IL","latitude":40.7392,"longitude":-89.01646},{"id":127244,"wikiDataId":"Q16562","type":"CITY","city":"El Paso","name":"El Paso","country":"United States of America","countryCode":"US","region":"Texas","regionCode":"TX","latitude":31.75872,"longitude":-106.48693},{"id":172190,"wikiDataId":"Q111774","type":"ADM2","city":"El Paso County","name":"El Paso County","country":"United States of America","countryCode":"US","region":"Colorado","regionCode":"CO","latitude":38.83209,"longitude":-104.52558},{"id":172316,"wikiDataId":"Q108494","type":"ADM2","city":"El Paso County","name":"El Paso County","country":"United States of America","countryCode":"US","region":"Texas","regionCode":"TX","latitude":31.76855,"longitude":-106.23483},{"id":113625,"wikiDataId":"Q2188511","type":"CITY","city":"El Portal","name":"El Portal","country":"United States of America","countryCode":"US","region":"Florida","regionCode":"FL","latitude":25.85537,"longitude":-80.1931},
{"id":127828,"wikiDataId":"Q3301852","type":"CITY","city":"El Rancho","name":"El Rancho","country":"United States of America","countryCode":"US","region":"New Mexico","regionCode":"NM","latitude":35.88919,"longitude":-106.07975},{"id":117161,"wikiDataId":"Q1017220","type":"CITY","city":"El Reno","name":"El Reno","country":"United States of America","countryCode":"US","region":"Oklahoma","regionCode":"OK","latitude":35.53227,"longitude":-97.95505},{"id":126886,"wikiDataId":"Q2796218","type":"CITY","city":"El Rio","name":"El Rio","country":"United States of America","countryCode":"US","region":"California","regionCode":"CA","latitude":34.23578,"longitude":-119.16383},{"id":126092,"wikiDataId":"Q983859","type":"CITY","city":"El Segundo","name":"El Segundo","country":"United States of America","countryCode":"US","region":"California","regionCode":"CA","latitude":33.91918,"longitude":-118.41647},{"id":126873,"wikiDataId":"Q1024085","type":"CITY","city":"El Sobrante","name":"El Sobrante","country":"United States of America","countryCode":"US","region":"California","regionCode":"CA","latitude":37.97715,"longitude":-122.29525},{"id":127671,"wikiDataId":"Q2731674","type":"CITY","city":"El Valle de Arroyo Seco","name":"El Valle de Arroyo Seco","country":"United States of America","countryCode":"US","region":"New Mexico","regionCode":"NM","latitude":35.9628,"longitude":-106.02947},{"id":126943,"wikiDataId":"Q1847895","type":"CITY","city":"El Verano","name":"El Verano","country":"United States of America","countryCode":"US","region":"California","regionCode":"CA","latitude":38.29769,"longitude":-122.49165},{"id":119530,"wikiDataId":"Q79487","type":"CITY","city":"Elba","name":"Elba","country":"United States of America","countryCode":"US","region":"Alabama","regionCode":"AL","latitude":31.41461,"longitude":-86.06772},{"id":169862,"wikiDataId":"Q492016","type":"ADM2","city":"Elbert County","name":"Elbert County","country":"United States of America","countryCode":"US","region":"Georgia","regionCode":"GA","latitude":34.11679,"longitude":-82.8401},{"id":172189,"wikiDataId":"Q115563","type":"ADM2","city":"Elbert County","name":"Elbert County","country":"United States of America","countryCode":"US","region":"Colorado","regionCode":"CO","latitude":39.28656,"longitude":-104.13589},
{"id":112532,"wikiDataId":"Q68218","type":"CITY","city":"Elberta","name":"Elberta","country":"United States of America","countryCode":"US","region":"Alabama","regionCode":"AL","latitude":30.41436,"longitude":-87.59776},{"id":114344,"wikiDataId":"Q1869391","type":"CITY","city":"Elberton","name":"Elberton","country":"United States of America","countryCode":"US","region":"Georgia","regionCode":"GA","latitude":34.11159,"longitude":-82.86863},{"id":121918,"wikiDataId":"Q2556752","type":"CITY","city":"Elbow Lake","name":"Elbow Lake","country":"United States of America","countryCode":"US","region":"Minnesota","regionCode":"MN","latitude":45.99413,"longitude":-95.97672},{"id":123964,"wikiDataId":"Q5353808","type":"CITY","city":"Elbridge","name":"Elbridge","country":"United States of America","countryCode":"US","region":"New York","regionCode":"NY","latitude":43.03451,"longitude":-76.44799},{"id":120217,"wikiDataId":"Q1868766","type":"CITY","city":"Elburn","name":"Elburn","country":"United States of America","countryCode":"US","region":"Illinois","regionCode":"IL","latitude":41.89225,"longitude":-88.4723},{"id":115903,"wikiDataId":"Q754876","type":"CITY","city":"Eldersburg","name":"Eldersburg","country":"United States of America","countryCode":"US","region":"Maryland","regionCode":"MD","latitude":39.40371,"longitude":-76.95026},{"id":115789,"wikiDataId":"Q540257","type":"CITY","city":"Eldon","name":"Eldon","country":"United States of America","countryCode":"US","region":"Missouri","regionCode":"MO","latitude":38.34836,"longitude":-92.58158},{"id":119629,"wikiDataId":"Q518929","type":"CITY","city":"Eldora","name":"Eldora","country":"United States of America","countryCode":"US","region":"Iowa","regionCode":"IA","latitude":42.36082,"longitude":-93.09965},{"id":114593,"wikiDataId":"Q575401","type":"CITY","city":"Eldorado","name":"Eldorado","country":"United States of America","countryCode":"US","region":"Illinois","regionCode":"IL","latitude":37.81366,"longitude":-88.4381},{"id":125631,"wikiDataId":"Q3710349","type":"CITY","city":"Eldorado","name":"Eldorado","country":"United States of America","countryCode":"US","region":"Wisconsin","regionCode":"WI","latitude":43.82471,"longitude":-88.62178},
{"id":127110,"wikiDataId":"Q664419","type":"CITY","city":"Eldorado","name":"Eldorado","country":"United States of America","countryCode":"US","region":"Texas","regionCode":"TX","latitude":30.86017,"longitude":-100.60093},{"id":127613,"wikiDataId":"Q2399343","type":"CITY","city":"Eldorado at Santa Fe","name":"Eldorado at Santa Fe","country":"United States of America","countryCode":"US","region":"New Mexico","regionCode":"NM","latitude":35.52642,"longitude":-105.93474},{"id":119865,"wikiDataId":"Q1913982","type":"CITY","city":"Eldridge","name":"Eldridge","country":"United States of America","countryCode":"US","region":"Iowa","regionCode":"IA","latitude":41.65809,"longitude":-90.58458},{"id":126881,"wikiDataId":"Q1943479","type":"CITY","city":"Eldridge","name":"Eldridge","country":"United States of America","countryCode":"US","region":"California","regionCode":"CA","latitude":38.3488,"longitude":-122.51081},{"id":119846,"wikiDataId":"Q2054726","type":"CITY","city":"Eleanor","name":"Eleanor","country":"United States of America","countryCode":"US","region":"West Virginia","regionCode":"WV","latitude":38.53759,"longitude":-81.93236},{"id":118759,"wikiDataId":"Q982042","type":"CITY","city":"Electra","name":"Electra","country":"United States of America","countryCode":"US","region":"Texas","regionCode":"TX","latitude":34.02926,"longitude":-98.91896},{"id":128098,"wikiDataId":"Q1506981","type":"CITY","city":"Electric City","name":"Electric City","country":"United States of America","countryCode":"US","region":"Washington","regionCode":"WA","latitude":47.93237,"longitude":-119.03808},{"id":127729,"wikiDataId":"Q1328201","type":"CITY","city":"Elephant Butte","name":"Elephant Butte","country":"United States of America","countryCode":"US","region":"New Mexico","regionCode":"NM","latitude":33.14868,"longitude":-107.18475},{"id":114043,"wikiDataId":"Q629774","type":"CITY","city":"Elfers","name":"Elfers","country":"United States of America","countryCode":"US","region":"Florida","regionCode":"FL","latitude":28.21668,"longitude":-82.72232},{"id":117330,"wikiDataId":"Q3472666","type":"CITY","city":"Elgin","name":"Elgin","country":"United States of America","countryCode":"US","region":"South Carolina","regionCode":"SC","latitude":34.67293,"longitude":-80.71896},
{"id":117463,"wikiDataId":"Q431761","type":"CITY","city":"Elgin","name":"Elgin","country":"United States of America","countryCode":"US","region":"Oklahoma","regionCode":"OK","latitude":34.78035,"longitude":-98.29227},{"id":118091,"wikiDataId":"Q976529","type":"CITY","city":"Elgin","name":"Elgin","country":"United States of America","countryCode":"US","region":"Texas","regionCode":"TX","latitude":30.34965,"longitude":-97.37027},{"id":120131,"wikiDataId":"Q499887","type":"CITY","city":"Elgin","name":"Elgin","country":"United States of America","countryCode":"US","region":"Illinois","regionCode":"IL","latitude":42.03725,"longitude":-88.28119},{"id":121811,"wikiDataId":"Q2230786","type":"CITY","city":"Elgin","name":"Elgin","country":"United States of America","countryCode":"US","region":"Minnesota","regionCode":"MN","latitude":44.13024,"longitude":-92.25156},{"id":127104,"wikiDataId":"Q3050890","type":"CITY","city":"Elgin","name":"Elgin","country":"United States of America","countryCode":"US","region":"Oregon","regionCode":"OR","latitude":45.56486,"longitude":-117.91743},{"id":123824,"wikiDataId":"Q2482637","type":"CITY","city":"Elida","name":"Elida","country":"United States of America","countryCode":"US","region":"Ohio","regionCode":"OH","latitude":40.78866,"longitude":-84.20384},{"id":124831,"wikiDataId":"Q1134194","type":"CITY","city":"Elim","name":"Elim","country":"United States of America","countryCode":"US","region":"Pennsylvania","regionCode":"PA","latitude":40.29785,"longitude":-78.94253},{"id":121427,"wikiDataId":"Q2533865","type":"CITY","city":"Eliot","name":"Eliot","country":"United States of America","countryCode":"US","region":"Maine","regionCode":"ME","latitude":43.15314,"longitude":-70.80006},{"id":119875,"wikiDataId":"Q2595623","type":"CITY","city":"Elizabeth","name":"Elizabeth","country":"United States of America","countryCode":"US","region":"West Virginia","regionCode":"WV","latitude":39.06341,"longitude":-81.39512},{"id":122810,"wikiDataId":"Q138311","type":"CITY","city":"Elizabeth","name":"Elizabeth","country":"United States of America","countryCode":"US","region":"New Jersey","regionCode":"NJ","latitude":40.66399,"longitude":-74.2107},
{"id":124329,"wikiDataId":"Q526217","type":"CITY","city":"Elizabeth","name":"Elizabeth","country":"United States of America","countryCode":"US","region":"Pennsylvania","regionCode":"PA","latitude":40.26924,"longitude":-79.88977},{"id":126475,"wikiDataId":"Q2275058","type":"CITY","city":"Elizabeth","name":"Elizabeth","country":"United States of America","countryCode":"US","region":"Colorado","regionCode":"CO","latitude":39.36027,"longitude":-104.59691},{"id":116429,"wikiDataId":"Q1018467","type":"CITY","city":"Elizabeth City","name":"Elizabeth City","country":"United States of America","countryCode":"US","region":"North Carolina","regionCode":"NC","latitude":36.2946,"longitude":-76.25105},{"id":117367,"wikiDataId":"Q1389138","type":"CITY","city":"Elizabethton","name":"Elizabethton","country":"United States of America","countryCode":"US","region":"Tennessee","regionCode":"TN","latitude":36.34872,"longitude":-82.21069},{"id":114200,"wikiDataId":"Q1331370","type":"CITY","city":"Elizabethtown","name":"Elizabethtown","country":"United States of America","countryCode":"US","region":"Illinois","regionCode":"IL","latitude":37.44588,"longitude":-88.30504},{"id":114690,"wikiDataId":"Q946319","type":"CITY","city":"Elizabethtown","name":"Elizabethtown","country":"United States of America","countryCode":"US","region":"Kentucky","regionCode":"KY","latitude":37.69395,"longitude":-85.85913},{"id":116323,"type":"CITY","city":"Elizabethtown","name":"Elizabethtown","country":"United States of America","countryCode":"US","region":"North Carolina","regionCode":"NC","latitude":34.62934,"longitude":-78.60529},{"id":123343,"wikiDataId":"Q3051302","type":"CITY","city":"Elizabethtown","name":"Elizabethtown","country":"United States of America","countryCode":"US","region":"New York","regionCode":"NY","latitude":44.21616,"longitude":-73.59097},{"id":124699,"wikiDataId":"Q1133974","type":"CITY","city":"Elizabethtown","name":"Elizabethtown","country":"United States of America","countryCode":"US","region":"Pennsylvania","regionCode":"PA","latitude":40.15287,"longitude":-76.60275},{"id":124281,"wikiDataId":"Q1130720","type":"CITY","city":"Elizabethville","name":"Elizabethville","country":"United States of America","countryCode":"US","region":"Pennsylvania","regionCode":"PA","latitude":40.54897,"longitude":-76.81192},
{"id":117239,"wikiDataId":"Q1007885","type":"CITY","city":"Elk City","name":"Elk City","country":"United States of America","countryCode":"US","region":"Oklahoma","regionCode":"OK","latitude":35.41199,"longitude":-99.40426},{"id":170098,"wikiDataId":"Q376546","type":"ADM2","city":"Elk County","name":"Elk County","country":"United States of America","countryCode":"US","region":"Kansas","regionCode":"KS","latitude":37.45369,"longitude":-96.24409},{"id":171925,"wikiDataId":"Q494254","type":"ADM2","city":"Elk County","name":"Elk County","country":"United States of America","countryCode":"US","region":"Pennsylvania","regionCode":"PA","latitude":41.42523,"longitude":-78.64909},{"id":114362,"type":"CITY","city":"Elk Creek","name":"Elk Creek","country":"United States of America","countryCode":"US","region":"Kentucky","regionCode":"KY","latitude":38.10034,"longitude":-85.37107},{"id":126222,"wikiDataId":"Q671314","type":"CITY","city":"Elk Grove","name":"Elk Grove","country":"United States of America","countryCode":"US","region":"California","regionCode":"CA","latitude":38.4088,"longitude":-121.37162},{"id":121050,"wikiDataId":"Q328455","type":"CITY","city":"Elk Grove Village","name":"Elk Grove Village","country":"United States of America","countryCode":"US","region":"Illinois","regionCode":"IL","latitude":42.00392,"longitude":-87.97035},{"id":128738,"wikiDataId":"Q1515942","type":"CITY","city":"Elk Plain","name":"Elk Plain","country":"United States of America","countryCode":"US","region":"Washington","regionCode":"WA","latitude":47.05316,"longitude":-122.39762},{"id":125156,"wikiDataId":"Q974611","type":"CITY","city":"Elk Point","name":"Elk Point","country":"United States of America","countryCode":"US","region":"South Dakota","regionCode":"SD","latitude":42.68333,"longitude":-96.68365},{"id":121090,"wikiDataId":"Q3319758","type":"CITY","city":"Elk Rapids","name":"Elk Rapids","country":"United States of America","countryCode":"US","region":"Michigan","regionCode":"MI","latitude":44.89556,"longitude":-85.41646},{"id":128401,"wikiDataId":"Q483282","type":"CITY","city":"Elk Ridge","name":"Elk Ridge","country":"United States of America","countryCode":"US","region":"Utah","regionCode":"UT","latitude":40.01134,"longitude":-111.67687},
{"id":121250,"wikiDataId":"Q985516","type":"CITY","city":"Elk River","name":"Elk River","country":"United States of America","countryCode":"US","region":"Minnesota","regionCode":"MN","latitude":45.30385,"longitude":-93.56718},{"id":119547,"wikiDataId":"Q1933401","type":"CITY","city":"Elk Run Heights","name":"Elk Run Heights","country":"United States of America","countryCode":"US","region":"Iowa","regionCode":"IA","latitude":42.46693,"longitude":-92.25657},{"id":119093,"wikiDataId":"Q932507","type":"CITY","city":"Elkader","name":"Elkader","country":"United States of America","countryCode":"US","region":"Iowa","regionCode":"IA","latitude":42.85387,"longitude":-91.40542},{"id":114923,"wikiDataId":"Q5364217","type":"CITY","city":"Elkfork","name":"Elkfork","country":"United States of America","countryCode":"US","region":"Kentucky","regionCode":"KY","latitude":37.96481,"longitude":-83.13295},{"id":118543,"wikiDataId":"Q981908","type":"CITY","city":"Elkhart","name":"Elkhart","country":"United States of America","countryCode":"US","region":"Texas","regionCode":"TX","latitude":31.62517,"longitude":-95.5794},{"id":120938,"wikiDataId":"Q2008706","type":"CITY","city":"Elkhart","name":"Elkhart","country":"United States of America","countryCode":"US","region":"Indiana","regionCode":"IN","latitude":41.68199,"longitude":-85.97667},{"id":126843,"wikiDataId":"Q607814","type":"CITY","city":"Elkhart","name":"Elkhart","country":"United States of America","countryCode":"US","region":"Kansas","regionCode":"KS","latitude":37.00808,"longitude":-101.89017},{"id":171422,"wikiDataId":"Q24645","type":"ADM2","city":"Elkhart County","name":"Elkhart County","country":"United States of America","countryCode":"US","region":"Indiana","regionCode":"IN","latitude":41.59738,"longitude":-85.85876},{"id":122977,"wikiDataId":"Q967547","type":"CITY","city":"Elkhorn","name":"Elkhorn","country":"United States of America","countryCode":"US","region":"Nebraska","regionCode":"NE","latitude":41.28639,"longitude":-96.23447},{"id":125303,"wikiDataId":"Q1013673","type":"CITY","city":"Elkhorn","name":"Elkhorn","country":"United States of America","countryCode":"US","region":"Wisconsin","regionCode":"WI","latitude":42.67279,"longitude":-88.54454},
{"id":126382,"wikiDataId":"Q2655751","type":"CITY","city":"Elkhorn","name":"Elkhorn","country":"United States of America","countryCode":"US","region":"California","regionCode":"CA","latitude":36.8244,"longitude":-121.7405},{"id":116229,"wikiDataId":"Q2030863","type":"CITY","city":"Elkin","name":"Elkin","country":"United States of America","countryCode":"US","region":"North Carolina","regionCode":"NC","latitude":36.2443,"longitude":-80.8484},{"id":112341,"type":"CITY","city":"Elkins","name":"Elkins","country":"United States of America","countryCode":"US","region":"Arkansas","regionCode":"AR","latitude":36.00147,"longitude":-94.00825},{"id":119335,"wikiDataId":"Q952594","type":"CITY","city":"Elkins","name":"Elkins","country":"United States of America","countryCode":"US","region":"West Virginia","regionCode":"WV","latitude":38.92594,"longitude":-79.84673},{"id":124188,"wikiDataId":"Q1133596","type":"CITY","city":"Elkland","name":"Elkland","country":"United States of America","countryCode":"US","region":"Pennsylvania","regionCode":"PA","latitude":41.98618,"longitude":-77.31081},{"id":127878,"wikiDataId":"Q945084","type":"CITY","city":"Elko","name":"Elko","country":"United States of America","countryCode":"US","region":"Nevada","regionCode":"NV","latitude":40.83242,"longitude":-115.76312},{"id":172574,"wikiDataId":"Q484401","type":"ADM2","city":"Elko County","name":"Elko County","country":"United States of America","countryCode":"US","region":"Nevada","regionCode":"NV","latitude":41.14583,"longitude":-115.35776},{"id":128705,"wikiDataId":"Q1923863","type":"CITY","city":"Elko New Market","name":"Elko New Market","country":"United States of America","countryCode":"US","region":"Minnesota","regionCode":"MN","latitude":44.56472,"longitude":-93.32694},{"id":115843,"wikiDataId":"Q755962","type":"CITY","city":"Elkridge","name":"Elkridge","country":"United States of America","countryCode":"US","region":"Maryland","regionCode":"MD","latitude":39.21261,"longitude":-76.71358},{"id":114661,"wikiDataId":"Q2094560","type":"CITY","city":"Elkton","name":"Elkton","country":"United States of America","countryCode":"US","region":"Kentucky","regionCode":"KY","latitude":36.81004,"longitude":-87.15417},
{"id":115608,"wikiDataId":"Q754338","type":"CITY","city":"Elkton","name":"Elkton","country":"United States of America","countryCode":"US","region":"Maryland","regionCode":"MD","latitude":39.60678,"longitude":-75.83327},{"id":119974,"wikiDataId":"Q1375226","type":"CITY","city":"Elkton","name":"Elkton","country":"United States of America","countryCode":"US","region":"Virginia","regionCode":"VA","latitude":38.4079,"longitude":-78.62363},{"id":119428,"wikiDataId":"Q1823741","type":"CITY","city":"Elkview","name":"Elkview","country":"United States of America","countryCode":"US","region":"West Virginia","regionCode":"WV","latitude":38.44288,"longitude":-81.4804},{"id":114968,"wikiDataId":"Q2404846","type":"CITY","city":"Ellaville","name":"Ellaville","country":"United States of America","countryCode":"US","region":"Georgia","regionCode":"GA","latitude":32.23821,"longitude":-84.30908},{"id":122203,"wikiDataId":"Q959555","type":"CITY","city":"Ellendale","name":"Ellendale","country":"United States of America","countryCode":"US","region":"North Dakota","regionCode":"ND","latitude":46.00275,"longitude":-98.52705},{"id":128489,"wikiDataId":"Q868684","type":"CITY","city":"Ellensburg","name":"Ellensburg","country":"United States of America","countryCode":"US","region":"Washington","regionCode":"WA","latitude":46.99651,"longitude":-120.54785},{"id":113255,"wikiDataId":"Q2094940","type":"CITY","city":"Ellenton","name":"Ellenton","country":"United States of America","countryCode":"US","region":"Florida","regionCode":"FL","latitude":27.52171,"longitude":-82.5276},{"id":123890,"wikiDataId":"Q3453189","type":"CITY","city":"Ellenville","name":"Ellenville","country":"United States of America","countryCode":"US","region":"New York","regionCode":"NY","latitude":41.71704,"longitude":-74.39571},{"id":116653,"wikiDataId":"Q1842501","type":"CITY","city":"Ellerbe","name":"Ellerbe","country":"United States of America","countryCode":"US","region":"North Carolina","regionCode":"NC","latitude":35.07126,"longitude":-79.76144},{"id":114818,"wikiDataId":"Q2419893","type":"CITY","city":"Ellettsville","name":"Ellettsville","country":"United States of America","countryCode":"US","region":"Indiana","regionCode":"IN","latitude":39.23393,"longitude":-86.625},
{"id":126119,"wikiDataId":"Q3709628","type":"CITY","city":"Ellicott","name":"Ellicott","country":"United States of America","countryCode":"US","region":"Colorado","regionCode":"CO","latitude":38.83833,"longitude":-104.38691},{"id":115864,"wikiDataId":"Q730938","type":"CITY","city":"Ellicott City","name":"Ellicott City","country":"United States of America","countryCode":"US","region":"Maryland","regionCode":"MD","latitude":39.26733,"longitude":-76.79831},{"id":114508,"wikiDataId":"Q1814374","type":"CITY","city":"Ellijay","name":"Ellijay","country":"United States of America","countryCode":"US","region":"Georgia","regionCode":"GA","latitude":34.69481,"longitude":-84.48215},{"id":119667,"wikiDataId":"Q1332224","type":"CITY","city":"Ellington","name":"Ellington","country":"United States of America","countryCode":"US","region":"Connecticut","regionCode":"CT","latitude":41.90399,"longitude":-72.46981},{"id":114131,"wikiDataId":"Q2343851","type":"CITY","city":"Ellinwood","name":"Ellinwood","country":"United States of America","countryCode":"US","region":"Kansas","regionCode":"KS","latitude":38.35557,"longitude":-98.58091},{"id":170187,"wikiDataId":"Q400753","type":"ADM2","city":"Elliott County","name":"Elliott County","country":"United States of America","countryCode":"US","region":"Kentucky","regionCode":"KY","latitude":38.11789,"longitude":-83.09762},{"id":114513,"wikiDataId":"Q2901463","type":"CITY","city":"Ellis","name":"Ellis","country":"United States of America","countryCode":"US","region":"Kansas","regionCode":"KS","latitude":38.93807,"longitude":-99.56067},{"id":170099,"wikiDataId":"Q376069","type":"ADM2","city":"Ellis County","name":"Ellis County","country":"United States of America","countryCode":"US","region":"Kansas","regionCode":"KS","latitude":38.91475,"longitude":-99.31723},{"id":170705,"wikiDataId":"Q485013","type":"ADM2","city":"Ellis County","name":"Ellis County","country":"United States of America","countryCode":"US","region":"Oklahoma","regionCode":"OK","latitude":36.21836,"longitude":-99.7546},{"id":170944,"wikiDataId":"Q110130","type":"ADM2","city":"Ellis County","name":"Ellis County","country":"United States of America","countryCode":"US","region":"Texas","regionCode":"TX","latitude":32.34843,"longitude":-96.79448},
{"id":116555,"wikiDataId":"Q5366032","type":"CITY","city":"Ellisburg","name":"Ellisburg","country":"United States of America","countryCode":"US","region":"New Jersey","regionCode":"NJ","latitude":39.91372,"longitude":-75.01045},{"id":115822,"wikiDataId":"Q952807","type":"CITY","city":"Ellisville","name":"Ellisville","country":"United States of America","countryCode":"US","region":"Missouri","regionCode":"MO","latitude":38.59255,"longitude":-90.58707},{"id":116684,"wikiDataId":"Q528086","type":"CITY","city":"Ellisville","name":"Ellisville","country":"United States of America","countryCode":"US","region":"Mississippi","regionCode":"MS","latitude":31.60405,"longitude":-89.19561},{"id":125072,"wikiDataId":"Q1131957","type":"CITY","city":"Ellport","name":"Ellport","country":"United States of America","countryCode":"US","region":"Pennsylvania","regionCode":"PA","latitude":40.86395,"longitude":-80.25895},{"id":114132,"wikiDataId":"Q180666","type":"CITY","city":"Ellsworth","name":"Ellsworth","country":"United States of America","countryCode":"US","region":"Kansas","regionCode":"KS","latitude":38.73056,"longitude":-98.22811},{"id":122007,"wikiDataId":"Q2075643","type":"CITY","city":"Ellsworth","name":"Ellsworth","country":"United States of America","countryCode":"US","region":"Maine","regionCode":"ME","latitude":44.54341,"longitude":-68.41946},{"id":125096,"wikiDataId":"Q593964","type":"CITY","city":"Ellsworth","name":"Ellsworth","country":"United States of America","countryCode":"US","region":"Wisconsin","regionCode":"WI","latitude":44.73219,"longitude":-92.48741},{"id":170100,"wikiDataId":"Q376059","type":"ADM2","city":"Ellsworth County","name":"Ellsworth County","country":"United States of America","countryCode":"US","region":"Kansas","regionCode":"KS","latitude":38.69663,"longitude":-98.20473},{"id":124743,"wikiDataId":"Q1133201","type":"CITY","city":"Ellwood City","name":"Ellwood City","country":"United States of America","countryCode":"US","region":"Pennsylvania","regionCode":"PA","latitude":40.86173,"longitude":-80.28645},{"id":117018,"wikiDataId":"Q2024336","type":"CITY","city":"Elm City","name":"Elm City","country":"United States of America","countryCode":"US","region":"North Carolina","regionCode":"NC","latitude":35.80655,"longitude":-77.86332},
{"id":128074,"wikiDataId":"Q977776","type":"CITY","city":"Elm Creek","name":"Elm Creek","country":"United States of America","countryCode":"US","region":"Texas","regionCode":"TX","latitude":28.77442,"longitude":-100.49174},{"id":125725,"wikiDataId":"Q2686389","type":"CITY","city":"Elm Grove","name":"Elm Grove","country":"United States of America","countryCode":"US","region":"Wisconsin","regionCode":"WI","latitude":43.04307,"longitude":-88.07898},{"id":113199,"wikiDataId":"Q80177","type":"CITY","city":"Elm Springs","name":"Elm Springs","country":"United States of America","countryCode":"US","region":"Arkansas","regionCode":"AR","latitude":36.20619,"longitude":-94.23437},{"id":128914,"wikiDataId":"Q610930","type":"CITY","city":"Elma","name":"Elma","country":"United States of America","countryCode":"US","region":"Washington","regionCode":"WA","latitude":47.00343,"longitude":-123.40877},{"id":123955,"wikiDataId":"Q3461719","type":"CITY","city":"Elma Center","name":"Elma Center","country":"United States of America","countryCode":"US","region":"New York","regionCode":"NY","latitude":42.82978,"longitude":-78.63614},{"id":119042,"wikiDataId":"Q972273","type":"CITY","city":"Elmendorf","name":"Elmendorf","country":"United States of America","countryCode":"US","region":"Texas","regionCode":"TX","latitude":29.25607,"longitude":-98.33279},{"id":129245,"type":"CITY","city":"Elmendorf Air Force Base","name":"Elmendorf Air Force Base","country":"United States of America","countryCode":"US","region":"Alaska","regionCode":"AK","latitude":61.25703,"longitude":-149.63139},{"id":116110,"wikiDataId":"Q1083176","type":"CITY","city":"Elmer","name":"Elmer","country":"United States of America","countryCode":"US","region":"New Jersey","regionCode":"NJ","latitude":39.59511,"longitude":-75.17018},{"id":120585,"wikiDataId":"Q579542","type":"CITY","city":"Elmhurst","name":"Elmhurst","country":"United States of America","countryCode":"US","region":"Illinois","regionCode":"IL","latitude":41.89947,"longitude":-87.94034},{"id":124067,"wikiDataId":"Q2180242","type":"CITY","city":"Elmhurst","name":"Elmhurst","country":"United States of America","countryCode":"US","region":"New York","regionCode":"NY","latitude":40.73649,"longitude":-73.87791},
{"id":123708,"wikiDataId":"Q934135","type":"CITY","city":"Elmira","name":"Elmira","country":"United States of America","countryCode":"US","region":"New York","regionCode":"NY","latitude":42.0898,"longitude":-76.80773},{"id":123483,"wikiDataId":"Q3452513","type":"CITY","city":"Elmira Heights","name":"Elmira Heights","country":"United States of America","countryCode":"US","region":"New York","regionCode":"NY","latitude":42.1298,"longitude":-76.82079},{"id":123488,"wikiDataId":"Q3300920","type":"CITY","city":"Elmont","name":"Elmont","country":"United States of America","countryCode":"US","region":"New York","regionCode":"NY","latitude":40.70094,"longitude":-73.71291},{"id":119089,"wikiDataId":"Q66310","type":"CITY","city":"Elmore","name":"Elmore","country":"United States of America","countryCode":"US","region":"Alabama","regionCode":"AL","latitude":32.53874,"longitude":-86.31497},{"id":123696,"wikiDataId":"Q2289399","type":"CITY","city":"Elmore","name":"Elmore","country":"United States of America","countryCode":"US","region":"Ohio","regionCode":"OH","latitude":41.47616,"longitude":-83.29576},{"id":169626,"wikiDataId":"Q494630","type":"ADM2","city":"Elmore County","name":"Elmore County","country":"United States of America","countryCode":"US","region":"Alabama","regionCode":"AL","latitude":32.59665,"longitude":-86.14915},{"id":172437,"wikiDataId":"Q486336","type":"ADM2","city":"Elmore County","name":"Elmore County","country":"United States of America","countryCode":"US","region":"Idaho","regionCode":"ID","latitude":43.3539,"longitude":-115.46918},{"id":123294,"wikiDataId":"Q1019259","type":"CITY","city":"Elmsford","name":"Elmsford","country":"United States of America","countryCode":"US","region":"New York","regionCode":"NY","latitude":41.0551,"longitude":-73.82013},{"id":115846,"wikiDataId":"Q2051747","type":"CITY","city":"Elmwood","name":"Elmwood","country":"United States of America","countryCode":"US","region":"Louisiana","regionCode":"LA","latitude":29.95659,"longitude":-90.1898},{"id":121058,"wikiDataId":"Q575921","type":"CITY","city":"Elmwood","name":"Elmwood","country":"United States of America","countryCode":"US","region":"Illinois","regionCode":"IL","latitude":40.77782,"longitude":-89.9665},
{"id":120192,"wikiDataId":"Q1013490","type":"CITY","city":"Elmwood Park","name":"Elmwood Park","country":"United States of America","countryCode":"US","region":"Illinois","regionCode":"IL","latitude":41.92114,"longitude":-87.80923},{"id":122130,"wikiDataId":"Q576499","type":"CITY","city":"Elmwood Park","name":"Elmwood Park","country":"United States of America","countryCode":"US","region":"New Jersey","regionCode":"NJ","latitude":40.90399,"longitude":-74.11848},{"id":116672,"wikiDataId":"Q2668788","type":"CITY","city":"Elmwood Place","name":"Elmwood Place","country":"United States of America","countryCode":"US","region":"Ohio","regionCode":"OH","latitude":39.18728,"longitude":-84.488},{"id":116559,"wikiDataId":"Q2030224","type":"CITY","city":"Elon","name":"Elon","country":"United States of America","countryCode":"US","region":"North Carolina","regionCode":"NC","latitude":36.10291,"longitude":-79.50669},{"id":125244,"wikiDataId":"Q80072","type":"CITY","city":"Eloy","name":"Eloy","country":"United States of America","countryCode":"US","region":"Arizona","regionCode":"AZ","latitude":32.7559,"longitude":-111.55484},{"id":116695,"wikiDataId":"Q2045185","type":"CITY","city":"Elroy","name":"Elroy","country":"United States of America","countryCode":"US","region":"North Carolina","regionCode":"NC","latitude":35.34266,"longitude":-77.90859},{"id":125669,"wikiDataId":"Q1569969","type":"CITY","city":"Elroy","name":"Elroy","country":"United States of America","countryCode":"US","region":"Wisconsin","regionCode":"WI","latitude":43.7408,"longitude":-90.27235},{"id":118236,"wikiDataId":"Q969154","type":"CITY","city":"Elsa","name":"Elsa","country":"United States of America","countryCode":"US","region":"Texas","regionCode":"TX","latitude":26.2934,"longitude":-97.99306},{"id":115556,"wikiDataId":"Q953283","type":"CITY","city":"Elsberry","name":"Elsberry","country":"United States of America","countryCode":"US","region":"Missouri","regionCode":"MO","latitude":39.16672,"longitude":-90.78096},{"id":113838,"wikiDataId":"Q755400","type":"CITY","city":"Elsmere","name":"Elsmere","country":"United States of America","countryCode":"US","region":"Delaware","regionCode":"DE","latitude":39.73928,"longitude":-75.59798},
{"id":114811,"wikiDataId":"Q2477380","type":"CITY","city":"Elsmere","name":"Elsmere","country":"United States of America","countryCode":"US","region":"Kentucky","regionCode":"KY","latitude":39.01256,"longitude":-84.60467},{"id":123328,"type":"CITY","city":"Eltingville","name":"Eltingville","country":"United States of America","countryCode":"US","region":"New York","regionCode":"NY","latitude":40.54538,"longitude":-74.1657},{"id":115332,"wikiDataId":"Q2510375","type":"CITY","city":"Elton","name":"Elton","country":"United States of America","countryCode":"US","region":"Louisiana","regionCode":"LA","latitude":30.48131,"longitude":-92.6957},{"id":124120,"wikiDataId":"Q1134239","type":"CITY","city":"Elverson","name":"Elverson","country":"United States of America","countryCode":"US","region":"Pennsylvania","regionCode":"PA","latitude":40.15676,"longitude":-75.83271},{"id":126960,"wikiDataId":"Q3244057","type":"CITY","city":"Elverta","name":"Elverta","country":"United States of America","countryCode":"US","region":"California","regionCode":"CA","latitude":38.71379,"longitude":-121.46273},{"id":115322,"type":"CITY","city":"Elvins","name":"Elvins","country":"United States of America","countryCode":"US","region":"Missouri","regionCode":"MO","latitude":37.83672,"longitude":-90.5329},{"id":114462,"wikiDataId":"Q596520","type":"CITY","city":"Elwood","name":"Elwood","country":"United States of America","countryCode":"US","region":"Kansas","regionCode":"KS","latitude":39.75555,"longitude":-94.87247},{"id":116489,"type":"CITY","city":"Elwood","name":"Elwood","country":"United States of America","countryCode":"US","region":"New Jersey","regionCode":"NJ","latitude":39.57651,"longitude":-74.71683},{"id":120614,"wikiDataId":"Q2229531","type":"CITY","city":"Elwood","name":"Elwood","country":"United States of America","countryCode":"US","region":"Indiana","regionCode":"IN","latitude":40.27698,"longitude":-85.84192},{"id":121009,"wikiDataId":"Q1334394","type":"CITY","city":"Elwood","name":"Elwood","country":"United States of America","countryCode":"US","region":"Illinois","regionCode":"IL","latitude":41.40392,"longitude":-88.11172},
{"id":122618,"wikiDataId":"Q2061397","type":"CITY","city":"Elwood","name":"Elwood","country":"United States of America","countryCode":"US","region":"Nebraska","regionCode":"NE","latitude":40.59028,"longitude":-99.86095},{"id":123371,"wikiDataId":"Q3462037","type":"CITY","city":"Elwood","name":"Elwood","country":"United States of America","countryCode":"US","region":"New York","regionCode":"NY","latitude":40.84538,"longitude":-73.33512},{"id":128918,"wikiDataId":"Q2890560","type":"CITY","city":"Elwood","name":"Elwood","country":"United States of America","countryCode":"US","region":"Utah","regionCode":"UT","latitude":41.69048,"longitude":-112.14106},{"id":119718,"wikiDataId":"Q1144361","type":"CITY","city":"Ely","name":"Ely","country":"United States of America","countryCode":"US","region":"Iowa","regionCode":"IA","latitude":41.87362,"longitude":-91.58518},{"id":121702,"wikiDataId":"Q514934","type":"CITY","city":"Ely","name":"Ely","country":"United States of America","countryCode":"US","region":"Minnesota","regionCode":"MN","latitude":47.90324,"longitude":-91.86709},{"id":127371,"wikiDataId":"Q844042","type":"CITY","city":"Ely","name":"Ely","country":"United States of America","countryCode":"US","region":"Nevada","regionCode":"NV","latitude":39.24744,"longitude":-114.88863},{"id":123520,"wikiDataId":"Q932561","type":"CITY","city":"Elyria","name":"Elyria","country":"United States of America","countryCode":"US","region":"Ohio","regionCode":"OH","latitude":41.36838,"longitude":-82.10765},{"id":124839,"wikiDataId":"Q1133525","type":"CITY","city":"Elysburg","name":"Elysburg","country":"United States of America","countryCode":"US","region":"Pennsylvania","regionCode":"PA","latitude":40.86453,"longitude":-76.55246},{"id":169865,"wikiDataId":"Q111894","type":"ADM2","city":"Emanuel County","name":"Emanuel County","country":"United States of America","countryCode":"US","region":"Georgia","regionCode":"GA","latitude":32.58976,"longitude":-82.30171},{"id":116347,"wikiDataId":"Q1947381","type":"CITY","city":"Emerald Isle","name":"Emerald Isle","country":"United States of America","countryCode":"US","region":"North Carolina","regionCode":"NC","latitude":34.67794,"longitude":-76.95078},
{"id":126799,"wikiDataId":"Q2042944","type":"CITY","city":"Emerald Lake Hills","name":"Emerald Lake Hills","country":"United States of America","countryCode":"US","region":"California","regionCode":"CA","latitude":37.46466,"longitude":-122.26802},{"id":124933,"wikiDataId":"Q5370464","type":"CITY","city":"Emerald Lakes","name":"Emerald Lakes","country":"United States of America","countryCode":"US","region":"Pennsylvania","regionCode":"PA","latitude":41.08842,"longitude":-75.41963},{"id":129619,"type":"CITY","city":"Emerald Mountain","name":"Emerald Mountain","country":"United States of America","countryCode":"US","region":"Alabama","regionCode":"AL","latitude":32.44793,"longitude":-86.09429},{"id":114183,"wikiDataId":"Q2395129","type":"CITY","city":"Emerson","name":"Emerson","country":"United States of America","countryCode":"US","region":"Georgia","regionCode":"GA","latitude":34.12704,"longitude":-84.75549},{"id":122620,"wikiDataId":"Q1082713","type":"CITY","city":"Emerson","name":"Emerson","country":"United States of America","countryCode":"US","region":"New Jersey","regionCode":"NJ","latitude":40.97621,"longitude":-74.02625},{"id":123431,"type":"CITY","city":"Emerson Hill","name":"Emerson Hill","country":"United States of America","countryCode":"US","region":"New York","regionCode":"NY","latitude":40.60872,"longitude":-74.09598},{"id":172380,"wikiDataId":"Q26738","type":"ADM2","city":"Emery County","name":"Emery County","country":"United States of America","countryCode":"US","region":"Utah","regionCode":"UT","latitude":38.99677,"longitude":-110.70067},{"id":126770,"wikiDataId":"Q499178","type":"CITY","city":"Emeryville","name":"Emeryville","country":"United States of America","countryCode":"US","region":"California","regionCode":"CA","latitude":37.83132,"longitude":-122.28525},{"id":124786,"wikiDataId":"Q1132543","type":"CITY","city":"Emigsville","name":"Emigsville","country":"United States of America","countryCode":"US","region":"Pennsylvania","regionCode":"PA","latitude":40.02176,"longitude":-76.72802},{"id":114276,"wikiDataId":"Q2559655","type":"CITY","city":"Eminence","name":"Eminence","country":"United States of America","countryCode":"US","region":"Kentucky","regionCode":"KY","latitude":38.37007,"longitude":-85.18051},
{"id":115981,"wikiDataId":"Q957307","type":"CITY","city":"Eminence","name":"Eminence","country":"United States of America","countryCode":"US","region":"Missouri","regionCode":"MO","latitude":37.1506,"longitude":-91.35764},{"id":124765,"wikiDataId":"Q680643","type":"CITY","city":"Emmaus","name":"Emmaus","country":"United States of America","countryCode":"US","region":"Pennsylvania","regionCode":"PA","latitude":40.53954,"longitude":-75.49685},{"id":171300,"wikiDataId":"Q110482","type":"ADM2","city":"Emmet County","name":"Emmet County","country":"United States of America","countryCode":"US","region":"Iowa","regionCode":"IA","latitude":43.37802,"longitude":-94.67848},{"id":171509,"wikiDataId":"Q491129","type":"ADM2","city":"Emmet County","name":"Emmet County","country":"United States of America","countryCode":"US","region":"Michigan","regionCode":"MI","latitude":45.58754,"longitude":-84.98147},{"id":119417,"wikiDataId":"Q989465","type":"CITY","city":"Emmetsburg","name":"Emmetsburg","country":"United States of America","countryCode":"US","region":"Iowa","regionCode":"IA","latitude":43.11274,"longitude":-94.68304},{"id":127653,"wikiDataId":"Q988735","type":"CITY","city":"Emmett","name":"Emmett","country":"United States of America","countryCode":"US","region":"Idaho","regionCode":"ID","latitude":43.8735,"longitude":-116.4993},{"id":115128,"wikiDataId":"Q754471","type":"CITY","city":"Emmitsburg","name":"Emmitsburg","country":"United States of America","countryCode":"US","region":"Maryland","regionCode":"MD","latitude":39.70454,"longitude":-77.32693},{"id":172524,"wikiDataId":"Q48917","type":"ADM2","city":"Emmons County","name":"Emmons County","country":"United States of America","countryCode":"US","region":"North Dakota","regionCode":"ND","latitude":46.28502,"longitude":-100.23878},{"id":118086,"wikiDataId":"Q965101","type":"CITY","city":"Emory","name":"Emory","country":"United States of America","countryCode":"US","region":"Texas","regionCode":"TX","latitude":32.87457,"longitude":-95.76552},{"id":119262,"wikiDataId":"Q5373674","type":"CITY","city":"Emory","name":"Emory","country":"United States of America","countryCode":"US","region":"Virginia","regionCode":"VA","latitude":36.77289,"longitude":-81.83623},