[{"id":57332,"wikiDataId":"Q8239185","type":"CITY","city":"Bābra","name":"Bābra","country":"India","countryCode":"IN","region":"Gujarat","regionCode":"GJ","latitude":21.84577,"longitude":71.30544},{"id":57452,"type":"CITY","city":"Bādāmi","name":"Bādāmi","country":"India","countryCode":"IN","region":"Karnataka","regionCode":"KA","latitude":15.91495,"longitude":75.67683},{"id":57180,"wikiDataId":"Q1924964","type":"CITY","city":"Bāg","name":"Bāg","country":"India","countryCode":"IN","region":"Madhya Pradesh","regionCode":"MP","latitude":22.35905,"longitude":74.79052},{"id":57394,"wikiDataId":"Q633164","type":"CITY","city":"Bāgepalli","name":"Bāgepalli","country":"India","countryCode":"IN","region":"Karnataka","regionCode":"KA","latitude":13.78338,"longitude":77.79667},{"id":57552,"wikiDataId":"Q638649","type":"CITY","city":"Bāgeshwar","name":"Bāgeshwar","country":"India","countryCode":"IN","region":"Uttarakhand","regionCode":"UT","latitude":29.83738,"longitude":79.77161},{"id":57139,"wikiDataId":"Q625714","type":"CITY","city":"Bāgha Purāna","name":"Bāgha Purāna","country":"India","countryCode":"IN","region":"Punjab","regionCode":"PB","latitude":30.68809,"longitude":75.09838},{"id":57620,"wikiDataId":"Q624402","type":"CITY","city":"Bāghpat","name":"Bāghpat","country":"India","countryCode":"IN","region":"Uttar Pradesh","regionCode":"UP","latitude":28.94485,"longitude":77.21865},{"id":57616,"wikiDataId":"Q2719910","type":"CITY","city":"Bāgli","name":"Bāgli","country":"India","countryCode":"IN","region":"Madhya Pradesh","regionCode":"MP","latitude":22.64124,"longitude":76.34877},{"id":57559,"type":"CITY","city":"Bāgnān","name":"Bāgnān","country":"India","countryCode":"IN","region":"West Bengal","regionCode":"WB","latitude":22.93338,"longitude":88.13856},{"id":57381,"wikiDataId":"Q633132","type":"CITY","city":"Bāh","name":"Bāh","country":"India","countryCode":"IN","region":"Uttar Pradesh","regionCode":"UP","latitude":26.86912,"longitude":78.59385},
{"id":56790,"wikiDataId":"Q2426646","type":"CITY","city":"Bājna","name":"Bājna","country":"India","countryCode":"IN","region":"Uttar Pradesh","regionCode":"UP","latitude":27.89793,"longitude":77.67836},{"id":147717,"wikiDataId":"Q2022279","type":"ADM2","city":"Bāleshwar","name":"Bāleshwar","country":"India","countryCode":"IN","region":"Odisha","regionCode":"OR","latitude":21.5,"longitude":86.75},{"id":57040,"wikiDataId":"Q632862","type":"CITY","city":"Bāli","name":"Bāli","country":"India","countryCode":"IN","region":"Rajasthan","regionCode":"RJ","latitude":25.19725,"longitude":73.29117},{"id":57274,"wikiDataId":"Q601897","type":"CITY","city":"Bāli","name":"Bāli","country":"India","countryCode":"IN","region":"West Bengal","regionCode":"WB","latitude":22.64859,"longitude":88.34115},{"id":57289,"type":"CITY","city":"Bāli Chak","name":"Bāli Chak","country":"India","countryCode":"IN","region":"West Bengal","regionCode":"WB","latitude":22.36482,"longitude":87.55304},{"id":57411,"wikiDataId":"Q638695","type":"CITY","city":"Bālotra","name":"Bālotra","country":"India","countryCode":"IN","region":"Rajasthan","regionCode":"RJ","latitude":25.83242,"longitude":72.24},{"id":57415,"wikiDataId":"Q632799","type":"CITY","city":"Bālugaon","name":"Bālugaon","country":"India","countryCode":"IN","region":"Odisha","regionCode":"OR","latitude":20.17838,"longitude":85.11327},{"id":57553,"wikiDataId":"Q633291","type":"CITY","city":"Bālurghāt","name":"Bālurghāt","country":"India","countryCode":"IN","region":"West Bengal","regionCode":"WB","latitude":25.22099,"longitude":88.77732},{"id":57209,"type":"CITY","city":"Bālāchor","name":"Bālāchor","country":"India","countryCode":"IN","region":"Punjab","regionCode":"PB","latitude":31.06062,"longitude":76.30166},{"id":147716,"wikiDataId":"Q641904","type":"ADM2","city":"Bālāghāt","name":"Bālāghāt","country":"India","countryCode":"IN","region":"Madhya Pradesh","regionCode":"MP","latitude":21.96667,"longitude":80.33333},
{"id":56984,"type":"CITY","city":"Bālāpur","name":"Bālāpur","country":"India","countryCode":"IN","region":"Telangana","regionCode":"TG","latitude":17.31018,"longitude":78.49969},{"id":57261,"wikiDataId":"Q2315612","type":"CITY","city":"Bālāpur","name":"Bālāpur","country":"India","countryCode":"IN","region":"Maharashtra","regionCode":"MH","latitude":20.66612,"longitude":76.77386},{"id":57467,"wikiDataId":"Q622611","type":"CITY","city":"Bāmor Kalān","name":"Bāmor Kalān","country":"India","countryCode":"IN","region":"Madhya Pradesh","regionCode":"MP","latitude":24.89298,"longitude":78.15105},{"id":57418,"wikiDataId":"Q632773","type":"CITY","city":"Bānapur","name":"Bānapur","country":"India","countryCode":"IN","region":"Odisha","regionCode":"OR","latitude":19.77889,"longitude":85.17033},{"id":147705,"wikiDataId":"Q2131759","type":"ADM2","city":"Bānda","name":"Bānda","country":"India","countryCode":"IN","region":"Uttar Pradesh","regionCode":"UP","latitude":25.5,"longitude":80.5},{"id":57399,"wikiDataId":"Q629203","type":"CITY","city":"Bāndīkūi","name":"Bāndīkūi","country":"India","countryCode":"IN","region":"Rajasthan","regionCode":"RJ","latitude":27.05087,"longitude":76.57325},{"id":57511,"wikiDataId":"Q607333","type":"CITY","city":"Bāngarmau","name":"Bāngarmau","country":"India","countryCode":"IN","region":"Uttar Pradesh","regionCode":"UP","latitude":26.8912,"longitude":80.21149},{"id":57768,"wikiDataId":"Q1609246","type":"CITY","city":"Bānka","name":"Bānka","country":"India","countryCode":"IN","region":"Bihar","regionCode":"BR","latitude":24.88091,"longitude":86.92257},{"id":57347,"wikiDataId":"Q2563333","type":"CITY","city":"Bānki","name":"Bānki","country":"India","countryCode":"IN","region":"Odisha","regionCode":"OR","latitude":20.37912,"longitude":85.52953},{"id":57232,"wikiDataId":"Q1949030","type":"CITY","city":"Bānkura","name":"Bānkura","country":"India","countryCode":"IN","region":"West Bengal","regionCode":"WB","latitude":23.23241,"longitude":87.0716},
{"id":147712,"wikiDataId":"Q2088458","type":"ADM2","city":"Bānkurā","name":"Bānkurā","country":"India","countryCode":"IN","region":"West Bengal","regionCode":"WB","latitude":23.25,"longitude":87.25},{"id":57313,"type":"CITY","city":"Bānposh","name":"Bānposh","country":"India","countryCode":"IN","region":"Odisha","regionCode":"OR","latitude":22.24834,"longitude":84.81044},{"id":57243,"wikiDataId":"Q622607","type":"CITY","city":"Bānsbāria","name":"Bānsbāria","country":"India","countryCode":"IN","region":"West Bengal","regionCode":"WB","latitude":22.95387,"longitude":88.40098},{"id":57156,"wikiDataId":"Q637106","type":"CITY","city":"Bānsdīh","name":"Bānsdīh","country":"India","countryCode":"IN","region":"Uttar Pradesh","regionCode":"UP","latitude":25.88377,"longitude":84.21827},{"id":57435,"wikiDataId":"Q625687","type":"CITY","city":"Bānsgāon","name":"Bānsgāon","country":"India","countryCode":"IN","region":"Uttar Pradesh","regionCode":"UP","latitude":26.55032,"longitude":83.34503},{"id":56846,"wikiDataId":"Q637722","type":"CITY","city":"Bānsi","name":"Bānsi","country":"India","countryCode":"IN","region":"Uttar Pradesh","regionCode":"UP","latitude":27.17749,"longitude":82.93442},{"id":57039,"wikiDataId":"Q3428196","type":"CITY","city":"Bānswāda","name":"Bānswāda","country":"India","countryCode":"IN","region":"Telangana","regionCode":"TG","latitude":18.37725,"longitude":77.88007},{"id":57433,"wikiDataId":"Q633308","type":"CITY","city":"Bānswāra","name":"Bānswāra","country":"India","countryCode":"IN","region":"Rajasthan","regionCode":"RJ","latitude":23.54109,"longitude":74.4425},{"id":57562,"wikiDataId":"Q625718","type":"CITY","city":"Bāntva","name":"Bāntva","country":"India","countryCode":"IN","region":"Gujarat","regionCode":"GJ","latitude":21.48815,"longitude":70.07576},{"id":57762,"type":"CITY","city":"Bānāvar","name":"Bānāvar","country":"India","countryCode":"IN","region":"Karnataka","regionCode":"KA","latitude":13.41029,"longitude":76.16314},
{"id":56920,"wikiDataId":"Q633274","type":"CITY","city":"Bāpatla","name":"Bāpatla","country":"India","countryCode":"IN","region":"Andhra Pradesh","regionCode":"AP","latitude":15.90422,"longitude":80.46743},{"id":147709,"type":"ADM2","city":"Bāra Banki","name":"Bāra Banki","country":"India","countryCode":"IN","region":"Uttar Pradesh","regionCode":"UP","latitude":26.93864,"longitude":81.3274},{"id":147702,"type":"ADM2","city":"Bāramūla","name":"Bāramūla","country":"India","countryCode":"IN","region":"Jammu and Kashmir","regionCode":"JK","latitude":34.19287,"longitude":74.3692},{"id":57544,"wikiDataId":"Q712003","type":"CITY","city":"Bārdoli","name":"Bārdoli","country":"India","countryCode":"IN","region":"Gujarat","regionCode":"GJ","latitude":21.12297,"longitude":73.11151},{"id":57629,"wikiDataId":"Q709313","type":"CITY","city":"Bārh","name":"Bārh","country":"India","countryCode":"IN","region":"Bihar","regionCode":"BR","latitude":25.48339,"longitude":85.70928},{"id":56977,"wikiDataId":"Q707848","type":"CITY","city":"Bāri","name":"Bāri","country":"India","countryCode":"IN","region":"Rajasthan","regionCode":"RJ","latitude":26.64661,"longitude":77.61634},{"id":147701,"wikiDataId":"Q42016","type":"ADM2","city":"Bārmer","name":"Bārmer","country":"India","countryCode":"IN","region":"Rajasthan","regionCode":"RJ","latitude":25.75,"longitude":71.5},{"id":57073,"type":"CITY","city":"Bārsi","name":"Bārsi","country":"India","countryCode":"IN","region":"Maharashtra","regionCode":"MH","latitude":18.23454,"longitude":75.69275},{"id":57082,"wikiDataId":"Q708616","type":"CITY","city":"Bāruipur","name":"Bāruipur","country":"India","countryCode":"IN","region":"West Bengal","regionCode":"WB","latitude":22.35253,"longitude":88.43882},{"id":57142,"type":"CITY","city":"Bāruni","name":"Bāruni","country":"India","countryCode":"IN","region":"Bihar","regionCode":"BR","latitude":25.47509,"longitude":85.96813},
{"id":57233,"wikiDataId":"Q709298","type":"CITY","city":"Bārākpur","name":"Bārākpur","country":"India","countryCode":"IN","region":"West Bengal","regionCode":"WB","latitude":22.76602,"longitude":88.36336},{"id":57218,"type":"CITY","city":"Bārāmati","name":"Bārāmati","country":"India","countryCode":"IN","region":"Maharashtra","regionCode":"MH","latitude":18.15174,"longitude":74.57767},{"id":57694,"wikiDataId":"Q1816726","type":"CITY","city":"Bārān","name":"Bārān","country":"India","countryCode":"IN","region":"Rajasthan","regionCode":"RJ","latitude":25.1,"longitude":76.51667},{"id":57239,"wikiDataId":"Q685315","type":"CITY","city":"Bārāsat","name":"Bārāsat","country":"India","countryCode":"IN","region":"West Bengal","regionCode":"WB","latitude":22.22516,"longitude":88.45086},{"id":56873,"wikiDataId":"Q714617","type":"CITY","city":"Bāsoda","name":"Bāsoda","country":"India","countryCode":"IN","region":"Madhya Pradesh","regionCode":"MP","latitude":23.85153,"longitude":77.93652},{"id":57461,"wikiDataId":"Q712632","type":"CITY","city":"Bāsudebpur","name":"Bāsudebpur","country":"India","countryCode":"IN","region":"Odisha","regionCode":"OR","latitude":21.11974,"longitude":86.72896},{"id":57638,"wikiDataId":"Q712428","type":"CITY","city":"Bāsugaon","name":"Bāsugaon","country":"India","countryCode":"IN","region":"Assam","regionCode":"AS","latitude":26.46742,"longitude":90.41951},{"id":57221,"type":"CITY","city":"Bāsār","name":"Bāsār","country":"India","countryCode":"IN","region":"Arunachal Pradesh","regionCode":"AR","latitude":27.99008,"longitude":94.69451},{"id":57166,"wikiDataId":"Q759164","type":"CITY","city":"Bāwal","name":"Bāwal","country":"India","countryCode":"IN","region":"Haryana","regionCode":"HR","latitude":28.07184,"longitude":76.58312},{"id":57098,"type":"CITY","city":"Bāwāli","name":"Bāwāli","country":"India","countryCode":"IN","region":"West Bengal","regionCode":"WB","latitude":22.42563,"longitude":88.19336},
{"id":56824,"type":"CITY","city":"Bāzpur","name":"Bāzpur","country":"India","countryCode":"IN","region":"Uttarakhand","regionCode":"UT","latitude":29.15299,"longitude":79.10814},{"id":147698,"wikiDataId":"Q1790568","type":"ADM2","city":"Bīdar","name":"Bīdar","country":"India","countryCode":"IN","region":"Karnataka","regionCode":"KA","latitude":18.08333,"longitude":77.33333},{"id":57379,"wikiDataId":"Q796734","type":"CITY","city":"Bīghāpur Khurd","name":"Bīghāpur Khurd","country":"India","countryCode":"IN","region":"Uttar Pradesh","regionCode":"UP","latitude":26.34734,"longitude":80.65698},{"id":56084,"wikiDataId":"Q200718","type":"CITY","city":"Bīkaner","name":"Bīkaner","country":"India","countryCode":"IN","region":"Rajasthan","regionCode":"RJ","latitude":28.01762,"longitude":73.31495},{"id":147683,"wikiDataId":"Q778996","type":"ADM2","city":"Bīkāner","name":"Bīkāner","country":"India","countryCode":"IN","region":"Rajasthan","regionCode":"RJ","latitude":28.16667,"longitude":73.16667},{"id":56098,"wikiDataId":"Q795718","type":"CITY","city":"Bīkāpur","name":"Bīkāpur","country":"India","countryCode":"IN","region":"Uttar Pradesh","regionCode":"UP","latitude":26.59534,"longitude":82.13272},{"id":56593,"type":"CITY","city":"Bīlāspur","name":"Bīlāspur","country":"India","countryCode":"IN","region":"Uttar Pradesh","regionCode":"UP","latitude":28.88655,"longitude":79.2703},{"id":147692,"wikiDataId":"Q2088440","type":"ADM2","city":"Bīrbhūm","name":"Bīrbhūm","country":"India","countryCode":"IN","region":"West Bengal","regionCode":"WB","latitude":24.0,"longitude":87.58333},{"id":55822,"type":"CITY","city":"Bīrpur","name":"Bīrpur","country":"India","countryCode":"IN","region":"Bihar","regionCode":"BR","latitude":26.50823,"longitude":87.01194},{"id":56551,"wikiDataId":"Q858297","type":"CITY","city":"Bīsalpur","name":"Bīsalpur","country":"India","countryCode":"IN","region":"Uttar Pradesh","regionCode":"UP","latitude":28.29253,"longitude":79.80472},
{"id":55799,"wikiDataId":"Q862612","type":"CITY","city":"Būndi","name":"Būndi","country":"India","countryCode":"IN","region":"Rajasthan","regionCode":"RJ","latitude":25.43855,"longitude":75.63735},{"id":56443,"type":"CITY","city":"Būndu","name":"Būndu","country":"India","countryCode":"IN","region":"Jharkhand","regionCode":"JH","latitude":23.16095,"longitude":85.59007},{"id":55782,"type":"CITY","city":"Būriya","name":"Būriya","country":"India","countryCode":"IN","region":"Haryana","regionCode":"HR","latitude":30.15911,"longitude":77.35814},{"id":56356,"wikiDataId":"Q861976","type":"CITY","city":"Calangute","name":"Calangute","country":"India","countryCode":"IN","region":"Goa","regionCode":"GA","latitude":15.5439,"longitude":73.7553},{"id":56834,"type":"CITY","city":"Canacona","name":"Canacona","country":"India","countryCode":"IN","region":"Karnataka","regionCode":"KA","latitude":14.9959,"longitude":74.05056},{"id":56461,"wikiDataId":"Q858424","type":"CITY","city":"Candolim","name":"Candolim","country":"India","countryCode":"IN","region":"Goa","regionCode":"GA","latitude":15.51807,"longitude":73.76259},{"id":56416,"wikiDataId":"Q4886236","type":"CITY","city":"Canning","name":"Canning","country":"India","countryCode":"IN","region":"West Bengal","regionCode":"WB","latitude":22.31453,"longitude":88.66248},{"id":56693,"wikiDataId":"Q2544447","type":"CITY","city":"Captainganj","name":"Captainganj","country":"India","countryCode":"IN","region":"Uttar Pradesh","regionCode":"UP","latitude":26.9264,"longitude":83.71334},{"id":56649,"wikiDataId":"Q861379","type":"CITY","city":"Carapur","name":"Carapur","country":"India","countryCode":"IN","region":"Goa","regionCode":"GA","latitude":15.56588,"longitude":73.98713},{"id":56335,"wikiDataId":"Q5054993","type":"CITY","city":"Cavelossim","name":"Cavelossim","country":"India","countryCode":"IN","region":"Goa","regionCode":"GA","latitude":15.17255,"longitude":73.94194},
{"id":147866,"wikiDataId":"Q107941","type":"ADM2","city":"Central Delhi","name":"Central Delhi","country":"India","countryCode":"IN","region":"Delhi","regionCode":"DL","latitude":28.64857,"longitude":77.21895},{"id":56129,"wikiDataId":"Q3665740","type":"CITY","city":"Chail","name":"Chail","country":"India","countryCode":"IN","region":"Uttar Pradesh","regionCode":"UP","latitude":25.42654,"longitude":81.63198},{"id":56950,"wikiDataId":"Q857735","type":"CITY","city":"Chakapara","name":"Chakapara","country":"India","countryCode":"IN","region":"West Bengal","regionCode":"WB","latitude":22.63222,"longitude":88.34861},{"id":55940,"wikiDataId":"Q3665752","type":"CITY","city":"Chakia","name":"Chakia","country":"India","countryCode":"IN","region":"Uttar Pradesh","regionCode":"UP","latitude":25.04891,"longitude":83.22155},{"id":56586,"wikiDataId":"Q607388","type":"CITY","city":"Chaklāsi","name":"Chaklāsi","country":"India","countryCode":"IN","region":"Gujarat","regionCode":"GJ","latitude":22.6532,"longitude":72.94497},{"id":55976,"wikiDataId":"Q278913","type":"CITY","city":"Chakradharpur","name":"Chakradharpur","country":"India","countryCode":"IN","region":"Jharkhand","regionCode":"JH","latitude":22.67611,"longitude":85.62892},{"id":56235,"wikiDataId":"Q858555","type":"CITY","city":"Chakrāta","name":"Chakrāta","country":"India","countryCode":"IN","region":"Uttarakhand","regionCode":"UT","latitude":30.70369,"longitude":77.86386},{"id":56039,"wikiDataId":"Q861891","type":"CITY","city":"Chaksu","name":"Chaksu","country":"India","countryCode":"IN","region":"Rajasthan","regionCode":"RJ","latitude":26.6051,"longitude":75.94814},{"id":56437,"wikiDataId":"Q2340109","type":"CITY","city":"Challakere","name":"Challakere","country":"India","countryCode":"IN","region":"Karnataka","regionCode":"KA","latitude":14.318,"longitude":76.65165},{"id":55954,"type":"CITY","city":"Challapalle","name":"Challapalle","country":"India","countryCode":"IN","region":"Andhra Pradesh","regionCode":"AP","latitude":16.11756,"longitude":80.93139},
{"id":56353,"wikiDataId":"Q858287","type":"CITY","city":"Chalāla","name":"Chalāla","country":"India","countryCode":"IN","region":"Gujarat","regionCode":"GJ","latitude":21.41073,"longitude":71.16621},{"id":147678,"wikiDataId":"Q1060614","type":"ADM2","city":"Chamba","name":"Chamba","country":"India","countryCode":"IN","region":"Himachal Pradesh","regionCode":"HP","latitude":32.57147,"longitude":76.10229},{"id":147673,"wikiDataId":"Q1797372","type":"ADM2","city":"Chamoli","name":"Chamoli","country":"India","countryCode":"IN","region":"Uttarakhand","regionCode":"UT","latitude":30.5,"longitude":79.5},{"id":147824,"type":"ADM2","city":"Champawat","name":"Champawat","country":"India","countryCode":"IN","region":"Uttarakhand","regionCode":"UT","latitude":29.28756,"longitude":80.03737},{"id":147993,"wikiDataId":"Q1965256","type":"ADM2","city":"Champhai","name":"Champhai","country":"India","countryCode":"IN","region":"Mizoram","regionCode":"MZ","latitude":23.47444,"longitude":93.32556},{"id":147865,"type":"ADM2","city":"Chamrajnagar","name":"Chamrajnagar","country":"India","countryCode":"IN","region":"Karnataka","regionCode":"KA","latitude":11.96,"longitude":77.09},{"id":56673,"wikiDataId":"Q695591","type":"CITY","city":"Chandannagar","name":"Chandannagar","country":"India","countryCode":"IN","region":"West Bengal","regionCode":"WB","latitude":22.86225,"longitude":88.36796},{"id":56201,"wikiDataId":"Q2733368","type":"CITY","city":"Chandauli","name":"Chandauli","country":"India","countryCode":"IN","region":"Uttar Pradesh","regionCode":"UP","latitude":25.25803,"longitude":83.26825},{"id":147953,"type":"ADM2","city":"Chandauli District","name":"Chandauli District","country":"India","countryCode":"IN","region":"Uttar Pradesh","regionCode":"UP","latitude":25.26134,"longitude":83.26408},{"id":56434,"wikiDataId":"Q860192","type":"CITY","city":"Chanderi","name":"Chanderi","country":"India","countryCode":"IN","region":"Madhya Pradesh","regionCode":"MP","latitude":24.71312,"longitude":78.13809},
{"id":56675,"wikiDataId":"Q2446932","type":"CITY","city":"Chandia","name":"Chandia","country":"India","countryCode":"IN","region":"Madhya Pradesh","regionCode":"MP","latitude":23.65647,"longitude":80.70911},{"id":56708,"type":"CITY","city":"Chandigarh","name":"Chandigarh","country":"India","countryCode":"IN","region":"Chandigarh","regionCode":"CH","latitude":30.73629,"longitude":76.7884},{"id":55898,"wikiDataId":"Q858413","type":"CITY","city":"Chandla","name":"Chandla","country":"India","countryCode":"IN","region":"Madhya Pradesh","regionCode":"MP","latitude":25.07148,"longitude":80.19294},{"id":56710,"wikiDataId":"Q859119","type":"CITY","city":"Chandrakona","name":"Chandrakona","country":"India","countryCode":"IN","region":"West Bengal","regionCode":"WB","latitude":22.73333,"longitude":87.51667},{"id":147961,"wikiDataId":"Q1797274","type":"ADM2","city":"Chandrapur","name":"Chandrapur","country":"India","countryCode":"IN","region":"Maharashtra","regionCode":"MH","latitude":20.11793,"longitude":79.44377},{"id":55925,"wikiDataId":"Q858672","type":"CITY","city":"Chanduasi","name":"Chanduasi","country":"India","countryCode":"IN","region":"Uttar Pradesh","regionCode":"UP","latitude":28.45178,"longitude":78.78277},{"id":57630,"wikiDataId":"Q721388","type":"CITY","city":"Chandūr","name":"Chandūr","country":"India","countryCode":"IN","region":"Telangana","regionCode":"TG","latitude":17.87455,"longitude":78.10017},{"id":56271,"type":"CITY","city":"Changanācheri","name":"Changanācheri","country":"India","countryCode":"IN","region":"Kerala","regionCode":"KL","latitude":9.44203,"longitude":76.53604},{"id":148001,"wikiDataId":"Q15427","type":"ADM2","city":"Changlang","name":"Changlang","country":"India","countryCode":"IN","region":"Arunachal Pradesh","regionCode":"AR","latitude":27.36265,"longitude":96.34518},{"id":55946,"type":"CITY","city":"Channagiri","name":"Channagiri","country":"India","countryCode":"IN","region":"Karnataka","regionCode":"KA","latitude":14.02399,"longitude":75.92577},
{"id":56580,"wikiDataId":"Q721354","type":"CITY","city":"Channapatna","name":"Channapatna","country":"India","countryCode":"IN","region":"Karnataka","regionCode":"KA","latitude":12.65143,"longitude":77.20672},{"id":56621,"wikiDataId":"Q886632","type":"CITY","city":"Channarāyapatna","name":"Channarāyapatna","country":"India","countryCode":"IN","region":"Karnataka","regionCode":"KA","latitude":12.90642,"longitude":76.38775},{"id":55937,"wikiDataId":"Q888946","type":"CITY","city":"Charkhi Dādri","name":"Charkhi Dādri","country":"India","countryCode":"IN","region":"Haryana","regionCode":"HR","latitude":28.59166,"longitude":76.27161},{"id":56407,"wikiDataId":"Q886602","type":"CITY","city":"Charkhāri","name":"Charkhāri","country":"India","countryCode":"IN","region":"Uttar Pradesh","regionCode":"UP","latitude":25.40304,"longitude":79.74877},{"id":56608,"type":"CITY","city":"Charthāwal","name":"Charthāwal","country":"India","countryCode":"IN","region":"Uttar Pradesh","regionCode":"UP","latitude":29.54687,"longitude":77.59438},{"id":56613,"wikiDataId":"Q656584","type":"CITY","city":"Chatrapur","name":"Chatrapur","country":"India","countryCode":"IN","region":"Odisha","regionCode":"OR","latitude":19.35574,"longitude":84.98359},{"id":56381,"wikiDataId":"Q5087769","type":"CITY","city":"Chatrā","name":"Chatrā","country":"India","countryCode":"IN","region":"Jharkhand","regionCode":"JH","latitude":24.20645,"longitude":84.87085},{"id":56754,"wikiDataId":"Q2451092","type":"CITY","city":"Chaupāl","name":"Chaupāl","country":"India","countryCode":"IN","region":"Himachal Pradesh","regionCode":"HP","latitude":30.94647,"longitude":77.5884},{"id":56157,"wikiDataId":"Q885611","type":"CITY","city":"Chechat","name":"Chechat","country":"India","countryCode":"IN","region":"Rajasthan","regionCode":"RJ","latitude":24.76667,"longitude":75.88333},{"id":56990,"wikiDataId":"Q886385","type":"CITY","city":"Chemmumiahpet","name":"Chemmumiahpet","country":"India","countryCode":"IN","region":"Andhra Pradesh","regionCode":"AP","latitude":15.89794,"longitude":79.32129},
{"id":56178,"wikiDataId":"Q888598","type":"CITY","city":"Chengam","name":"Chengam","country":"India","countryCode":"IN","region":"Tamil Nadu","regionCode":"TN","latitude":12.30889,"longitude":78.79137},{"id":55844,"wikiDataId":"Q888384","type":"CITY","city":"Chengannūr","name":"Chengannūr","country":"India","countryCode":"IN","region":"Kerala","regionCode":"KL","latitude":9.31575,"longitude":76.61513},{"id":54935,"wikiDataId":"Q1352","type":"CITY","city":"Chennai","name":"Chennai","country":"India","countryCode":"IN","region":"Tamil Nadu","regionCode":"TN","latitude":13.08784,"longitude":80.27847},{"id":56229,"wikiDataId":"Q888377","type":"CITY","city":"Chennimalai","name":"Chennimalai","country":"India","countryCode":"IN","region":"Tamil Nadu","regionCode":"TN","latitude":11.16378,"longitude":77.60388},{"id":57116,"type":"CITY","city":"Cherpulassery","name":"Cherpulassery","country":"India","countryCode":"IN","region":"Kerala","regionCode":"KL","latitude":10.87655,"longitude":76.30932},{"id":55892,"wikiDataId":"Q211030","type":"CITY","city":"Cherrapunji","name":"Cherrapunji","country":"India","countryCode":"IN","region":"Meghalaya","regionCode":"ML","latitude":25.30089,"longitude":91.69619},{"id":57286,"wikiDataId":"Q888665","type":"CITY","city":"Cherthala","name":"Cherthala","country":"India","countryCode":"IN","region":"Kerala","regionCode":"KL","latitude":9.68444,"longitude":76.33558},{"id":56304,"type":"CITY","city":"Chetput","name":"Chetput","country":"India","countryCode":"IN","region":"Tamil Nadu","regionCode":"TN","latitude":13.07,"longitude":80.24083},{"id":55850,"wikiDataId":"Q2443984","type":"CITY","city":"Chettipālaiyam","name":"Chettipālaiyam","country":"India","countryCode":"IN","region":"Tamil Nadu","regionCode":"TN","latitude":10.91248,"longitude":77.03699},{"id":56730,"wikiDataId":"Q888436","type":"CITY","city":"Chetwayi","name":"Chetwayi","country":"India","countryCode":"IN","region":"Kerala","regionCode":"KL","latitude":10.52885,"longitude":76.04793},
{"id":53930,"wikiDataId":"Q5094634","type":"CITY","city":"Cheyyar","name":"Cheyyar","country":"India","countryCode":"IN","region":"Tamil Nadu","regionCode":"TN","latitude":12.66052,"longitude":79.54308},{"id":56185,"wikiDataId":"Q5308120","type":"CITY","city":"Cheyyur","name":"Cheyyur","country":"India","countryCode":"IN","region":"Tamil Nadu","regionCode":"TN","latitude":12.34948,"longitude":80.00304},{"id":56165,"wikiDataId":"Q888797","type":"CITY","city":"Chhabra","name":"Chhabra","country":"India","countryCode":"IN","region":"Rajasthan","regionCode":"RJ","latitude":24.66472,"longitude":76.84379},{"id":55872,"wikiDataId":"Q885359","type":"CITY","city":"Chhachhrauli","name":"Chhachhrauli","country":"India","countryCode":"IN","region":"Haryana","regionCode":"HR","latitude":30.24492,"longitude":77.36027},{"id":55930,"type":"CITY","city":"Chhala","name":"Chhala","country":"India","countryCode":"IN","region":"Gujarat","regionCode":"GJ","latitude":23.30779,"longitude":72.77404},{"id":56264,"wikiDataId":"Q888805","type":"CITY","city":"Chhaprauli","name":"Chhaprauli","country":"India","countryCode":"IN","region":"Uttar Pradesh","regionCode":"UP","latitude":29.20989,"longitude":77.17454},{"id":56340,"type":"CITY","city":"Chharra","name":"Chharra","country":"India","countryCode":"IN","region":"Uttar Pradesh","regionCode":"UP","latitude":27.9247,"longitude":78.40102},{"id":147656,"wikiDataId":"Q2449785","type":"ADM2","city":"Chhatarpur","name":"Chhatarpur","country":"India","countryCode":"IN","region":"Madhya Pradesh","regionCode":"MP","latitude":24.75,"longitude":79.75},{"id":56503,"wikiDataId":"Q985000","type":"CITY","city":"Chhibrāmau","name":"Chhibrāmau","country":"India","countryCode":"IN","region":"Uttar Pradesh","regionCode":"UP","latitude":27.14872,"longitude":79.50078},{"id":56058,"wikiDataId":"Q986135","type":"CITY","city":"Chhindwāra","name":"Chhindwāra","country":"India","countryCode":"IN","region":"Madhya Pradesh","regionCode":"MP","latitude":22.05697,"longitude":78.93958},
{"id":56495,"wikiDataId":"Q612721","type":"CITY","city":"Chhota Udepur","name":"Chhota Udepur","country":"India","countryCode":"IN","region":"Gujarat","regionCode":"GJ","latitude":22.30401,"longitude":74.0158},{"id":56152,"wikiDataId":"Q986875","type":"CITY","city":"Chhoti Sādri","name":"Chhoti Sādri","country":"India","countryCode":"IN","region":"Rajasthan","regionCode":"RJ","latitude":24.38145,"longitude":74.7012},{"id":57451,"wikiDataId":"Q1105774","type":"CITY","city":"Chhutmalpur","name":"Chhutmalpur","country":"India","countryCode":"IN","region":"Uttar Pradesh","regionCode":"UP","latitude":30.03209,"longitude":77.75329},{"id":55968,"wikiDataId":"Q1105863","type":"CITY","city":"Chhuīkhadān","name":"Chhuīkhadān","country":"India","countryCode":"IN","region":"Chhattisgarh","regionCode":"CT","latitude":21.52316,"longitude":80.99788},{"id":55805,"wikiDataId":"Q888928","type":"CITY","city":"Chhāpar","name":"Chhāpar","country":"India","countryCode":"IN","region":"Rajasthan","regionCode":"RJ","latitude":27.819,"longitude":74.43936},{"id":56423,"wikiDataId":"Q888816","type":"CITY","city":"Chhāta","name":"Chhāta","country":"India","countryCode":"IN","region":"Uttar Pradesh","regionCode":"UP","latitude":27.72374,"longitude":77.5081},{"id":56332,"type":"CITY","city":"Chhātāpur","name":"Chhātāpur","country":"India","countryCode":"IN","region":"Bihar","regionCode":"BR","latitude":26.21965,"longitude":87.00479},{"id":56742,"wikiDataId":"Q1105928","type":"CITY","city":"Chicalim","name":"Chicalim","country":"India","countryCode":"IN","region":"Goa","regionCode":"GA","latitude":15.39835,"longitude":73.84216},{"id":55882,"wikiDataId":"Q1104216","type":"CITY","city":"Chichli","name":"Chichli","country":"India","countryCode":"IN","region":"Madhya Pradesh","regionCode":"MP","latitude":22.83363,"longitude":78.82611},{"id":56630,"wikiDataId":"Q1104151","type":"CITY","city":"Chicholi","name":"Chicholi","country":"India","countryCode":"IN","region":"Maharashtra","regionCode":"MH","latitude":21.46926,"longitude":79.70151},
{"id":56745,"type":"CITY","city":"Chidambaram","name":"Chidambaram","country":"India","countryCode":"IN","region":"Tamil Nadu","regionCode":"TN","latitude":11.39933,"longitude":79.69144},{"id":56079,"wikiDataId":"Q1190810","type":"CITY","city":"Chidawa","name":"Chidawa","country":"India","countryCode":"IN","region":"Rajasthan","regionCode":"RJ","latitude":28.23937,"longitude":75.64035},{"id":56142,"wikiDataId":"Q1023689","type":"CITY","city":"Chik Ballāpur","name":"Chik Ballāpur","country":"India","countryCode":"IN","region":"Karnataka","regionCode":"KA","latitude":13.43512,"longitude":77.72787},{"id":55792,"wikiDataId":"Q1945471","type":"CITY","city":"Chikhli","name":"Chikhli","country":"India","countryCode":"IN","region":"Gujarat","regionCode":"GJ","latitude":20.75751,"longitude":73.06268},{"id":56647,"type":"CITY","city":"Chikhli","name":"Chikhli","country":"India","countryCode":"IN","region":"Maharashtra","regionCode":"MH","latitude":20.35046,"longitude":76.25774},{"id":56172,"wikiDataId":"Q1105855","type":"CITY","city":"Chikitigarh","name":"Chikitigarh","country":"India","countryCode":"IN","region":"Odisha","regionCode":"OR","latitude":19.20233,"longitude":84.6145},{"id":147885,"wikiDataId":"Q1072629","type":"ADM2","city":"Chikkaballapur","name":"Chikkaballapur","country":"India","countryCode":"IN","region":"Karnataka","regionCode":"KA","latitude":13.55,"longitude":77.87},{"id":147662,"wikiDataId":"Q743077","type":"ADM2","city":"Chikmagalur","name":"Chikmagalur","country":"India","countryCode":"IN","region":"Karnataka","regionCode":"KA","latitude":13.49,"longitude":75.73},{"id":55827,"type":"CITY","city":"Chikmagalūr","name":"Chikmagalūr","country":"India","countryCode":"IN","region":"Karnataka","regionCode":"KA","latitude":13.32231,"longitude":75.774},{"id":56151,"wikiDataId":"Q1105843","type":"CITY","city":"Chiknāyakanhalli","name":"Chiknāyakanhalli","country":"India","countryCode":"IN","region":"Karnataka","regionCode":"KA","latitude":13.41609,"longitude":76.62063},
{"id":56530,"wikiDataId":"Q1105246","type":"CITY","city":"Chikodi","name":"Chikodi","country":"India","countryCode":"IN","region":"Karnataka","regionCode":"KA","latitude":16.42898,"longitude":74.58591},{"id":56365,"wikiDataId":"Q1105252","type":"CITY","city":"Chilakalūrupet","name":"Chilakalūrupet","country":"India","countryCode":"IN","region":"Andhra Pradesh","regionCode":"AP","latitude":16.08987,"longitude":80.16705},{"id":56725,"wikiDataId":"Q709260","type":"CITY","city":"Chillupār","name":"Chillupār","country":"India","countryCode":"IN","region":"Uttar Pradesh","regionCode":"UP","latitude":26.28221,"longitude":83.5064},{"id":55793,"wikiDataId":"Q1104169","type":"CITY","city":"Chinchani","name":"Chinchani","country":"India","countryCode":"IN","region":"Maharashtra","regionCode":"MH","latitude":19.87458,"longitude":72.6851},{"id":56482,"wikiDataId":"Q1105849","type":"CITY","city":"Chinchinim","name":"Chinchinim","country":"India","countryCode":"IN","region":"Goa","regionCode":"GA","latitude":15.21447,"longitude":73.97555},{"id":55846,"type":"CITY","city":"Chincholi","name":"Chincholi","country":"India","countryCode":"IN","region":"Karnataka","regionCode":"KA","latitude":17.46508,"longitude":77.41874},{"id":56485,"wikiDataId":"Q888769","type":"CITY","city":"Chingleput","name":"Chingleput","country":"India","countryCode":"IN","region":"Tamil Nadu","regionCode":"TN","latitude":12.69184,"longitude":79.97661},{"id":56427,"wikiDataId":"Q130577","type":"CITY","city":"Chinna Salem","name":"Chinna Salem","country":"India","countryCode":"IN","region":"Tamil Nadu","regionCode":"TN","latitude":11.63422,"longitude":78.87412},{"id":57643,"wikiDataId":"Q721289","type":"CITY","city":"Chinnachowk","name":"Chinnachowk","country":"India","countryCode":"IN","region":"Andhra Pradesh","regionCode":"AP","latitude":14.47516,"longitude":78.8354},{"id":56383,"wikiDataId":"Q1104025","type":"CITY","city":"Chinnamanūr","name":"Chinnamanūr","country":"India","countryCode":"IN","region":"Tamil Nadu","regionCode":"TN","latitude":9.83999,"longitude":77.38109},
{"id":57708,"wikiDataId":"Q1103998","type":"CITY","city":"Chinnasekkadu","name":"Chinnasekkadu","country":"India","countryCode":"IN","region":"Tamil Nadu","regionCode":"TN","latitude":13.16089,"longitude":80.25727},{"id":56716,"wikiDataId":"Q5766625","type":"CITY","city":"Chintāmani","name":"Chintāmani","country":"India","countryCode":"IN","region":"Karnataka","regionCode":"KA","latitude":13.40051,"longitude":78.05172},{"id":56010,"wikiDataId":"Q1117869","type":"CITY","city":"Chiplūn","name":"Chiplūn","country":"India","countryCode":"IN","region":"Maharashtra","regionCode":"MH","latitude":17.53339,"longitude":73.50935},{"id":147932,"wikiDataId":"Q2574898","type":"ADM2","city":"Chirang","name":"Chirang","country":"India","countryCode":"IN","region":"Assam","regionCode":"AS","latitude":26.52527,"longitude":90.49066},{"id":55967,"wikiDataId":"Q932111","type":"CITY","city":"Chirgaon","name":"Chirgaon","country":"India","countryCode":"IN","region":"Uttar Pradesh","regionCode":"UP","latitude":25.57198,"longitude":78.81432},{"id":56384,"wikiDataId":"Q1193823","type":"CITY","city":"Chiria","name":"Chiria","country":"India","countryCode":"IN","region":"Jharkhand","regionCode":"JH","latitude":22.31093,"longitude":85.27601},{"id":147659,"wikiDataId":"Q165264","type":"ADM2","city":"Chitradurga","name":"Chitradurga","country":"India","countryCode":"IN","region":"Karnataka","regionCode":"KA","latitude":14.2,"longitude":76.5},{"id":147986,"type":"ADM2","city":"Chitrakoot","name":"Chitrakoot","country":"India","countryCode":"IN","region":"Uttar Pradesh","regionCode":"UP","latitude":25.20511,"longitude":81.08962},{"id":56043,"wikiDataId":"Q277935","type":"CITY","city":"Chittaranjan","name":"Chittaranjan","country":"India","countryCode":"IN","region":"West Bengal","regionCode":"WB","latitude":23.85681,"longitude":86.90324},{"id":56460,"type":"CITY","city":"Chittarkonda","name":"Chittarkonda","country":"India","countryCode":"IN","region":"Odisha","regionCode":"OR","latitude":18.12533,"longitude":82.1089},
{"id":147669,"wikiDataId":"Q1075011","type":"ADM2","city":"Chittaurgarh","name":"Chittaurgarh","country":"India","countryCode":"IN","region":"Rajasthan","regionCode":"RJ","latitude":24.5,"longitude":74.5},{"id":147660,"wikiDataId":"Q15213","type":"ADM2","city":"Chittoor","name":"Chittoor","country":"India","countryCode":"IN","region":"Andhra Pradesh","regionCode":"AP","latitude":13.41667,"longitude":79.0},{"id":56388,"wikiDataId":"Q2568293","type":"CITY","city":"Chittūr","name":"Chittūr","country":"India","countryCode":"IN","region":"Kerala","regionCode":"KL","latitude":10.69967,"longitude":76.7471},{"id":56226,"wikiDataId":"Q5103763","type":"CITY","city":"Chodavaram","name":"Chodavaram","country":"India","countryCode":"IN","region":"Andhra Pradesh","regionCode":"AP","latitude":17.82884,"longitude":82.93526},{"id":56410,"wikiDataId":"Q1190702","type":"CITY","city":"Cholapuram","name":"Cholapuram","country":"India","countryCode":"IN","region":"Tamil Nadu","regionCode":"TN","latitude":9.35193,"longitude":77.56839},{"id":56462,"wikiDataId":"Q1193786","type":"CITY","city":"Chopan","name":"Chopan","country":"India","countryCode":"IN","region":"Uttar Pradesh","regionCode":"UP","latitude":24.51954,"longitude":83.02287},{"id":55959,"wikiDataId":"Q1192614","type":"CITY","city":"Chopda","name":"Chopda","country":"India","countryCode":"IN","region":"Maharashtra","regionCode":"MH","latitude":21.24578,"longitude":75.29946},{"id":56606,"wikiDataId":"Q1191532","type":"CITY","city":"Chorhat","name":"Chorhat","country":"India","countryCode":"IN","region":"Madhya Pradesh","regionCode":"MP","latitude":24.42743,"longitude":81.66948},{"id":56358,"wikiDataId":"Q2723942","type":"CITY","city":"Chotila","name":"Chotila","country":"India","countryCode":"IN","region":"Gujarat","regionCode":"GJ","latitude":22.42347,"longitude":71.19641},{"id":57766,"type":"CITY","city":"Chowari","name":"Chowari","country":"India","countryCode":"IN","region":"Himachal Pradesh","regionCode":"HP","latitude":32.4319,"longitude":76.012},
{"id":56394,"wikiDataId":"Q1192683","type":"CITY","city":"Chunār","name":"Chunār","country":"India","countryCode":"IN","region":"Uttar Pradesh","regionCode":"UP","latitude":25.12776,"longitude":82.8821},{"id":148004,"wikiDataId":"Q2577281","type":"ADM2","city":"Churachandpur","name":"Churachandpur","country":"India","countryCode":"IN","region":"Manipur","regionCode":"MN","latitude":24.33333,"longitude":93.68333},{"id":55948,"wikiDataId":"Q11680729","type":"CITY","city":"Churāchāndpur","name":"Churāchāndpur","country":"India","countryCode":"IN","region":"Manipur","regionCode":"MN","latitude":24.33353,"longitude":93.66999},{"id":56573,"wikiDataId":"Q1192134","type":"CITY","city":"Chuāri Khās","name":"Chuāri Khās","country":"India","countryCode":"IN","region":"Himachal Pradesh","regionCode":"HP","latitude":32.43058,"longitude":76.01428},{"id":56256,"wikiDataId":"Q861884","type":"CITY","city":"Chābua","name":"Chābua","country":"India","countryCode":"IN","region":"Assam","regionCode":"AS","latitude":27.48253,"longitude":95.17451},{"id":56362,"wikiDataId":"Q1020740","type":"CITY","city":"Chākan","name":"Chākan","country":"India","countryCode":"IN","region":"Maharashtra","regionCode":"MH","latitude":18.76059,"longitude":73.86351},{"id":55916,"wikiDataId":"Q1924830","type":"CITY","city":"Chākia","name":"Chākia","country":"India","countryCode":"IN","region":"Bihar","regionCode":"BR","latitude":26.41598,"longitude":85.04665},{"id":56392,"wikiDataId":"Q858180","type":"CITY","city":"Chākuliā","name":"Chākuliā","country":"India","countryCode":"IN","region":"Jharkhand","regionCode":"JH","latitude":22.48301,"longitude":86.71793},{"id":55803,"wikiDataId":"Q858598","type":"CITY","city":"Chālisgaon","name":"Chālisgaon","country":"India","countryCode":"IN","region":"Maharashtra","regionCode":"MH","latitude":20.45781,"longitude":75.01596},{"id":56483,"wikiDataId":"Q3666066","type":"CITY","city":"Chāmpa","name":"Chāmpa","country":"India","countryCode":"IN","region":"Chhattisgarh","regionCode":"CT","latitude":22.03532,"longitude":82.64234},
{"id":56574,"wikiDataId":"Q860201","type":"CITY","city":"Chāmpua","name":"Chāmpua","country":"India","countryCode":"IN","region":"Odisha","regionCode":"OR","latitude":22.06734,"longitude":85.66463},{"id":56113,"type":"CITY","city":"Chāmpāhāti","name":"Chāmpāhāti","country":"India","countryCode":"IN","region":"West Bengal","regionCode":"WB","latitude":22.40026,"longitude":88.49209},{"id":55984,"wikiDataId":"Q859113","type":"CITY","city":"Chānasma","name":"Chānasma","country":"India","countryCode":"IN","region":"Gujarat","regionCode":"GJ","latitude":23.71472,"longitude":72.11279},{"id":56050,"wikiDataId":"Q861194","type":"CITY","city":"Chānda","name":"Chānda","country":"India","countryCode":"IN","region":"Maharashtra","regionCode":"MH","latitude":19.95076,"longitude":79.29523},{"id":56645,"type":"CITY","city":"Chāndbāli","name":"Chāndbāli","country":"India","countryCode":"IN","region":"Odisha","regionCode":"OR","latitude":20.77519,"longitude":86.74139},{"id":56000,"wikiDataId":"Q720244","type":"CITY","city":"Chāndil","name":"Chāndil","country":"India","countryCode":"IN","region":"Jharkhand","regionCode":"JH","latitude":22.95745,"longitude":86.05331},{"id":56535,"type":"CITY","city":"Chāndor","name":"Chāndor","country":"India","countryCode":"IN","region":"Maharashtra","regionCode":"MH","latitude":20.3306,"longitude":74.24467},{"id":56684,"wikiDataId":"Q861597","type":"CITY","city":"Chāndpur","name":"Chāndpur","country":"India","countryCode":"IN","region":"Uttar Pradesh","regionCode":"UP","latitude":29.13489,"longitude":78.27187},{"id":55802,"wikiDataId":"Q3666120","type":"CITY","city":"Chāndur","name":"Chāndur","country":"India","countryCode":"IN","region":"Maharashtra","regionCode":"MH","latitude":19.73444,"longitude":79.17167},{"id":55794,"type":"CITY","city":"Chāndūr","name":"Chāndūr","country":"India","countryCode":"IN","region":"Maharashtra","regionCode":"MH","latitude":20.81408,"longitude":77.98015},
{"id":56290,"type":"CITY","city":"Chāndūr Bāzār","name":"Chāndūr Bāzār","country":"India","countryCode":"IN","region":"Maharashtra","regionCode":"MH","latitude":21.23853,"longitude":77.74713},{"id":55983,"wikiDataId":"Q2733320","type":"CITY","city":"Chāpar","name":"Chāpar","country":"India","countryCode":"IN","region":"Assam","regionCode":"AS","latitude":26.27266,"longitude":90.44556},{"id":56391,"wikiDataId":"Q1755440","type":"CITY","city":"Chāpra","name":"Chāpra","country":"India","countryCode":"IN","region":"Bihar","regionCode":"BR","latitude":25.78031,"longitude":84.74709},{"id":56019,"wikiDataId":"Q886561","type":"CITY","city":"Chās","name":"Chās","country":"India","countryCode":"IN","region":"Jharkhand","regionCode":"JH","latitude":23.63556,"longitude":86.16712},{"id":56632,"wikiDataId":"Q721302","type":"CITY","city":"Chātakonda","name":"Chātakonda","country":"India","countryCode":"IN","region":"Telangana","regionCode":"TG","latitude":17.55303,"longitude":80.6477},{"id":56281,"wikiDataId":"Q532883","type":"CITY","city":"Chāībāsa","name":"Chāībāsa","country":"India","countryCode":"IN","region":"Jharkhand","regionCode":"JH","latitude":22.55038,"longitude":85.80249},{"id":55924,"type":"CITY","city":"Chēlakara","name":"Chēlakara","country":"India","countryCode":"IN","region":"Kerala","regionCode":"KL","latitude":10.69289,"longitude":76.34387},{"id":57407,"type":"CITY","city":"Chīma","name":"Chīma","country":"India","countryCode":"IN","region":"Punjab","regionCode":"PB","latitude":30.6854,"longitude":76.08643},{"id":55952,"type":"CITY","city":"Chīpurupalle","name":"Chīpurupalle","country":"India","countryCode":"IN","region":"Andhra Pradesh","regionCode":"AP","latitude":18.31142,"longitude":83.56846},{"id":56481,"wikiDataId":"Q1193800","type":"CITY","city":"Chīrāla","name":"Chīrāla","country":"India","countryCode":"IN","region":"Andhra Pradesh","regionCode":"AP","latitude":15.82385,"longitude":80.35219},
{"id":56678,"wikiDataId":"Q1192111","type":"CITY","city":"Chītāpur","name":"Chītāpur","country":"India","countryCode":"IN","region":"Karnataka","regionCode":"KA","latitude":17.12357,"longitude":77.0824},{"id":55949,"wikiDataId":"Q1192416","type":"CITY","city":"Chūru","name":"Chūru","country":"India","countryCode":"IN","region":"Rajasthan","regionCode":"RJ","latitude":28.30415,"longitude":74.96718},{"id":55921,"wikiDataId":"Q1190648","type":"CITY","city":"Clement Town","name":"Clement Town","country":"India","countryCode":"IN","region":"Uttarakhand","regionCode":"UT","latitude":30.26361,"longitude":78.00862},{"id":54141,"wikiDataId":"Q13371953","type":"CITY","city":"Closepet","name":"Closepet","country":"India","countryCode":"IN","region":"Karnataka","regionCode":"KA","latitude":12.72181,"longitude":77.28149},{"id":56590,"wikiDataId":"Q1800","type":"CITY","city":"Cochin","name":"Cochin","country":"India","countryCode":"IN","region":"Kerala","regionCode":"KL","latitude":9.93988,"longitude":76.26022},{"id":147665,"wikiDataId":"Q15136","type":"ADM2","city":"Coimbatore","name":"Coimbatore","country":"India","countryCode":"IN","region":"Tamil Nadu","regionCode":"TN","latitude":10.8,"longitude":77.09},{"id":55112,"wikiDataId":"Q727731","type":"CITY","city":"Colachel","name":"Colachel","country":"India","countryCode":"IN","region":"Tamil Nadu","regionCode":"TN","latitude":8.17938,"longitude":77.25818},{"id":55818,"wikiDataId":"Q1190209","type":"CITY","city":"Colgong","name":"Colgong","country":"India","countryCode":"IN","region":"Bihar","regionCode":"BR","latitude":25.26328,"longitude":87.23264},{"id":56298,"wikiDataId":"Q1193537","type":"CITY","city":"Colonelganj","name":"Colonelganj","country":"India","countryCode":"IN","region":"Uttar Pradesh","regionCode":"UP","latitude":27.13432,"longitude":81.69868},{"id":56112,"wikiDataId":"Q939521","type":"CITY","city":"Colovale","name":"Colovale","country":"India","countryCode":"IN","region":"Goa","regionCode":"GA","latitude":15.63522,"longitude":73.82426},
{"id":56190,"wikiDataId":"Q3440760","type":"CITY","city":"Colva","name":"Colva","country":"India","countryCode":"IN","region":"Goa","regionCode":"GA","latitude":15.27976,"longitude":73.92285},{"id":57615,"wikiDataId":"Q1192104","type":"CITY","city":"Contai","name":"Contai","country":"India","countryCode":"IN","region":"West Bengal","regionCode":"WB","latitude":21.77985,"longitude":87.74892},{"id":56146,"type":"CITY","city":"Coondapoor","name":"Coondapoor","country":"India","countryCode":"IN","region":"Karnataka","regionCode":"KA","latitude":13.63126,"longitude":74.6902},{"id":56037,"type":"CITY","city":"Cortalim","name":"Cortalim","country":"India","countryCode":"IN","region":"Goa","regionCode":"GA","latitude":15.40247,"longitude":73.90881},{"id":147785,"wikiDataId":"Q15150","type":"ADM2","city":"Cuddalore","name":"Cuddalore","country":"India","countryCode":"IN","region":"Tamil Nadu","regionCode":"TN","latitude":11.52,"longitude":79.51},{"id":147667,"wikiDataId":"Q15342","type":"ADM2","city":"Cuddapah","name":"Cuddapah","country":"India","countryCode":"IN","region":"Andhra Pradesh","regionCode":"AP","latitude":14.41667,"longitude":78.75},{"id":56186,"type":"CITY","city":"Cumbum","name":"Cumbum","country":"India","countryCode":"IN","region":"Andhra Pradesh","regionCode":"AP","latitude":15.58171,"longitude":79.11059},{"id":56627,"wikiDataId":"Q2282438","type":"CITY","city":"Cumbum","name":"Cumbum","country":"India","countryCode":"IN","region":"Tamil Nadu","regionCode":"TN","latitude":9.73647,"longitude":77.2847},{"id":56615,"wikiDataId":"Q1190666","type":"CITY","city":"Cuncolim","name":"Cuncolim","country":"India","countryCode":"IN","region":"Goa","regionCode":"GA","latitude":15.1773,"longitude":73.99392},{"id":56109,"wikiDataId":"Q1190690","type":"CITY","city":"Curchorem","name":"Curchorem","country":"India","countryCode":"IN","region":"Goa","regionCode":"GA","latitude":15.26349,"longitude":74.10875},
{"id":55906,"wikiDataId":"Q12420204","type":"CITY","city":"Curti","name":"Curti","country":"India","countryCode":"IN","region":"Goa","regionCode":"GA","latitude":15.41667,"longitude":74.01667},{"id":147657,"wikiDataId":"Q2022256","type":"ADM2","city":"Cuttack","name":"Cuttack","country":"India","countryCode":"IN","region":"Odisha","regionCode":"OR","latitude":20.5,"longitude":86.25},{"id":147677,"wikiDataId":"Q42209","type":"ADM2","city":"Cāchār","name":"Cāchār","country":"India","countryCode":"IN","region":"Assam","regionCode":"AS","latitude":24.78213,"longitude":92.85771},{"id":56166,"wikiDataId":"Q1156554","type":"CITY","city":"Dabhoi","name":"Dabhoi","country":"India","countryCode":"IN","region":"Gujarat","regionCode":"GJ","latitude":22.18333,"longitude":73.43333},{"id":56578,"wikiDataId":"Q385237","type":"CITY","city":"Daboh","name":"Daboh","country":"India","countryCode":"IN","region":"Madhya Pradesh","regionCode":"MP","latitude":26.00239,"longitude":78.87658},{"id":55910,"wikiDataId":"Q1190879","type":"CITY","city":"Dabra","name":"Dabra","country":"India","countryCode":"IN","region":"Madhya Pradesh","regionCode":"MP","latitude":25.88572,"longitude":78.33221},{"id":56564,"type":"CITY","city":"Dabwāli","name":"Dabwāli","country":"India","countryCode":"IN","region":"Haryana","regionCode":"HR","latitude":29.94906,"longitude":74.73832},{"id":56048,"type":"CITY","city":"Dadra","name":"Dadra","country":"India","countryCode":"IN","region":"Dadra and Nagar Haveli","regionCode":"DN","latitude":20.32504,"longitude":72.96618},{"id":148011,"wikiDataId":"Q10752928","type":"ADM2","city":"Dadra & Nagar Haveli","name":"Dadra & Nagar Haveli","country":"India","countryCode":"IN","region":"Dadra and Nagar Haveli","regionCode":"DN","latitude":20.20651,"longitude":73.00811},{"id":56055,"wikiDataId":"Q960817","type":"CITY","city":"Dagshai","name":"Dagshai","country":"India","countryCode":"IN","region":"Himachal Pradesh","regionCode":"HP","latitude":30.88431,"longitude":77.05228},
{"id":56717,"wikiDataId":"Q582485","type":"CITY","city":"Dahegām","name":"Dahegām","country":"India","countryCode":"IN","region":"Gujarat","regionCode":"GJ","latitude":23.16903,"longitude":72.82161},{"id":56507,"wikiDataId":"Q1190218","type":"CITY","city":"Daitari","name":"Daitari","country":"India","countryCode":"IN","region":"Odisha","regionCode":"OR","latitude":21.1,"longitude":85.75},{"id":147889,"wikiDataId":"Q533839","type":"ADM2","city":"Dakshin Dinajpur","name":"Dakshin Dinajpur","country":"India","countryCode":"IN","region":"West Bengal","regionCode":"WB","latitude":25.22,"longitude":88.76},{"id":147661,"wikiDataId":"Q950571","type":"ADM2","city":"Dakshina Kannada","name":"Dakshina Kannada","country":"India","countryCode":"IN","region":"Karnataka","regionCode":"KA","latitude":12.84,"longitude":75.29},{"id":56351,"wikiDataId":"Q1925180","type":"CITY","city":"Dalhousie","name":"Dalhousie","country":"India","countryCode":"IN","region":"Himachal Pradesh","regionCode":"HP","latitude":32.55219,"longitude":75.94663},{"id":56023,"type":"CITY","city":"Dalkola","name":"Dalkola","country":"India","countryCode":"IN","region":"West Bengal","regionCode":"WB","latitude":25.87577,"longitude":87.84009},{"id":56289,"wikiDataId":"Q1189794","type":"CITY","city":"Dalmau","name":"Dalmau","country":"India","countryCode":"IN","region":"Uttar Pradesh","regionCode":"UP","latitude":26.06477,"longitude":81.0298},{"id":55934,"type":"CITY","city":"Dalsingh Sarai","name":"Dalsingh Sarai","country":"India","countryCode":"IN","region":"Bihar","regionCode":"BR","latitude":25.66795,"longitude":85.83636},{"id":56591,"wikiDataId":"Q936464","type":"CITY","city":"Daltonganj","name":"Daltonganj","country":"India","countryCode":"IN","region":"Jharkhand","regionCode":"JH","latitude":24.03971,"longitude":84.0658},{"id":56382,"type":"CITY","city":"Dam Dam","name":"Dam Dam","country":"India","countryCode":"IN","region":"West Bengal","regionCode":"WB","latitude":22.63341,"longitude":88.42286},
{"id":56515,"wikiDataId":"Q463252","type":"CITY","city":"Daman","name":"Daman","country":"India","countryCode":"IN","region":"Daman and Diu","regionCode":"DD","latitude":20.41431,"longitude":72.83236},{"id":147668,"type":"ADM2","city":"Daman District","name":"Daman District","country":"India","countryCode":"IN","region":"Daman and Diu","regionCode":"DD","latitude":20.41667,"longitude":72.88333},{"id":147658,"wikiDataId":"Q2479331","type":"ADM2","city":"Damoh","name":"Damoh","country":"India","countryCode":"IN","region":"Madhya Pradesh","regionCode":"MP","latitude":23.75,"longitude":79.58333},{"id":56747,"wikiDataId":"Q721378","type":"CITY","city":"Dandeli","name":"Dandeli","country":"India","countryCode":"IN","region":"Karnataka","regionCode":"KA","latitude":15.26667,"longitude":74.61667},{"id":55870,"wikiDataId":"Q1190816","type":"CITY","city":"Dankaur","name":"Dankaur","country":"India","countryCode":"IN","region":"Uttar Pradesh","regionCode":"UP","latitude":28.35121,"longitude":77.55508},{"id":147663,"wikiDataId":"Q49160","type":"ADM2","city":"Darbhanga","name":"Darbhanga","country":"India","countryCode":"IN","region":"Bihar","regionCode":"BR","latitude":26.0,"longitude":86.0},{"id":56070,"wikiDataId":"Q1192796","type":"CITY","city":"Dariba","name":"Dariba","country":"India","countryCode":"IN","region":"Rajasthan","regionCode":"RJ","latitude":24.94865,"longitude":74.1342},{"id":147646,"wikiDataId":"Q1134759","type":"ADM2","city":"Darjiling","name":"Darjiling","country":"India","countryCode":"IN","region":"West Bengal","regionCode":"WB","latitude":26.75,"longitude":88.25},{"id":56002,"wikiDataId":"Q1190883","type":"CITY","city":"Darlawn","name":"Darlawn","country":"India","countryCode":"IN","region":"Mizoram","regionCode":"MZ","latitude":24.01336,"longitude":92.92439},{"id":147654,"wikiDataId":"Q42461","type":"ADM2","city":"Darrang","name":"Darrang","country":"India","countryCode":"IN","region":"Assam","regionCode":"AS","latitude":26.51195,"longitude":92.16843},
{"id":56405,"wikiDataId":"Q3298990","type":"CITY","city":"Darsi","name":"Darsi","country":"India","countryCode":"IN","region":"Andhra Pradesh","regionCode":"AP","latitude":15.76978,"longitude":79.67939},{"id":56328,"wikiDataId":"Q1190791","type":"CITY","city":"Daryāpur","name":"Daryāpur","country":"India","countryCode":"IN","region":"Maharashtra","regionCode":"MH","latitude":20.92489,"longitude":77.32644},{"id":57764,"wikiDataId":"Q1193652","type":"CITY","city":"Dasnapur","name":"Dasnapur","country":"India","countryCode":"IN","region":"Telangana","regionCode":"TG","latitude":19.65399,"longitude":78.51213},{"id":56198,"wikiDataId":"Q1190082","type":"CITY","city":"Dasūya","name":"Dasūya","country":"India","countryCode":"IN","region":"Punjab","regionCode":"PB","latitude":31.81679,"longitude":75.6531},{"id":147651,"wikiDataId":"Q2206266","type":"ADM2","city":"Datia","name":"Datia","country":"India","countryCode":"IN","region":"Madhya Pradesh","regionCode":"MP","latitude":25.75,"longitude":78.5},{"id":55966,"type":"CITY","city":"Dattāpur","name":"Dattāpur","country":"India","countryCode":"IN","region":"Maharashtra","regionCode":"MH","latitude":20.78075,"longitude":78.1407},{"id":56700,"wikiDataId":"Q1191619","type":"CITY","city":"Daudnagar","name":"Daudnagar","country":"India","countryCode":"IN","region":"Bihar","regionCode":"BR","latitude":25.03473,"longitude":84.40095},{"id":56148,"wikiDataId":"Q1925028","type":"CITY","city":"Daulatpur","name":"Daulatpur","country":"India","countryCode":"IN","region":"Himachal Pradesh","regionCode":"HP","latitude":31.78871,"longitude":75.99154},{"id":56550,"type":"CITY","city":"Daulatpur","name":"Daulatpur","country":"India","countryCode":"IN","region":"West Bengal","regionCode":"WB","latitude":25.32605,"longitude":88.32989},{"id":56234,"wikiDataId":"Q2249594","type":"CITY","city":"Daulatābād","name":"Daulatābād","country":"India","countryCode":"IN","region":"Maharashtra","regionCode":"MH","latitude":19.93611,"longitude":75.22148},
{"id":56088,"wikiDataId":"Q3703003","type":"CITY","city":"Daund","name":"Daund","country":"India","countryCode":"IN","region":"Maharashtra","regionCode":"MH","latitude":18.46515,"longitude":74.58375},{"id":56569,"wikiDataId":"Q1190900","type":"CITY","city":"Daurāla","name":"Daurāla","country":"India","countryCode":"IN","region":"Uttar Pradesh","regionCode":"UP","latitude":29.11344,"longitude":77.70467},{"id":147812,"wikiDataId":"Q1173042","type":"ADM2","city":"Dausa","name":"Dausa","country":"India","countryCode":"IN","region":"Rajasthan","regionCode":"RJ","latitude":26.88269,"longitude":76.57053},{"id":147854,"type":"ADM2","city":"Davanagere","name":"Davanagere","country":"India","countryCode":"IN","region":"Karnataka","regionCode":"KA","latitude":14.43,"longitude":75.9},{"id":56283,"wikiDataId":"Q519486","type":"CITY","city":"Davangere","name":"Davangere","country":"India","countryCode":"IN","region":"Karnataka","regionCode":"KA","latitude":14.46693,"longitude":75.92694},{"id":56634,"wikiDataId":"Q1192143","type":"CITY","city":"Davorlim","name":"Davorlim","country":"India","countryCode":"IN","region":"Goa","regionCode":"GA","latitude":15.27221,"longitude":73.99242},{"id":56991,"type":"CITY","city":"Dayapar","name":"Dayapar","country":"India","countryCode":"IN","region":"Gujarat","regionCode":"GJ","latitude":23.63371,"longitude":68.90192},{"id":56581,"type":"CITY","city":"Dayāl Bāgh","name":"Dayāl Bāgh","country":"India","countryCode":"IN","region":"Uttar Pradesh","regionCode":"UP","latitude":27.22122,"longitude":78.01095},{"id":56453,"type":"CITY","city":"Debīpur","name":"Debīpur","country":"India","countryCode":"IN","region":"West Bengal","regionCode":"WB","latitude":24.25029,"longitude":88.61824},{"id":56699,"type":"CITY","city":"Dehra Dūn","name":"Dehra Dūn","country":"India","countryCode":"IN","region":"Uttarakhand","regionCode":"UT","latitude":30.32443,"longitude":78.03392},
{"id":147998,"wikiDataId":"Q1815740","type":"ADM2","city":"Dehradun","name":"Dehradun","country":"India","countryCode":"IN","region":"Uttarakhand","regionCode":"UT","latitude":30.33,"longitude":78.06},{"id":56267,"wikiDataId":"Q1190622","type":"CITY","city":"Dehri","name":"Dehri","country":"India","countryCode":"IN","region":"Bihar","regionCode":"BR","latitude":24.90247,"longitude":84.18217},{"id":56721,"wikiDataId":"Q1192430","type":"CITY","city":"Dehu","name":"Dehu","country":"India","countryCode":"IN","region":"Maharashtra","regionCode":"MH","latitude":18.71851,"longitude":73.76635},{"id":56361,"wikiDataId":"Q1353","type":"CITY","city":"Delhi","name":"Delhi","country":"India","countryCode":"IN","region":"Delhi","regionCode":"DL","latitude":28.65195,"longitude":77.23149},{"id":56192,"type":"CITY","city":"Delvāda","name":"Delvāda","country":"India","countryCode":"IN","region":"Gujarat","regionCode":"GJ","latitude":20.77544,"longitude":71.04646},{"id":55919,"type":"CITY","city":"Denkanikota","name":"Denkanikota","country":"India","countryCode":"IN","region":"Tamil Nadu","regionCode":"TN","latitude":12.5301,"longitude":77.78887},{"id":56525,"wikiDataId":"Q1017658","type":"CITY","city":"Deoband","name":"Deoband","country":"India","countryCode":"IN","region":"Uttar Pradesh","regionCode":"UP","latitude":29.69505,"longitude":77.67964},{"id":56723,"wikiDataId":"Q1193197","type":"CITY","city":"Deogarh","name":"Deogarh","country":"India","countryCode":"IN","region":"Odisha","regionCode":"OR","latitude":21.53827,"longitude":84.73337},{"id":147996,"wikiDataId":"Q2030017","type":"ADM2","city":"Deogarh","name":"Deogarh","country":"India","countryCode":"IN","region":"Jharkhand","regionCode":"JH","latitude":24.44382,"longitude":86.72607},{"id":56196,"wikiDataId":"Q3299159","type":"CITY","city":"Deoli","name":"Deoli","country":"India","countryCode":"IN","region":"Rajasthan","regionCode":"RJ","latitude":25.75728,"longitude":75.37991},
{"id":56765,"wikiDataId":"Q2429122","type":"CITY","city":"Deoli","name":"Deoli","country":"India","countryCode":"IN","region":"Maharashtra","regionCode":"MH","latitude":20.6492,"longitude":78.48023},{"id":57701,"type":"CITY","city":"Deoli","name":"Deoli","country":"India","countryCode":"IN","region":"Delhi","regionCode":"DL","latitude":28.50254,"longitude":77.23117},{"id":56488,"wikiDataId":"Q958334","type":"CITY","city":"Deolāli","name":"Deolāli","country":"India","countryCode":"IN","region":"Maharashtra","regionCode":"MH","latitude":19.94404,"longitude":73.83441},{"id":56537,"wikiDataId":"Q1190738","type":"CITY","city":"Deoraniān","name":"Deoraniān","country":"India","countryCode":"IN","region":"Uttar Pradesh","regionCode":"UP","latitude":28.62989,"longitude":79.47648},{"id":56013,"type":"CITY","city":"Deori","name":"Deori","country":"India","countryCode":"IN","region":"Chhattisgarh","regionCode":"CT","latitude":21.45,"longitude":82.61667},{"id":56757,"wikiDataId":"Q1649811","type":"CITY","city":"Deori Khās","name":"Deori Khās","country":"India","countryCode":"IN","region":"Madhya Pradesh","regionCode":"MP","latitude":23.39017,"longitude":79.0163},{"id":147653,"wikiDataId":"Q731746","type":"ADM2","city":"Deoria","name":"Deoria","country":"India","countryCode":"IN","region":"Uttar Pradesh","regionCode":"UP","latitude":26.66667,"longitude":83.75},{"id":56539,"wikiDataId":"Q2446961","type":"CITY","city":"Depālpur","name":"Depālpur","country":"India","countryCode":"IN","region":"Madhya Pradesh","regionCode":"MP","latitude":22.85095,"longitude":75.54224},{"id":55787,"wikiDataId":"Q1193478","type":"CITY","city":"Dera Gopipur","name":"Dera Gopipur","country":"India","countryCode":"IN","region":"Himachal Pradesh","regionCode":"HP","latitude":31.87919,"longitude":76.21871},{"id":56568,"wikiDataId":"Q1189812","type":"CITY","city":"Dergaon","name":"Dergaon","country":"India","countryCode":"IN","region":"Assam","regionCode":"AS","latitude":26.7,"longitude":93.96667},
{"id":56397,"wikiDataId":"Q1190222","type":"CITY","city":"Derā Nānak","name":"Derā Nānak","country":"India","countryCode":"IN","region":"Punjab","regionCode":"PB","latitude":32.03733,"longitude":75.02787},{"id":56455,"wikiDataId":"Q1190784","type":"CITY","city":"Deshnoke","name":"Deshnoke","country":"India","countryCode":"IN","region":"Rajasthan","regionCode":"RJ","latitude":27.79836,"longitude":73.34297},{"id":56531,"wikiDataId":"Q1190753","type":"CITY","city":"Desūr","name":"Desūr","country":"India","countryCode":"IN","region":"Tamil Nadu","regionCode":"TN","latitude":12.43727,"longitude":79.48145},{"id":56726,"wikiDataId":"Q1260462","type":"CITY","city":"Devadānappatti","name":"Devadānappatti","country":"India","countryCode":"IN","region":"Tamil Nadu","regionCode":"TN","latitude":10.14673,"longitude":77.6439},{"id":56158,"wikiDataId":"Q1260517","type":"CITY","city":"Devakottai","name":"Devakottai","country":"India","countryCode":"IN","region":"Tamil Nadu","regionCode":"TN","latitude":9.94704,"longitude":78.8233},{"id":55936,"wikiDataId":"Q2087756","type":"CITY","city":"Devanhalli","name":"Devanhalli","country":"India","countryCode":"IN","region":"Karnataka","regionCode":"KA","latitude":13.24655,"longitude":77.71183},{"id":56380,"type":"CITY","city":"Devaprayāg","name":"Devaprayāg","country":"India","countryCode":"IN","region":"Uttarakhand","regionCode":"UT","latitude":30.14603,"longitude":78.60272},{"id":55998,"type":"CITY","city":"Devarkonda","name":"Devarkonda","country":"India","countryCode":"IN","region":"Telangana","regionCode":"TG","latitude":16.69186,"longitude":78.92073},{"id":148056,"type":"ADM2","city":"Devbhumi Dwarka","name":"Devbhumi Dwarka","country":"India","countryCode":"IN","region":"Gujarat","regionCode":"GJ","latitude":22.20253,"longitude":69.65498},{"id":55814,"wikiDataId":"Q1263667","type":"CITY","city":"Devgadh Bāriya","name":"Devgadh Bāriya","country":"India","countryCode":"IN","region":"Gujarat","regionCode":"GJ","latitude":22.70517,"longitude":73.90882},
{"id":56644,"wikiDataId":"Q1007981","type":"CITY","city":"Devgarh","name":"Devgarh","country":"India","countryCode":"IN","region":"Rajasthan","regionCode":"RJ","latitude":25.52533,"longitude":73.90812},{"id":147649,"wikiDataId":"Q2025998","type":"ADM2","city":"Dewas","name":"Dewas","country":"India","countryCode":"IN","region":"Madhya Pradesh","regionCode":"MP","latitude":23.0,"longitude":76.16667},{"id":56413,"wikiDataId":"Q1253622","type":"CITY","city":"Dewā","name":"Dewā","country":"India","countryCode":"IN","region":"Uttar Pradesh","regionCode":"UP","latitude":27.03621,"longitude":81.16692},{"id":56629,"wikiDataId":"Q1189972","type":"CITY","city":"Deūlgaon Rāja","name":"Deūlgaon Rāja","country":"India","countryCode":"IN","region":"Maharashtra","regionCode":"MH","latitude":20.01757,"longitude":76.03755},{"id":147976,"wikiDataId":"Q2086546","type":"ADM2","city":"Dhalai","name":"Dhalai","country":"India","countryCode":"IN","region":"Tripura","regionCode":"TR","latitude":23.84307,"longitude":91.92591},{"id":55979,"wikiDataId":"Q2554844","type":"CITY","city":"Dhali","name":"Dhali","country":"India","countryCode":"IN","region":"Tamil Nadu","regionCode":"TN","latitude":10.51049,"longitude":77.18806},{"id":56740,"wikiDataId":"Q1264075","type":"CITY","city":"Dhamtari","name":"Dhamtari","country":"India","countryCode":"IN","region":"Chhattisgarh","regionCode":"CT","latitude":20.70718,"longitude":81.54874},{"id":56018,"wikiDataId":"Q1265949","type":"CITY","city":"Dhanaula","name":"Dhanaula","country":"India","countryCode":"IN","region":"Punjab","regionCode":"PB","latitude":30.28216,"longitude":75.57341},{"id":55989,"wikiDataId":"Q1258768","type":"CITY","city":"Dhanaura","name":"Dhanaura","country":"India","countryCode":"IN","region":"Uttar Pradesh","regionCode":"UP","latitude":28.95912,"longitude":78.25629},{"id":56326,"wikiDataId":"Q244159","type":"CITY","city":"Dhanbād","name":"Dhanbād","country":"India","countryCode":"IN","region":"Jharkhand","regionCode":"JH","latitude":23.80199,"longitude":86.44324},
{"id":55953,"wikiDataId":"Q1259584","type":"CITY","city":"Dhandhuka","name":"Dhandhuka","country":"India","countryCode":"IN","region":"Gujarat","regionCode":"GJ","latitude":22.38185,"longitude":71.98664},{"id":56207,"wikiDataId":"Q1266017","type":"CITY","city":"Dhanera","name":"Dhanera","country":"India","countryCode":"IN","region":"Gujarat","regionCode":"GJ","latitude":24.50967,"longitude":72.02343},{"id":56759,"wikiDataId":"Q720234","type":"CITY","city":"Dhanwār","name":"Dhanwār","country":"India","countryCode":"IN","region":"Jharkhand","regionCode":"JH","latitude":24.41074,"longitude":85.98183},{"id":55857,"wikiDataId":"Q2465676","type":"CITY","city":"Dharampur","name":"Dharampur","country":"India","countryCode":"IN","region":"Gujarat","regionCode":"GJ","latitude":20.53693,"longitude":73.17368},{"id":55780,"wikiDataId":"Q1266025","type":"CITY","city":"Dharampuri","name":"Dharampuri","country":"India","countryCode":"IN","region":"Madhya Pradesh","regionCode":"MP","latitude":22.14951,"longitude":75.34439},{"id":56559,"wikiDataId":"Q186182","type":"CITY","city":"Dharamsala","name":"Dharamsala","country":"India","countryCode":"IN","region":"Himachal Pradesh","regionCode":"HP","latitude":32.22006,"longitude":76.32013},{"id":56047,"wikiDataId":"Q1264596","type":"CITY","city":"Dharangaon","name":"Dharangaon","country":"India","countryCode":"IN","region":"Maharashtra","regionCode":"MH","latitude":21.01187,"longitude":75.27407},{"id":56582,"wikiDataId":"Q325951","type":"CITY","city":"Dharapuram","name":"Dharapuram","country":"India","countryCode":"IN","region":"Tamil Nadu","regionCode":"TN","latitude":10.73828,"longitude":77.53223},{"id":56149,"wikiDataId":"Q1265354","type":"CITY","city":"Dharmadam","name":"Dharmadam","country":"India","countryCode":"IN","region":"Kerala","regionCode":"KL","latitude":11.77538,"longitude":75.46459},{"id":56092,"wikiDataId":"Q1258127","type":"CITY","city":"Dharmanagar","name":"Dharmanagar","country":"India","countryCode":"IN","region":"Tripura","regionCode":"TR","latitude":24.36667,"longitude":92.16667},
{"id":56558,"wikiDataId":"Q9894","type":"CITY","city":"Dharmapuri","name":"Dharmapuri","country":"India","countryCode":"IN","region":"Tamil Nadu","regionCode":"TN","latitude":12.1277,"longitude":78.15794},{"id":56545,"wikiDataId":"Q1948238","type":"CITY","city":"Dharmavaram","name":"Dharmavaram","country":"India","countryCode":"IN","region":"Andhra Pradesh","regionCode":"AP","latitude":14.41435,"longitude":77.72035},{"id":55798,"wikiDataId":"Q1266630","type":"CITY","city":"Dharmābād","name":"Dharmābād","country":"India","countryCode":"IN","region":"Maharashtra","regionCode":"MH","latitude":18.89116,"longitude":77.8494},{"id":147644,"wikiDataId":"Q1790904","type":"ADM2","city":"Dharwad","name":"Dharwad","country":"India","countryCode":"IN","region":"Karnataka","regionCode":"KA","latitude":15.37,"longitude":75.14},{"id":147815,"wikiDataId":"Q1207709","type":"ADM2","city":"Dhaulpur","name":"Dhaulpur","country":"India","countryCode":"IN","region":"Rajasthan","regionCode":"RJ","latitude":26.71183,"longitude":77.73956},{"id":56350,"type":"CITY","city":"Dhaurahra","name":"Dhaurahra","country":"India","countryCode":"IN","region":"Uttar Pradesh","regionCode":"UP","latitude":27.99814,"longitude":81.08975},{"id":56208,"wikiDataId":"Q1258219","type":"CITY","city":"Dhekiajuli","name":"Dhekiajuli","country":"India","countryCode":"IN","region":"Assam","regionCode":"AS","latitude":26.70367,"longitude":92.47808},{"id":147767,"wikiDataId":"Q42473","type":"ADM2","city":"Dhemaji","name":"Dhemaji","country":"India","countryCode":"IN","region":"Assam","regionCode":"AS","latitude":27.6091,"longitude":94.7942},{"id":56594,"wikiDataId":"Q1264822","type":"CITY","city":"Dhemāji","name":"Dhemāji","country":"India","countryCode":"IN","region":"Assam","regionCode":"AS","latitude":27.48333,"longitude":94.58333},{"id":147642,"wikiDataId":"Q1948389","type":"ADM2","city":"Dhenkānāl","name":"Dhenkānāl","country":"India","countryCode":"IN","region":"Odisha","regionCode":"OR","latitude":20.75,"longitude":85.5},
{"id":56145,"wikiDataId":"Q1258759","type":"CITY","city":"Dhilwan","name":"Dhilwan","country":"India","countryCode":"IN","region":"Punjab","regionCode":"PB","latitude":31.51432,"longitude":75.34574},{"id":56728,"wikiDataId":"Q1259385","type":"CITY","city":"Dhing","name":"Dhing","country":"India","countryCode":"IN","region":"Assam","regionCode":"AS","latitude":26.46793,"longitude":92.47336},{"id":56422,"wikiDataId":"Q2355879","type":"CITY","city":"Dhola","name":"Dhola","country":"India","countryCode":"IN","region":"Gujarat","regionCode":"GJ","latitude":21.88129,"longitude":71.77269},{"id":55893,"wikiDataId":"Q1263568","type":"CITY","city":"Dholka","name":"Dholka","country":"India","countryCode":"IN","region":"Gujarat","regionCode":"GJ","latitude":22.72732,"longitude":72.44128},{"id":56310,"type":"CITY","city":"Dhone","name":"Dhone","country":"India","countryCode":"IN","region":"Andhra Pradesh","regionCode":"AP","latitude":15.3952,"longitude":77.8715},{"id":56724,"wikiDataId":"Q1259573","type":"CITY","city":"Dhorāji","name":"Dhorāji","country":"India","countryCode":"IN","region":"Gujarat","regionCode":"GJ","latitude":21.73359,"longitude":70.45004},{"id":56702,"wikiDataId":"Q927778","type":"CITY","city":"Dhrol","name":"Dhrol","country":"India","countryCode":"IN","region":"Gujarat","regionCode":"GJ","latitude":22.567,"longitude":70.41769},{"id":56660,"wikiDataId":"Q1265559","type":"CITY","city":"Dhrāngadhra","name":"Dhrāngadhra","country":"India","countryCode":"IN","region":"Gujarat","regionCode":"GJ","latitude":22.99167,"longitude":71.46793},{"id":147791,"type":"ADM2","city":"Dhubri","name":"Dhubri","country":"India","countryCode":"IN","region":"Assam","regionCode":"AS","latitude":26.06749,"longitude":90.02238},{"id":56403,"wikiDataId":"Q1266586","type":"CITY","city":"Dhuburi","name":"Dhuburi","country":"India","countryCode":"IN","region":"Assam","regionCode":"AS","latitude":26.01856,"longitude":89.98564},
{"id":57592,"type":"CITY","city":"Dhulagari","name":"Dhulagari","country":"India","countryCode":"IN","region":"West Bengal","regionCode":"WB","latitude":22.58213,"longitude":88.171},{"id":147648,"wikiDataId":"Q1797383","type":"ADM2","city":"Dhule","name":"Dhule","country":"India","countryCode":"IN","region":"Maharashtra","regionCode":"MH","latitude":21.06852,"longitude":74.58837},{"id":56212,"wikiDataId":"Q1265617","type":"CITY","city":"Dhuliān","name":"Dhuliān","country":"India","countryCode":"IN","region":"West Bengal","regionCode":"WB","latitude":24.68127,"longitude":87.9535},{"id":56213,"wikiDataId":"Q1259697","type":"CITY","city":"Dhupgāri","name":"Dhupgāri","country":"India","countryCode":"IN","region":"West Bengal","regionCode":"WB","latitude":26.58904,"longitude":89.00732},{"id":56770,"type":"CITY","city":"Dhuwaran","name":"Dhuwaran","country":"India","countryCode":"IN","region":"Gujarat","regionCode":"GJ","latitude":22.23779,"longitude":72.7591},{"id":56136,"wikiDataId":"Q1257018","type":"CITY","city":"Dhāka","name":"Dhāka","country":"India","countryCode":"IN","region":"Bihar","regionCode":"BR","latitude":26.67479,"longitude":85.16698},{"id":56243,"wikiDataId":"Q1259705","type":"CITY","city":"Dhāmnod","name":"Dhāmnod","country":"India","countryCode":"IN","region":"Madhya Pradesh","regionCode":"MP","latitude":22.20928,"longitude":75.47057},{"id":55871,"wikiDataId":"Q1259747","type":"CITY","city":"Dhāmpur","name":"Dhāmpur","country":"India","countryCode":"IN","region":"Uttar Pradesh","regionCode":"UP","latitude":29.30883,"longitude":78.51083},{"id":55877,"wikiDataId":"Q1259557","type":"CITY","city":"Dhāna","name":"Dhāna","country":"India","countryCode":"IN","region":"Madhya Pradesh","regionCode":"MP","latitude":23.74697,"longitude":78.86234},{"id":147655,"type":"ADM2","city":"Dhānbād","name":"Dhānbād","country":"India","countryCode":"IN","region":"Jharkhand","regionCode":"JH","latitude":23.75,"longitude":86.41667},
{"id":55776,"wikiDataId":"Q617987","type":"CITY","city":"Dhār","name":"Dhār","country":"India","countryCode":"IN","region":"Madhya Pradesh","regionCode":"MP","latitude":22.59373,"longitude":75.29774},{"id":55849,"wikiDataId":"Q684523","type":"CITY","city":"Dhārchula","name":"Dhārchula","country":"India","countryCode":"IN","region":"Uttarakhand","regionCode":"UT","latitude":29.84707,"longitude":80.51951},{"id":56459,"wikiDataId":"Q2761749","type":"CITY","city":"Dhāri","name":"Dhāri","country":"India","countryCode":"IN","region":"Gujarat","regionCode":"GJ","latitude":21.32855,"longitude":71.02645},{"id":56475,"type":"CITY","city":"Dhāriwāl","name":"Dhāriwāl","country":"India","countryCode":"IN","region":"Punjab","regionCode":"PB","latitude":31.95616,"longitude":75.32386},{"id":56347,"wikiDataId":"Q1258723","type":"CITY","city":"Dhāruhera","name":"Dhāruhera","country":"India","countryCode":"IN","region":"Haryana","regionCode":"HR","latitude":28.20553,"longitude":76.79691},{"id":56452,"wikiDataId":"Q2546835","type":"CITY","city":"Dhārūr","name":"Dhārūr","country":"India","countryCode":"IN","region":"Maharashtra","regionCode":"MH","latitude":18.82017,"longitude":76.10937},{"id":56297,"wikiDataId":"Q773603","type":"CITY","city":"Dhūlia","name":"Dhūlia","country":"India","countryCode":"IN","region":"Maharashtra","regionCode":"MH","latitude":20.9013,"longitude":74.77737},{"id":56751,"wikiDataId":"Q1259563","type":"CITY","city":"Dhūri","name":"Dhūri","country":"India","countryCode":"IN","region":"Punjab","regionCode":"PB","latitude":30.36846,"longitude":75.86791},{"id":55914,"wikiDataId":"Q1264213","type":"CITY","city":"Diamond Harbour","name":"Diamond Harbour","country":"India","countryCode":"IN","region":"West Bengal","regionCode":"WB","latitude":22.19303,"longitude":88.18466},{"id":55929,"wikiDataId":"Q592554","type":"CITY","city":"Dibai","name":"Dibai","country":"India","countryCode":"IN","region":"Uttar Pradesh","regionCode":"UP","latitude":28.20849,"longitude":78.26173},
{"id":147650,"wikiDataId":"Q42479","type":"ADM2","city":"Dibrugarh","name":"Dibrugarh","country":"India","countryCode":"IN","region":"Assam","regionCode":"AS","latitude":27.5,"longitude":95.0},{"id":147652,"type":"ADM2","city":"Dibāng Valley","name":"Dibāng Valley","country":"India","countryCode":"IN","region":"Arunachal Pradesh","regionCode":"AR","latitude":28.7,"longitude":95.7},{"id":55873,"wikiDataId":"Q796819","type":"CITY","city":"Dicholi","name":"Dicholi","country":"India","countryCode":"IN","region":"Goa","regionCode":"GA","latitude":15.59319,"longitude":73.94571},{"id":55880,"wikiDataId":"Q1255951","type":"CITY","city":"Digapahandi","name":"Digapahandi","country":"India","countryCode":"IN","region":"Odisha","regionCode":"OR","latitude":19.37275,"longitude":84.57184},{"id":56035,"wikiDataId":"Q1267577","type":"CITY","city":"Digboi","name":"Digboi","country":"India","countryCode":"IN","region":"Assam","regionCode":"AS","latitude":27.39321,"longitude":95.61839},{"id":56200,"wikiDataId":"Q5275680","type":"CITY","city":"Digha","name":"Digha","country":"India","countryCode":"IN","region":"West Bengal","regionCode":"WB","latitude":21.62776,"longitude":87.51965},{"id":56199,"wikiDataId":"Q1255941","type":"CITY","city":"Dighwāra","name":"Dighwāra","country":"India","countryCode":"IN","region":"Bihar","regionCode":"BR","latitude":25.74434,"longitude":85.01003},{"id":56244,"wikiDataId":"Q1259725","type":"CITY","city":"Digras","name":"Digras","country":"India","countryCode":"IN","region":"Maharashtra","regionCode":"MH","latitude":20.1035,"longitude":77.71846},{"id":55866,"wikiDataId":"Q5276378","type":"CITY","city":"Diguvametta","name":"Diguvametta","country":"India","countryCode":"IN","region":"Andhra Pradesh","regionCode":"AP","latitude":15.39507,"longitude":78.8293},{"id":147493,"wikiDataId":"Q42774","type":"ADM2","city":"Dima Hasao District","name":"Dima Hasao District","country":"India","countryCode":"IN","region":"Assam","regionCode":"AS","latitude":25.5,"longitude":93.0},
{"id":147963,"wikiDataId":"Q634262","type":"ADM2","city":"Dimapur","name":"Dimapur","country":"India","countryCode":"IN","region":"Nagaland","regionCode":"NL","latitude":25.77852,"longitude":93.78508},{"id":55825,"wikiDataId":"Q867111","type":"CITY","city":"Dimāpur","name":"Dimāpur","country":"India","countryCode":"IN","region":"Nagaland","regionCode":"NL","latitude":25.91174,"longitude":93.7217},{"id":55926,"wikiDataId":"Q1022305","type":"CITY","city":"Dinapore","name":"Dinapore","country":"India","countryCode":"IN","region":"Bihar","regionCode":"BR","latitude":25.63705,"longitude":85.04794},{"id":147903,"wikiDataId":"Q15154","type":"ADM2","city":"Dindigul","name":"Dindigul","country":"India","countryCode":"IN","region":"Tamil Nadu","regionCode":"TN","latitude":10.4,"longitude":77.8},{"id":147759,"wikiDataId":"Q2398551","type":"ADM2","city":"Dindori","name":"Dindori","country":"India","countryCode":"IN","region":"Madhya Pradesh","regionCode":"MP","latitude":22.8,"longitude":81.1},{"id":56280,"wikiDataId":"Q1227167","type":"CITY","city":"Diphu","name":"Diphu","country":"India","countryCode":"IN","region":"Assam","regionCode":"AS","latitude":25.84341,"longitude":93.43116},{"id":56526,"wikiDataId":"Q1257699","type":"CITY","city":"Dirba","name":"Dirba","country":"India","countryCode":"IN","region":"Punjab","regionCode":"PB","latitude":30.07222,"longitude":75.99607},{"id":55975,"wikiDataId":"Q271911","type":"CITY","city":"Dispur","name":"Dispur","country":"India","countryCode":"IN","region":"Assam","regionCode":"AS","latitude":26.13564,"longitude":91.80069},{"id":147645,"wikiDataId":"Q2552347","type":"ADM2","city":"Diu","name":"Diu","country":"India","countryCode":"IN","region":"Daman and Diu","regionCode":"DD","latitude":20.72081,"longitude":70.93989},{"id":55775,"wikiDataId":"Q1264006","type":"CITY","city":"Dod Ballāpur","name":"Dod Ballāpur","country":"India","countryCode":"IN","region":"Karnataka","regionCode":"KA","latitude":13.29452,"longitude":77.53777},
{"id":56188,"wikiDataId":"Q1263751","type":"CITY","city":"Doda","name":"Doda","country":"India","countryCode":"IN","region":"Jammu and Kashmir","regionCode":"JK","latitude":33.14916,"longitude":75.54746},{"id":147808,"wikiDataId":"Q186518","type":"ADM2","city":"Dohad","name":"Dohad","country":"India","countryCode":"IN","region":"Gujarat","regionCode":"GJ","latitude":22.9,"longitude":74.0},{"id":56287,"wikiDataId":"Q1257816","type":"CITY","city":"Dohrighāt","name":"Dohrighāt","country":"India","countryCode":"IN","region":"Uttar Pradesh","regionCode":"UP","latitude":26.27217,"longitude":83.50916},{"id":55944,"wikiDataId":"Q1258676","type":"CITY","city":"Doiwāla","name":"Doiwāla","country":"India","countryCode":"IN","region":"Uttarakhand","regionCode":"UT","latitude":30.17667,"longitude":78.11659},{"id":56404,"wikiDataId":"Q3034709","type":"CITY","city":"Dombivli","name":"Dombivli","country":"India","countryCode":"IN","region":"Maharashtra","regionCode":"MH","latitude":19.21667,"longitude":73.08333},{"id":55801,"type":"CITY","city":"Dondaicha","name":"Dondaicha","country":"India","countryCode":"IN","region":"Maharashtra","regionCode":"MH","latitude":21.3236,"longitude":74.56804},{"id":56049,"wikiDataId":"Q1387439","type":"CITY","city":"Dongargaon","name":"Dongargaon","country":"India","countryCode":"IN","region":"Chhattisgarh","regionCode":"CT","latitude":20.97172,"longitude":80.85077},{"id":56683,"wikiDataId":"Q1387087","type":"CITY","city":"Dongargarh","name":"Dongargarh","country":"India","countryCode":"IN","region":"Chhattisgarh","regionCode":"CT","latitude":21.18893,"longitude":80.75459},{"id":56370,"type":"CITY","city":"Dornakal","name":"Dornakal","country":"India","countryCode":"IN","region":"Telangana","regionCode":"TG","latitude":17.44475,"longitude":80.14905},{"id":56604,"wikiDataId":"Q1193432","type":"CITY","city":"Dorāha","name":"Dorāha","country":"India","countryCode":"IN","region":"Punjab","regionCode":"PB","latitude":30.79953,"longitude":76.02355},
{"id":56454,"wikiDataId":"Q1387112","type":"CITY","city":"Dostpur","name":"Dostpur","country":"India","countryCode":"IN","region":"Uttar Pradesh","regionCode":"UP","latitude":26.27486,"longitude":82.47091},{"id":56250,"wikiDataId":"Q656516","type":"CITY","city":"Dubrājpur","name":"Dubrājpur","country":"India","countryCode":"IN","region":"West Bengal","regionCode":"WB","latitude":23.7902,"longitude":87.37648},{"id":56616,"wikiDataId":"Q1387098","type":"CITY","city":"Dudhani","name":"Dudhani","country":"India","countryCode":"IN","region":"Maharashtra","regionCode":"MH","latitude":17.35792,"longitude":76.36688},{"id":56605,"wikiDataId":"Q1256996","type":"CITY","city":"Dugadda","name":"Dugadda","country":"India","countryCode":"IN","region":"Uttarakhand","regionCode":"UT","latitude":29.80673,"longitude":78.61109},{"id":56469,"wikiDataId":"Q1387263","type":"CITY","city":"Dugda","name":"Dugda","country":"India","countryCode":"IN","region":"Jharkhand","regionCode":"JH","latitude":23.74516,"longitude":86.17175},{"id":56295,"type":"CITY","city":"Duliāgaon","name":"Duliāgaon","country":"India","countryCode":"IN","region":"Assam","regionCode":"AS","latitude":27.37227,"longitude":95.30754},{"id":56446,"wikiDataId":"Q1387064","type":"CITY","city":"Dum Duma","name":"Dum Duma","country":"India","countryCode":"IN","region":"Assam","regionCode":"AS","latitude":27.56884,"longitude":95.55664},{"id":57181,"wikiDataId":"Q677375","type":"CITY","city":"Dumjor","name":"Dumjor","country":"India","countryCode":"IN","region":"West Bengal","regionCode":"WB","latitude":22.61993,"longitude":88.24566},{"id":147751,"wikiDataId":"Q2577657","type":"ADM2","city":"Dumka","name":"Dumka","country":"India","countryCode":"IN","region":"Jharkhand","regionCode":"JH","latitude":24.3,"longitude":87.25},{"id":56286,"type":"CITY","city":"Dumra","name":"Dumra","country":"India","countryCode":"IN","region":"Bihar","regionCode":"BR","latitude":26.56708,"longitude":85.5204},
{"id":55978,"wikiDataId":"Q1524667","type":"CITY","city":"Dumraon","name":"Dumraon","country":"India","countryCode":"IN","region":"Bihar","regionCode":"BR","latitude":25.55265,"longitude":84.15149},{"id":56074,"type":"CITY","city":"Dungarpur","name":"Dungarpur","country":"India","countryCode":"IN","region":"Gujarat","regionCode":"GJ","latitude":21.28777,"longitude":71.7556},{"id":147631,"wikiDataId":"Q100182","type":"ADM2","city":"Durg","name":"Durg","country":"India","countryCode":"IN","region":"Chhattisgarh","regionCode":"CT","latitude":21.15,"longitude":81.4},{"id":56731,"wikiDataId":"Q5088","type":"CITY","city":"Durgapur","name":"Durgapur","country":"India","countryCode":"IN","region":"West Bengal","regionCode":"WB","latitude":23.51583,"longitude":87.30801},{"id":55823,"wikiDataId":"Q3716506","type":"CITY","city":"Durgāpur","name":"Durgāpur","country":"India","countryCode":"IN","region":"Maharashtra","regionCode":"MH","latitude":20.0054,"longitude":79.30273},{"id":55853,"wikiDataId":"Q817247","type":"CITY","city":"Dwārka","name":"Dwārka","country":"India","countryCode":"IN","region":"Gujarat","regionCode":"GJ","latitude":22.23944,"longitude":68.96778},{"id":55816,"wikiDataId":"Q1524687","type":"CITY","city":"Dwārāhāt","name":"Dwārāhāt","country":"India","countryCode":"IN","region":"Uttarakhand","regionCode":"UT","latitude":29.77785,"longitude":79.42731},{"id":56278,"wikiDataId":"Q5207479","type":"CITY","city":"Dābhol","name":"Dābhol","country":"India","countryCode":"IN","region":"Maharashtra","regionCode":"MH","latitude":17.58971,"longitude":73.18001},{"id":56102,"wikiDataId":"Q1192802","type":"CITY","city":"Dādri","name":"Dādri","country":"India","countryCode":"IN","region":"Uttar Pradesh","regionCode":"UP","latitude":28.55257,"longitude":77.55403},{"id":56318,"wikiDataId":"Q1190226","type":"CITY","city":"Dāhānu","name":"Dāhānu","country":"India","countryCode":"IN","region":"Maharashtra","regionCode":"MH","latitude":19.96778,"longitude":72.71263},
{"id":56760,"wikiDataId":"Q1192377","type":"CITY","city":"Dākor","name":"Dākor","country":"India","countryCode":"IN","region":"Gujarat","regionCode":"GJ","latitude":22.75268,"longitude":73.14967},{"id":56193,"wikiDataId":"Q1189805","type":"CITY","city":"Dāmnagar","name":"Dāmnagar","country":"India","countryCode":"IN","region":"Gujarat","regionCode":"GJ","latitude":21.69232,"longitude":71.51747},{"id":56121,"wikiDataId":"Q169997","type":"CITY","city":"Dārjiling","name":"Dārjiling","country":"India","countryCode":"IN","region":"West Bengal","regionCode":"WB","latitude":27.03333,"longitude":88.26667},{"id":55903,"wikiDataId":"Q1190716","type":"CITY","city":"Dārwha","name":"Dārwha","country":"India","countryCode":"IN","region":"Maharashtra","regionCode":"MH","latitude":20.31017,"longitude":77.77257},{"id":56120,"wikiDataId":"Q1190804","type":"CITY","city":"Dāsna","name":"Dāsna","country":"India","countryCode":"IN","region":"Uttar Pradesh","regionCode":"UP","latitude":28.67736,"longitude":77.52252},{"id":56203,"wikiDataId":"Q1192215","type":"CITY","city":"Dātāganj","name":"Dātāganj","country":"India","countryCode":"IN","region":"Uttar Pradesh","regionCode":"UP","latitude":28.0253,"longitude":79.40819},{"id":55843,"wikiDataId":"Q1264589","type":"CITY","city":"Dīdwāna","name":"Dīdwāna","country":"India","countryCode":"IN","region":"Rajasthan","regionCode":"RJ","latitude":27.40096,"longitude":74.57537},{"id":55995,"wikiDataId":"Q1192807","type":"CITY","city":"Dīg","name":"Dīg","country":"India","countryCode":"IN","region":"Rajasthan","regionCode":"RJ","latitude":27.47188,"longitude":77.32564},{"id":56223,"wikiDataId":"Q1192446","type":"CITY","city":"Dīglūr","name":"Dīglūr","country":"India","countryCode":"IN","region":"Maharashtra","regionCode":"MH","latitude":18.54829,"longitude":77.57695},{"id":56585,"wikiDataId":"Q1264946","type":"CITY","city":"Dīnhāta","name":"Dīnhāta","country":"India","countryCode":"IN","region":"West Bengal","regionCode":"WB","latitude":26.13526,"longitude":89.46129},
{"id":56548,"wikiDataId":"Q1258159","type":"CITY","city":"Dīnānagar","name":"Dīnānagar","country":"India","countryCode":"IN","region":"Punjab","regionCode":"PB","latitude":32.13664,"longitude":75.47291},{"id":56218,"type":"CITY","city":"Dīsa","name":"Dīsa","country":"India","countryCode":"IN","region":"Gujarat","regionCode":"GJ","latitude":24.25612,"longitude":72.17928},{"id":56111,"wikiDataId":"Q1387427","type":"CITY","city":"Dūdhi","name":"Dūdhi","country":"India","countryCode":"IN","region":"Uttar Pradesh","regionCode":"UP","latitude":24.21357,"longitude":83.24067},{"id":56687,"wikiDataId":"Q741991","type":"CITY","city":"Dūngarpur","name":"Dūngarpur","country":"India","countryCode":"IN","region":"Rajasthan","regionCode":"RJ","latitude":23.84306,"longitude":73.71466},{"id":55970,"wikiDataId":"Q2541621","type":"CITY","city":"Dūsi","name":"Dūsi","country":"India","countryCode":"IN","region":"Tamil Nadu","regionCode":"TN","latitude":12.77574,"longitude":79.67892},{"id":147875,"wikiDataId":"Q107960","type":"ADM2","city":"East Delhi","name":"East Delhi","country":"India","countryCode":"IN","region":"Delhi","regionCode":"DL","latitude":28.66242,"longitude":77.29122},{"id":147625,"wikiDataId":"Q1772832","type":"ADM2","city":"East District","name":"East District","country":"India","countryCode":"IN","region":"Sikkim","regionCode":"SK","latitude":27.33333,"longitude":88.66667},{"id":147632,"wikiDataId":"Q15338","type":"ADM2","city":"East Godāvari","name":"East Godāvari","country":"India","countryCode":"IN","region":"Andhra Pradesh","regionCode":"AP","latitude":17.83333,"longitude":81.83333},{"id":147629,"wikiDataId":"Q2085455","type":"ADM2","city":"East Gāro Hills","name":"East Gāro Hills","country":"India","countryCode":"IN","region":"Meghalaya","regionCode":"ML","latitude":25.61372,"longitude":90.62426},{"id":148090,"wikiDataId":"Q15923776","type":"ADM2","city":"East Jaintia Hills","name":"East Jaintia Hills","country":"India","countryCode":"IN","region":"Meghalaya","regionCode":"ML","latitude":25.35976,"longitude":92.3668},
{"id":147624,"wikiDataId":"Q15424","type":"ADM2","city":"East Kameng","name":"East Kameng","country":"India","countryCode":"IN","region":"Arunachal Pradesh","regionCode":"AR","latitude":27.3,"longitude":93.05},{"id":147560,"wikiDataId":"Q1945304","type":"ADM2","city":"East Khāsi Hills","name":"East Khāsi Hills","country":"India","countryCode":"IN","region":"Meghalaya","regionCode":"ML","latitude":25.3805,"longitude":91.78905},{"id":147636,"type":"ADM2","city":"East Siang","name":"East Siang","country":"India","countryCode":"IN","region":"Arunachal Pradesh","regionCode":"AR","latitude":28.12379,"longitude":95.16339},{"id":57020,"type":"CITY","city":"Edakkulam","name":"Edakkulam","country":"India","countryCode":"IN","region":"Kerala","regionCode":"KL","latitude":10.6102,"longitude":76.18352},{"id":56418,"wikiDataId":"Q1525290","type":"CITY","city":"Egra","name":"Egra","country":"India","countryCode":"IN","region":"West Bengal","regionCode":"WB","latitude":21.89947,"longitude":87.53794},{"id":55932,"wikiDataId":"Q3415001","type":"CITY","city":"Elamanchili","name":"Elamanchili","country":"India","countryCode":"IN","region":"Andhra Pradesh","regionCode":"AP","latitude":17.54907,"longitude":82.85749},{"id":56217,"wikiDataId":"Q1524663","type":"CITY","city":"Ellenabad","name":"Ellenabad","country":"India","countryCode":"IN","region":"Haryana","regionCode":"HR","latitude":29.45282,"longitude":74.66122},{"id":56387,"wikiDataId":"Q1003496","type":"CITY","city":"Ellore","name":"Ellore","country":"India","countryCode":"IN","region":"Andhra Pradesh","regionCode":"AP","latitude":16.71311,"longitude":81.10437},{"id":56439,"wikiDataId":"Q1525119","type":"CITY","city":"Elumalai","name":"Elumalai","country":"India","countryCode":"IN","region":"Tamil Nadu","regionCode":"TN","latitude":9.86501,"longitude":77.69923},{"id":56489,"wikiDataId":"Q1525566","type":"CITY","city":"Elāyirampannai","name":"Elāyirampannai","country":"India","countryCode":"IN","region":"Tamil Nadu","regionCode":"TN","latitude":9.27033,"longitude":77.82494},
{"id":56108,"type":"CITY","city":"Elūr","name":"Elūr","country":"India","countryCode":"IN","region":"Kerala","regionCode":"KL","latitude":10.06667,"longitude":76.28333},{"id":56197,"wikiDataId":"Q2734064","type":"CITY","city":"Emmiganūr","name":"Emmiganūr","country":"India","countryCode":"IN","region":"Andhra Pradesh","regionCode":"AP","latitude":15.77203,"longitude":77.48345},{"id":56444,"wikiDataId":"Q1525095","type":"CITY","city":"Eral","name":"Eral","country":"India","countryCode":"IN","region":"Tamil Nadu","regionCode":"TN","latitude":8.62584,"longitude":78.02282},{"id":56096,"wikiDataId":"Q1523435","type":"CITY","city":"Erandol","name":"Erandol","country":"India","countryCode":"IN","region":"Maharashtra","regionCode":"MH","latitude":20.92206,"longitude":75.32641},{"id":56451,"wikiDataId":"Q1525157","type":"CITY","city":"Eraniel","name":"Eraniel","country":"India","countryCode":"IN","region":"Tamil Nadu","regionCode":"TN","latitude":8.20589,"longitude":77.31726},{"id":147628,"type":"ADM2","city":"Ernākulam","name":"Ernākulam","country":"India","countryCode":"IN","region":"Kerala","regionCode":"KL","latitude":10.0,"longitude":76.5},{"id":147884,"wikiDataId":"Q15155","type":"ADM2","city":"Erode","name":"Erode","country":"India","countryCode":"IN","region":"Tamil Nadu","regionCode":"TN","latitude":11.34,"longitude":77.55},{"id":56638,"wikiDataId":"Q720903","type":"CITY","city":"Erraguntla","name":"Erraguntla","country":"India","countryCode":"IN","region":"Andhra Pradesh","regionCode":"AP","latitude":14.63853,"longitude":78.53974},{"id":55908,"type":"CITY","city":"Erumaippatti","name":"Erumaippatti","country":"India","countryCode":"IN","region":"Tamil Nadu","regionCode":"TN","latitude":11.14671,"longitude":78.28996},{"id":56499,"wikiDataId":"Q2475592","type":"CITY","city":"Erāttupetta","name":"Erāttupetta","country":"India","countryCode":"IN","region":"Kerala","regionCode":"KL","latitude":9.68747,"longitude":76.77891},
{"id":147623,"wikiDataId":"Q1773429","type":"ADM2","city":"Etah","name":"Etah","country":"India","countryCode":"IN","region":"Uttar Pradesh","regionCode":"UP","latitude":27.5,"longitude":78.75},{"id":56076,"type":"CITY","city":"Etikoppāka","name":"Etikoppāka","country":"India","countryCode":"IN","region":"Andhra Pradesh","regionCode":"AP","latitude":17.5,"longitude":82.73333},{"id":56547,"type":"CITY","city":"Ettaiyapuram","name":"Ettaiyapuram","country":"India","countryCode":"IN","region":"Tamil Nadu","regionCode":"TN","latitude":9.14405,"longitude":77.99066},{"id":56478,"wikiDataId":"Q858501","type":"CITY","city":"Etāwa","name":"Etāwa","country":"India","countryCode":"IN","region":"Madhya Pradesh","regionCode":"MP","latitude":24.18351,"longitude":78.20289},{"id":147633,"wikiDataId":"Q1815288","type":"ADM2","city":"Etāwah","name":"Etāwah","country":"India","countryCode":"IN","region":"Uttar Pradesh","regionCode":"UP","latitude":26.75,"longitude":79.25},{"id":56470,"wikiDataId":"Q1523144","type":"CITY","city":"Faizpur","name":"Faizpur","country":"India","countryCode":"IN","region":"Maharashtra","regionCode":"MH","latitude":21.16766,"longitude":75.86006},{"id":147626,"wikiDataId":"Q1814132","type":"ADM2","city":"Faizābād","name":"Faizābād","country":"India","countryCode":"IN","region":"Uttar Pradesh","regionCode":"UP","latitude":26.75,"longitude":82.0},{"id":56636,"wikiDataId":"Q1522971","type":"CITY","city":"Farah","name":"Farah","country":"India","countryCode":"IN","region":"Uttar Pradesh","regionCode":"UP","latitude":27.32081,"longitude":77.76185},{"id":56376,"type":"CITY","city":"Farakka","name":"Farakka","country":"India","countryCode":"IN","region":"West Bengal","regionCode":"WB","latitude":24.81667,"longitude":87.9},{"id":56339,"wikiDataId":"Q200663","type":"CITY","city":"Faridabad","name":"Faridabad","country":"India","countryCode":"IN","region":"Haryana","regionCode":"HR","latitude":28.41124,"longitude":77.31316},
{"id":147989,"wikiDataId":"Q2086173","type":"ADM2","city":"Faridabad District","name":"Faridabad District","country":"India","countryCode":"IN","region":"Haryana","regionCode":"HR","latitude":28.46292,"longitude":77.3716},{"id":147622,"wikiDataId":"Q172494","type":"ADM2","city":"Faridkot","name":"Faridkot","country":"India","countryCode":"IN","region":"Punjab","regionCode":"PB","latitude":30.65,"longitude":74.75},{"id":55939,"wikiDataId":"Q1525392","type":"CITY","city":"Farrukhnagar","name":"Farrukhnagar","country":"India","countryCode":"IN","region":"Haryana","regionCode":"HR","latitude":28.44745,"longitude":76.82391},{"id":56125,"wikiDataId":"Q1525398","type":"CITY","city":"Farrukhnagar","name":"Farrukhnagar","country":"India","countryCode":"IN","region":"Telangana","regionCode":"TG","latitude":17.07787,"longitude":78.20339},{"id":147635,"wikiDataId":"Q1897251","type":"ADM2","city":"Farrukhābād","name":"Farrukhābād","country":"India","countryCode":"IN","region":"Uttar Pradesh","regionCode":"UP","latitude":27.5,"longitude":79.5},{"id":55996,"wikiDataId":"Q1780350","type":"CITY","city":"Farīdkot","name":"Farīdkot","country":"India","countryCode":"IN","region":"Punjab","regionCode":"PB","latitude":30.67399,"longitude":74.75579},{"id":55860,"wikiDataId":"Q1523007","type":"CITY","city":"Farīdnagar","name":"Farīdnagar","country":"India","countryCode":"IN","region":"Uttar Pradesh","regionCode":"UP","latitude":28.76923,"longitude":77.62934},{"id":56497,"wikiDataId":"Q741724","type":"CITY","city":"Farīdpur","name":"Farīdpur","country":"India","countryCode":"IN","region":"Uttar Pradesh","regionCode":"UP","latitude":28.20997,"longitude":79.54149},{"id":147945,"wikiDataId":"Q2301753","type":"ADM2","city":"Fatehabad District","name":"Fatehabad District","country":"India","countryCode":"IN","region":"Haryana","regionCode":"HR","latitude":29.31,"longitude":75.27},{"id":56513,"type":"CITY","city":"Fatehganj West","name":"Fatehganj West","country":"India","countryCode":"IN","region":"Uttar Pradesh","regionCode":"UP","latitude":28.4662,"longitude":79.30657},
{"id":56155,"wikiDataId":"Q1023671","type":"CITY","city":"Fatehgarh","name":"Fatehgarh","country":"India","countryCode":"IN","region":"Uttar Pradesh","regionCode":"UP","latitude":27.36409,"longitude":79.63111},{"id":56755,"wikiDataId":"Q1524046","type":"CITY","city":"Fatehgarh Chūriān","name":"Fatehgarh Chūriān","country":"India","countryCode":"IN","region":"Punjab","regionCode":"PB","latitude":31.86431,"longitude":74.95665},{"id":147836,"type":"ADM2","city":"Fatehgarh Sahib","name":"Fatehgarh Sahib","country":"India","countryCode":"IN","region":"Punjab","regionCode":"PB","latitude":30.64379,"longitude":76.34787},{"id":56598,"wikiDataId":"Q2720811","type":"CITY","city":"Fatehpur","name":"Fatehpur","country":"India","countryCode":"IN","region":"Rajasthan","regionCode":"RJ","latitude":27.99486,"longitude":74.95628},{"id":147634,"wikiDataId":"Q1946829","type":"ADM2","city":"Fatehpur","name":"Fatehpur","country":"India","countryCode":"IN","region":"Uttar Pradesh","regionCode":"UP","latitude":25.75,"longitude":80.75},{"id":56030,"wikiDataId":"Q1524332","type":"CITY","city":"Fatehpur Chaurāsi","name":"Fatehpur Chaurāsi","country":"India","countryCode":"IN","region":"Uttar Pradesh","regionCode":"UP","latitude":26.78925,"longitude":80.26547},{"id":56670,"wikiDataId":"Q179046","type":"CITY","city":"Fatehpur Sīkri","name":"Fatehpur Sīkri","country":"India","countryCode":"IN","region":"Uttar Pradesh","regionCode":"UP","latitude":27.0937,"longitude":77.66003},{"id":56041,"type":"CITY","city":"Fatehābād","name":"Fatehābād","country":"India","countryCode":"IN","region":"Uttar Pradesh","regionCode":"UP","latitude":27.02645,"longitude":78.3027},{"id":56401,"wikiDataId":"Q1320989","type":"CITY","city":"Fatehābād","name":"Fatehābād","country":"India","countryCode":"IN","region":"Haryana","regionCode":"HR","latitude":29.51525,"longitude":75.45554},{"id":56122,"type":"CITY","city":"Fatwa","name":"Fatwa","country":"India","countryCode":"IN","region":"Bihar","regionCode":"BR","latitude":25.50958,"longitude":85.30504},