[{"id":82002,"wikiDataId":"Q994114","type":"CITY","city":"Yola","name":"Yola","country":"Nigeria","countryCode":"NG","region":"Adamawa State","regionCode":"AD","latitude":9.20839,"longitude":12.48146},{"id":81818,"type":"CITY","city":"Yuli","name":"Yuli","country":"Nigeria","countryCode":"NG","region":"Bauchi State","regionCode":"BA","latitude":9.69707,"longitude":10.2735},{"id":81973,"type":"CITY","city":"Zadawa","name":"Zadawa","country":"Nigeria","countryCode":"NG","region":"Bauchi State","regionCode":"BA","latitude":11.4496,"longitude":10.3672},{"id":82279,"type":"CITY","city":"Zaki Biam","name":"Zaki Biam","country":"Nigeria","countryCode":"NG","region":"Benue State","regionCode":"BE","latitude":7.50671,"longitude":9.6104},{"id":82110,"type":"CITY","city":"Zalanga","name":"Zalanga","country":"Nigeria","countryCode":"NG","region":"Bauchi State","regionCode":"BA","latitude":10.61432,"longitude":10.17647},{"id":82636,"wikiDataId":"Q147975","type":"CITY","city":"Zaria","name":"Zaria","country":"Nigeria","countryCode":"NG","region":"Kaduna State","regionCode":"KD","latitude":11.11128,"longitude":7.7227},{"id":81931,"wikiDataId":"Q8075286","type":"CITY","city":"Zungeru","name":"Zungeru","country":"Nigeria","countryCode":"NG","region":"Niger State","regionCode":"NI","latitude":9.80726,"longitude":6.15238},{"id":82381,"type":"CITY","city":"Zuru","name":"Zuru","country":"Nigeria","countryCode":"NG","region":"Kebbi State","regionCode":"KE","latitude":11.43522,"longitude":5.23494},{"id":83343,"type":"CITY","city":"Achuapa","name":"Achuapa","country":"Nicaragua","countryCode":"NI","region":"León Department","regionCode":"LE","latitude":13.0537,"longitude":-86.59004},{"id":82987,"wikiDataId":"Q1186803","type":"CITY","city":"Acoyapa","name":"Acoyapa","country":"Nicaragua","countryCode":"NI","region":"Chontales Department","regionCode":"CO","latitude":11.97028,"longitude":-85.17113},
{"id":83405,"type":"CITY","city":"Altagracia","name":"Altagracia","country":"Nicaragua","countryCode":"NI","region":"Rivas Department","regionCode":"RI","latitude":11.56615,"longitude":-85.5784},{"id":83443,"wikiDataId":"Q1647916","type":"CITY","city":"Belén","name":"Belén","country":"Nicaragua","countryCode":"NI","region":"Rivas Department","regionCode":"RI","latitude":11.50299,"longitude":-85.88935},{"id":82868,"wikiDataId":"Q885996","type":"CITY","city":"Bluefields","name":"Bluefields","country":"Nicaragua","countryCode":"NI","region":"South Caribbean Coast Autonomous Region","regionCode":"AS","latitude":12.01366,"longitude":-83.76353},{"id":83586,"wikiDataId":"Q887488","type":"CITY","city":"Boaco","name":"Boaco","country":"Nicaragua","countryCode":"NI","region":"Boaco Department","regionCode":"BO","latitude":12.47224,"longitude":-85.6586},{"id":83686,"wikiDataId":"Q691374","type":"CITY","city":"Bocana de Paiwas","name":"Bocana de Paiwas","country":"Nicaragua","countryCode":"NI","region":"South Caribbean Coast Autonomous Region","regionCode":"AS","latitude":12.78571,"longitude":-85.12269},{"id":82766,"wikiDataId":"Q892092","type":"CITY","city":"Bonanza","name":"Bonanza","country":"Nicaragua","countryCode":"NI","region":"North Caribbean Coast Autonomous Region","regionCode":"AN","latitude":14.02885,"longitude":-84.59103},{"id":82852,"wikiDataId":"Q1648230","type":"CITY","city":"Buenos Aires","name":"Buenos Aires","country":"Nicaragua","countryCode":"NI","region":"Rivas Department","regionCode":"RI","latitude":11.46916,"longitude":-85.81661},{"id":83533,"wikiDataId":"Q2605022","type":"CITY","city":"Camoapa","name":"Camoapa","country":"Nicaragua","countryCode":"NI","region":"Boaco Department","regionCode":"BO","latitude":12.38383,"longitude":-85.51277},{"id":82715,"wikiDataId":"Q1647897","type":"CITY","city":"Catarina","name":"Catarina","country":"Nicaragua","countryCode":"NI","region":"Masaya Department","regionCode":"MS","latitude":11.91197,"longitude":-86.07383},{"id":82735,"wikiDataId":"Q1072117","type":"CITY","city":"Chichigalpa","name":"Chichigalpa","country":"Nicaragua","countryCode":"NI","region":"Chinandega Department","regionCode":"CI","latitude":12.57758,"longitude":-87.02705},
{"id":82910,"wikiDataId":"Q974354","type":"CITY","city":"Chinandega","name":"Chinandega","country":"Nicaragua","countryCode":"NI","region":"Chinandega Department","regionCode":"CI","latitude":12.62937,"longitude":-87.13105},{"id":83012,"wikiDataId":"Q1647867","type":"CITY","city":"Cinco Pinos","name":"Cinco Pinos","country":"Nicaragua","countryCode":"NI","region":"Chinandega Department","regionCode":"CI","latitude":13.22956,"longitude":-86.86808},{"id":83606,"wikiDataId":"Q2215588","type":"CITY","city":"Ciudad Antigua","name":"Ciudad Antigua","country":"Nicaragua","countryCode":"NI","latitude":13.6406,"longitude":-86.30815},{"id":83121,"wikiDataId":"Q1015865","type":"CITY","city":"Ciudad Darío","name":"Ciudad Darío","country":"Nicaragua","countryCode":"NI","region":"Matagalpa Department","regionCode":"MT","latitude":12.73143,"longitude":-86.12402},{"id":82898,"wikiDataId":"Q2720849","type":"CITY","city":"Ciudad Sandino","name":"Ciudad Sandino","country":"Nicaragua","countryCode":"NI","region":"Managua Department","regionCode":"MN","latitude":12.15889,"longitude":-86.34417},{"id":83256,"wikiDataId":"Q677924","type":"CITY","city":"Comalapa","name":"Comalapa","country":"Nicaragua","countryCode":"NI","region":"Chontales Department","regionCode":"CO","latitude":12.28345,"longitude":-85.51081},{"id":83349,"wikiDataId":"Q1012589","type":"CITY","city":"Condega","name":"Condega","country":"Nicaragua","countryCode":"NI","region":"Estelí Department","regionCode":"ES","latitude":13.36502,"longitude":-86.39846},{"id":82784,"wikiDataId":"Q1132939","type":"CITY","city":"Corinto","name":"Corinto","country":"Nicaragua","countryCode":"NI","region":"Chinandega Department","regionCode":"CI","latitude":12.4825,"longitude":-87.17304},{"id":82729,"wikiDataId":"Q22280935","type":"CITY","city":"Corn Island","name":"Corn Island","country":"Nicaragua","countryCode":"NI","region":"South Caribbean Coast Autonomous Region","regionCode":"AS","latitude":12.17575,"longitude":-83.06145},{"id":82760,"wikiDataId":"Q2215598","type":"CITY","city":"Cuapa","name":"Cuapa","country":"Nicaragua","countryCode":"NI","region":"Chontales Department","regionCode":"CO","latitude":12.26875,"longitude":-85.38205},
{"id":83427,"wikiDataId":"Q1647924","type":"CITY","city":"Cárdenas","name":"Cárdenas","country":"Nicaragua","countryCode":"NI","region":"Rivas Department","regionCode":"RI","latitude":11.19639,"longitude":-85.5089},{"id":82849,"wikiDataId":"Q2215450","type":"CITY","city":"Dipilto","name":"Dipilto","country":"Nicaragua","countryCode":"NI","latitude":13.72106,"longitude":-86.50619},{"id":82834,"wikiDataId":"Q1227687","type":"CITY","city":"Diriamba","name":"Diriamba","country":"Nicaragua","countryCode":"NI","region":"Carazo Department","regionCode":"CA","latitude":11.85812,"longitude":-86.23922},{"id":82847,"wikiDataId":"Q2215569","type":"CITY","city":"Diriomo","name":"Diriomo","country":"Nicaragua","countryCode":"NI","region":"Granada Department","regionCode":"GR","latitude":11.87631,"longitude":-86.05184},{"id":82747,"wikiDataId":"Q1647847","type":"CITY","city":"Diriá","name":"Diriá","country":"Nicaragua","countryCode":"NI","region":"Granada Department","regionCode":"GR","latitude":11.8842,"longitude":-86.05508},{"id":83112,"wikiDataId":"Q1647920","type":"CITY","city":"Dolores","name":"Dolores","country":"Nicaragua","countryCode":"NI","region":"Carazo Department","regionCode":"CA","latitude":11.85672,"longitude":-86.21552},{"id":83235,"wikiDataId":"Q2621532","type":"CITY","city":"El Almendro","name":"El Almendro","country":"Nicaragua","countryCode":"NI","region":"Río San Juan Department","regionCode":"SJ","latitude":11.67859,"longitude":-84.70269},{"id":83538,"wikiDataId":"Q2215912","type":"CITY","city":"El Ayote","name":"El Ayote","country":"Nicaragua","countryCode":"NI","region":"Chontales Department","regionCode":"CO","latitude":12.19046,"longitude":-85.28737},{"id":83342,"wikiDataId":"Q2605353","type":"CITY","city":"El Crucero","name":"El Crucero","country":"Nicaragua","countryCode":"NI","region":"Managua Department","regionCode":"MN","latitude":11.99008,"longitude":-86.30954},{"id":83569,"wikiDataId":"Q2214906","type":"CITY","city":"El Cuá","name":"El Cuá","country":"Nicaragua","countryCode":"NI","region":"Jinotega Department","regionCode":"JI","latitude":13.41667,"longitude":-85.75},
{"id":83461,"wikiDataId":"Q369423","type":"CITY","city":"El Jicaral","name":"El Jicaral","country":"Nicaragua","countryCode":"NI","region":"León Department","regionCode":"LE","latitude":12.72676,"longitude":-86.38057},{"id":83548,"wikiDataId":"Q21054015","type":"CITY","city":"El Rama","name":"El Rama","country":"Nicaragua","countryCode":"NI","region":"South Caribbean Coast Autonomous Region","regionCode":"AS","latitude":12.15965,"longitude":-84.21952},{"id":82876,"wikiDataId":"Q368227","type":"CITY","city":"El Realejo","name":"El Realejo","country":"Nicaragua","countryCode":"NI","region":"Chinandega Department","regionCode":"CI","latitude":12.54333,"longitude":-87.16517},{"id":83629,"wikiDataId":"Q1648222","type":"CITY","city":"El Rosario","name":"El Rosario","country":"Nicaragua","countryCode":"NI","region":"Carazo Department","regionCode":"CA","latitude":11.77756,"longitude":-86.37374},{"id":83348,"wikiDataId":"Q1647835","type":"CITY","city":"El Sauce","name":"El Sauce","country":"Nicaragua","countryCode":"NI","region":"León Department","regionCode":"LE","latitude":12.88687,"longitude":-86.53903},{"id":83209,"wikiDataId":"Q21053675","type":"CITY","city":"El Tortuguero","name":"El Tortuguero","country":"Nicaragua","countryCode":"NI","region":"South Caribbean Coast Autonomous Region","regionCode":"AS","latitude":12.82247,"longitude":-84.19629},{"id":83667,"wikiDataId":"Q516482","type":"CITY","city":"El Viejo","name":"El Viejo","country":"Nicaragua","countryCode":"NI","region":"Chinandega Department","regionCode":"CI","latitude":12.66348,"longitude":-87.16663},{"id":83492,"wikiDataId":"Q1007634","type":"CITY","city":"Estelí","name":"Estelí","country":"Nicaragua","countryCode":"NI","region":"Estelí Department","regionCode":"ES","latitude":13.09185,"longitude":-86.35384},{"id":83019,"wikiDataId":"Q205648","type":"CITY","city":"Granada","name":"Granada","country":"Nicaragua","countryCode":"NI","region":"Granada Department","regionCode":"GR","latitude":11.92988,"longitude":-85.95602},{"id":83025,"wikiDataId":"Q2063725","type":"CITY","city":"Greytown","name":"Greytown","country":"Nicaragua","countryCode":"NI","region":"Río San Juan Department","regionCode":"SJ","latitude":10.94684,"longitude":-83.73467},
{"id":82757,"wikiDataId":"Q2395471","type":"CITY","city":"Jalapa","name":"Jalapa","country":"Nicaragua","countryCode":"NI","latitude":13.92221,"longitude":-86.12346},{"id":83198,"wikiDataId":"Q1026296","type":"CITY","city":"Jinotega","name":"Jinotega","country":"Nicaragua","countryCode":"NI","region":"Jinotega Department","regionCode":"JI","latitude":13.09103,"longitude":-86.00234},{"id":83320,"wikiDataId":"Q477580","type":"CITY","city":"Jinotepe","name":"Jinotepe","country":"Nicaragua","countryCode":"NI","region":"Carazo Department","regionCode":"CA","latitude":11.84962,"longitude":-86.19903},{"id":82872,"wikiDataId":"Q21054284","type":"CITY","city":"Jiquilillo","name":"Jiquilillo","country":"Nicaragua","countryCode":"NI","region":"Chinandega Department","regionCode":"CI","latitude":12.74593,"longitude":-87.4516},{"id":83448,"wikiDataId":"Q1025801","type":"CITY","city":"Juigalpa","name":"Juigalpa","country":"Nicaragua","countryCode":"NI","region":"Chontales Department","regionCode":"CO","latitude":12.10629,"longitude":-85.36452},{"id":82936,"wikiDataId":"Q1647889","type":"CITY","city":"Kukrahill","name":"Kukrahill","country":"Nicaragua","countryCode":"NI","region":"South Caribbean Coast Autonomous Region","regionCode":"AS","latitude":12.24096,"longitude":-83.74517},{"id":82112,"type":"CITY","city":"LLano de La Cruz","name":"LLano de La Cruz","country":"Nicaragua","countryCode":"NI","region":"Jinotega Department","regionCode":"JI","latitude":13.12449,"longitude":-86.00833},{"id":83471,"wikiDataId":"Q538269","type":"CITY","city":"La Concepción","name":"La Concepción","country":"Nicaragua","countryCode":"NI","region":"Masaya Department","regionCode":"MS","latitude":11.93711,"longitude":-86.18976},{"id":83483,"wikiDataId":"Q2395382","type":"CITY","city":"La Concordia","name":"La Concordia","country":"Nicaragua","countryCode":"NI","region":"Jinotega Department","regionCode":"JI","latitude":13.19528,"longitude":-86.16659},{"id":82856,"wikiDataId":"Q3820751","type":"CITY","city":"La Conquista","name":"La Conquista","country":"Nicaragua","countryCode":"NI","region":"Carazo Department","regionCode":"CA","latitude":11.73426,"longitude":-86.19279},
{"id":82763,"wikiDataId":"Q963732","type":"CITY","city":"La Cruz de Río Grande","name":"La Cruz de Río Grande","country":"Nicaragua","countryCode":"NI","region":"South Caribbean Coast Autonomous Region","regionCode":"AS","latitude":13.1129,"longitude":-84.18588},{"id":83273,"wikiDataId":"Q2606938","type":"CITY","city":"La Libertad","name":"La Libertad","country":"Nicaragua","countryCode":"NI","region":"Chontales Department","regionCode":"CO","latitude":12.21635,"longitude":-85.16595},{"id":82894,"wikiDataId":"Q21052193","type":"CITY","city":"La Paz Centro","name":"La Paz Centro","country":"Nicaragua","countryCode":"NI","region":"León Department","regionCode":"LE","latitude":12.34,"longitude":-86.67528},{"id":83017,"wikiDataId":"Q2215549","type":"CITY","city":"La Paz de Carazo","name":"La Paz de Carazo","country":"Nicaragua","countryCode":"NI","region":"Carazo Department","regionCode":"CA","latitude":11.82311,"longitude":-86.12781},{"id":83238,"wikiDataId":"Q993829","type":"CITY","city":"La Trinidad","name":"La Trinidad","country":"Nicaragua","countryCode":"NI","region":"Estelí Department","regionCode":"ES","latitude":12.96881,"longitude":-86.23534},{"id":83328,"wikiDataId":"Q2215086","type":"CITY","city":"Laguna de Perlas","name":"Laguna de Perlas","country":"Nicaragua","countryCode":"NI","region":"South Caribbean Coast Autonomous Region","regionCode":"AS","latitude":12.34294,"longitude":-83.67123},{"id":83333,"wikiDataId":"Q2215577","type":"CITY","city":"Larreynaga","name":"Larreynaga","country":"Nicaragua","countryCode":"NI","region":"León Department","regionCode":"LE","latitude":12.67692,"longitude":-86.57193},{"id":83244,"wikiDataId":"Q2217474","type":"CITY","city":"Las Praderas","name":"Las Praderas","country":"Nicaragua","countryCode":"NI","region":"Jinotega Department","regionCode":"JI","latitude":13.17,"longitude":-85.85},{"id":82772,"wikiDataId":"Q2215117","type":"CITY","city":"Las Sabanas","name":"Las Sabanas","country":"Nicaragua","countryCode":"NI","region":"Madriz Department","regionCode":"MD","latitude":13.34302,"longitude":-86.62184},{"id":83120,"wikiDataId":"Q208151","type":"CITY","city":"León","name":"León","country":"Nicaragua","countryCode":"NI","region":"León Department","regionCode":"LE","latitude":12.43787,"longitude":-86.87804},
{"id":83260,"wikiDataId":"Q1647684","type":"CITY","city":"Macuelizo","name":"Macuelizo","country":"Nicaragua","countryCode":"NI","latitude":13.65328,"longitude":-86.61297},{"id":83144,"wikiDataId":"Q3274","type":"CITY","city":"Managua","name":"Managua","country":"Nicaragua","countryCode":"NI","region":"Managua Department","regionCode":"MN","latitude":12.13282,"longitude":-86.2504},{"id":83050,"wikiDataId":"Q21053389","type":"CITY","city":"Masachapa","name":"Masachapa","country":"Nicaragua","countryCode":"NI","region":"Managua Department","regionCode":"MN","latitude":11.78687,"longitude":-86.51416},{"id":82809,"wikiDataId":"Q2720586","type":"CITY","city":"Masatepe","name":"Masatepe","country":"Nicaragua","countryCode":"NI","region":"Masaya Department","regionCode":"MS","latitude":11.91445,"longitude":-86.14458},{"id":83565,"wikiDataId":"Q1001914","type":"CITY","city":"Masaya","name":"Masaya","country":"Nicaragua","countryCode":"NI","region":"Masaya Department","regionCode":"MS","latitude":11.97444,"longitude":-86.09417},{"id":82932,"wikiDataId":"Q3851689","type":"CITY","city":"Matagalpa","name":"Matagalpa","country":"Nicaragua","countryCode":"NI","region":"Matagalpa Department","regionCode":"MT","latitude":12.92559,"longitude":-85.91747},{"id":83151,"wikiDataId":"Q2215416","type":"CITY","city":"Matiguás","name":"Matiguás","country":"Nicaragua","countryCode":"NI","region":"Matagalpa Department","regionCode":"MT","latitude":12.83734,"longitude":-85.46218},{"id":83477,"wikiDataId":"Q2621523","type":"CITY","city":"Morrito","name":"Morrito","country":"Nicaragua","countryCode":"NI","region":"Río San Juan Department","regionCode":"SJ","latitude":11.62118,"longitude":-85.08052},{"id":83423,"wikiDataId":"Q2215641","type":"CITY","city":"Moyogalpa","name":"Moyogalpa","country":"Nicaragua","countryCode":"NI","region":"Rivas Department","regionCode":"RI","latitude":11.54006,"longitude":-85.69795},{"id":83680,"wikiDataId":"Q2215922","type":"CITY","city":"Mozonte","name":"Mozonte","country":"Nicaragua","countryCode":"NI","latitude":13.66034,"longitude":-86.43841},
{"id":82930,"wikiDataId":"Q2215047","type":"CITY","city":"Muelle de los Bueyes","name":"Muelle de los Bueyes","country":"Nicaragua","countryCode":"NI","region":"South Caribbean Coast Autonomous Region","regionCode":"AS","latitude":12.06999,"longitude":-84.53503},{"id":158170,"wikiDataId":"Q1647907","type":"ADM2","city":"Municipio de Altagracia","name":"Municipio de Altagracia","country":"Nicaragua","countryCode":"NI","region":"Rivas Department","regionCode":"RI","latitude":11.47983,"longitude":-85.54166},{"id":158146,"type":"ADM2","city":"Municipio de Belén","name":"Municipio de Belén","country":"Nicaragua","countryCode":"NI","region":"Rivas Department","regionCode":"RI","latitude":11.57193,"longitude":-85.96316},{"id":158141,"type":"ADM2","city":"Municipio de Buenos Aires","name":"Municipio de Buenos Aires","country":"Nicaragua","countryCode":"NI","region":"Rivas Department","regionCode":"RI","latitude":11.5176,"longitude":-85.78333},{"id":158147,"type":"ADM2","city":"Municipio de Cárdenas","name":"Municipio de Cárdenas","country":"Nicaragua","countryCode":"NI","region":"Rivas Department","regionCode":"RI","latitude":11.14912,"longitude":-85.42323},{"id":158080,"type":"ADM2","city":"Municipio de Masatepe","name":"Municipio de Masatepe","country":"Nicaragua","countryCode":"NI","region":"Masaya Department","regionCode":"MS","latitude":11.90567,"longitude":-86.14946},{"id":158107,"type":"ADM2","city":"Municipio de Moyogalpa","name":"Municipio de Moyogalpa","country":"Nicaragua","countryCode":"NI","region":"Rivas Department","regionCode":"RI","latitude":11.52632,"longitude":-85.67329},{"id":158090,"type":"ADM2","city":"Municipio de Nandasmo","name":"Municipio de Nandasmo","country":"Nicaragua","countryCode":"NI","region":"Masaya Department","regionCode":"MS","latitude":11.93333,"longitude":-86.11667},{"id":158102,"type":"ADM2","city":"Municipio de Niquinohomo","name":"Municipio de Niquinohomo","country":"Nicaragua","countryCode":"NI","region":"Masaya Department","regionCode":"MS","latitude":11.88228,"longitude":-86.10035},{"id":158112,"type":"ADM2","city":"Municipio de Potosí","name":"Municipio de Potosí","country":"Nicaragua","countryCode":"NI","region":"Rivas Department","regionCode":"RI","latitude":11.57854,"longitude":-85.87764},
{"id":158111,"type":"ADM2","city":"Municipio de Rivas","name":"Municipio de Rivas","country":"Nicaragua","countryCode":"NI","region":"Rivas Department","regionCode":"RI","latitude":11.43931,"longitude":-85.827},{"id":158110,"wikiDataId":"Q2214920","type":"ADM2","city":"Municipio de San Francisco del Norte","name":"Municipio de San Francisco del Norte","country":"Nicaragua","countryCode":"NI","region":"Chinandega Department","regionCode":"CI","latitude":13.21187,"longitude":-86.77107},{"id":158051,"type":"ADM2","city":"Municipio de San Jorge","name":"Municipio de San Jorge","country":"Nicaragua","countryCode":"NI","region":"Rivas Department","regionCode":"RI","latitude":11.42703,"longitude":-85.78904},{"id":158053,"type":"ADM2","city":"Municipio de San Juan de Oriente","name":"Municipio de San Juan de Oriente","country":"Nicaragua","countryCode":"NI","region":"Masaya Department","regionCode":"MS","latitude":11.90517,"longitude":-86.0746},{"id":158075,"type":"ADM2","city":"Municipio de San Juan del Sur","name":"Municipio de San Juan del Sur","country":"Nicaragua","countryCode":"NI","region":"Rivas Department","regionCode":"RI","latitude":11.22368,"longitude":-85.78289},{"id":158074,"type":"ADM2","city":"Municipio de San Marcos","name":"Municipio de San Marcos","country":"Nicaragua","countryCode":"NI","region":"Carazo Department","regionCode":"CA","latitude":11.91784,"longitude":-86.27474},{"id":158046,"type":"ADM2","city":"Municipio de Tola","name":"Municipio de Tola","country":"Nicaragua","countryCode":"NI","region":"Rivas Department","regionCode":"RI","latitude":11.46009,"longitude":-86.00789},{"id":82886,"wikiDataId":"Q2215609","type":"CITY","city":"Murra","name":"Murra","country":"Nicaragua","countryCode":"NI","latitude":13.7585,"longitude":-86.01843},{"id":83028,"wikiDataId":"Q2215631","type":"CITY","city":"Muy Muy","name":"Muy Muy","country":"Nicaragua","countryCode":"NI","region":"Matagalpa Department","regionCode":"MT","latitude":12.76224,"longitude":-85.62915},{"id":83437,"wikiDataId":"Q2604568","type":"CITY","city":"Nagarote","name":"Nagarote","country":"Nicaragua","countryCode":"NI","region":"León Department","regionCode":"LE","latitude":12.26593,"longitude":-86.56474},
{"id":83438,"wikiDataId":"Q1964554","type":"CITY","city":"Nandaime","name":"Nandaime","country":"Nicaragua","countryCode":"NI","region":"Granada Department","regionCode":"GR","latitude":11.75696,"longitude":-86.05286},{"id":83206,"wikiDataId":"Q641207","type":"CITY","city":"Nandasmo","name":"Nandasmo","country":"Nicaragua","countryCode":"NI","region":"Masaya Department","regionCode":"MS","latitude":11.92411,"longitude":-86.12072},{"id":82947,"wikiDataId":"Q2215135","type":"CITY","city":"Nindirí","name":"Nindirí","country":"Nicaragua","countryCode":"NI","region":"Masaya Department","regionCode":"MS","latitude":12.00386,"longitude":-86.12128},{"id":83306,"wikiDataId":"Q1514478","type":"CITY","city":"Niquinohomo","name":"Niquinohomo","country":"Nicaragua","countryCode":"NI","region":"Masaya Department","regionCode":"MS","latitude":11.90518,"longitude":-86.09446},{"id":83287,"wikiDataId":"Q2554341","type":"CITY","city":"Nueva Guinea","name":"Nueva Guinea","country":"Nicaragua","countryCode":"NI","region":"South Caribbean Coast Autonomous Region","regionCode":"AS","latitude":11.68758,"longitude":-84.45616},{"id":82802,"wikiDataId":"Q1025830","type":"CITY","city":"Ocotal","name":"Ocotal","country":"Nicaragua","countryCode":"NI","latitude":13.63208,"longitude":-86.47516},{"id":83692,"wikiDataId":"Q2215620","type":"CITY","city":"Palacagüina","name":"Palacagüina","country":"Nicaragua","countryCode":"NI","region":"Madriz Department","regionCode":"MD","latitude":13.45566,"longitude":-86.40622},{"id":82769,"wikiDataId":"Q2604656","type":"CITY","city":"Posoltega","name":"Posoltega","country":"Nicaragua","countryCode":"NI","region":"Chinandega Department","regionCode":"CI","latitude":12.54422,"longitude":-86.97982},{"id":83029,"wikiDataId":"Q1647911","type":"CITY","city":"Potosí","name":"Potosí","country":"Nicaragua","countryCode":"NI","region":"Rivas Department","regionCode":"RI","latitude":11.49416,"longitude":-85.8568},{"id":83696,"wikiDataId":"Q1018776","type":"CITY","city":"Prinzapolka","name":"Prinzapolka","country":"Nicaragua","countryCode":"NI","region":"North Caribbean Coast Autonomous Region","regionCode":"AN","latitude":13.40708,"longitude":-83.56452},
{"id":83090,"wikiDataId":"Q1647679","type":"CITY","city":"Pueblo Nuevo","name":"Pueblo Nuevo","country":"Nicaragua","countryCode":"NI","region":"Estelí Department","regionCode":"ES","latitude":13.37984,"longitude":-86.48075},{"id":82801,"wikiDataId":"Q1008456","type":"CITY","city":"Puerto Cabezas","name":"Puerto Cabezas","country":"Nicaragua","countryCode":"NI","region":"North Caribbean Coast Autonomous Region","regionCode":"AN","latitude":14.03507,"longitude":-83.38882},{"id":83249,"wikiDataId":"Q2605034","type":"CITY","city":"Puerto Morazán","name":"Puerto Morazán","country":"Nicaragua","countryCode":"NI","region":"Chinandega Department","regionCode":"CI","latitude":12.85042,"longitude":-87.17167},{"id":83093,"wikiDataId":"Q739841","type":"CITY","city":"Quezalguaque","name":"Quezalguaque","country":"Nicaragua","countryCode":"NI","region":"León Department","regionCode":"LE","latitude":12.50683,"longitude":-86.90292},{"id":82748,"wikiDataId":"Q2604559","type":"CITY","city":"Quilalí","name":"Quilalí","country":"Nicaragua","countryCode":"NI","latitude":13.56695,"longitude":-86.026},{"id":83219,"wikiDataId":"Q1757609","type":"CITY","city":"Rivas","name":"Rivas","country":"Nicaragua","countryCode":"NI","region":"Rivas Department","regionCode":"RI","latitude":11.43716,"longitude":-85.82632},{"id":83613,"wikiDataId":"Q2605369","type":"CITY","city":"Río Blanco","name":"Río Blanco","country":"Nicaragua","countryCode":"NI","region":"Matagalpa Department","regionCode":"MT","latitude":12.93435,"longitude":-85.22354},{"id":83075,"wikiDataId":"Q1020320","type":"CITY","city":"San Carlos","name":"San Carlos","country":"Nicaragua","countryCode":"NI","region":"Río San Juan Department","regionCode":"SJ","latitude":11.1236,"longitude":-84.77795},{"id":83571,"wikiDataId":"Q1647872","type":"CITY","city":"San Dionisio","name":"San Dionisio","country":"Nicaragua","countryCode":"NI","region":"Matagalpa Department","regionCode":"MT","latitude":12.76023,"longitude":-85.85018},{"id":83441,"wikiDataId":"Q1647665","type":"CITY","city":"San Fernando","name":"San Fernando","country":"Nicaragua","countryCode":"NI","latitude":13.67755,"longitude":-86.31486},
{"id":82878,"wikiDataId":"Q956573","type":"CITY","city":"San Jorge","name":"San Jorge","country":"Nicaragua","countryCode":"NI","region":"Rivas Department","regionCode":"RI","latitude":11.45584,"longitude":-85.80308},{"id":82727,"wikiDataId":"Q2215147","type":"CITY","city":"San José de Bocay","name":"San José de Bocay","country":"Nicaragua","countryCode":"NI","region":"Jinotega Department","regionCode":"JI","latitude":13.54204,"longitude":-85.53942},{"id":82711,"wikiDataId":"Q2215949","type":"CITY","city":"San José de Cusmapa","name":"San José de Cusmapa","country":"Nicaragua","countryCode":"NI","region":"Madriz Department","regionCode":"MD","latitude":13.28841,"longitude":-86.65539},{"id":83092,"wikiDataId":"Q2215558","type":"CITY","city":"San José de los Remates","name":"San José de los Remates","country":"Nicaragua","countryCode":"NI","region":"Boaco Department","regionCode":"BO","latitude":12.5975,"longitude":-85.76174},{"id":83255,"wikiDataId":"Q2215462","type":"CITY","city":"San Juan de Limay","name":"San Juan de Limay","country":"Nicaragua","countryCode":"NI","region":"Estelí Department","regionCode":"ES","latitude":13.17603,"longitude":-86.61234},{"id":83208,"wikiDataId":"Q384555","type":"CITY","city":"San Juan de Oriente","name":"San Juan de Oriente","country":"Nicaragua","countryCode":"NI","region":"Masaya Department","regionCode":"MS","latitude":11.90624,"longitude":-86.07343},{"id":83048,"wikiDataId":"Q1647654","type":"CITY","city":"San Juan de Río Coco","name":"San Juan de Río Coco","country":"Nicaragua","countryCode":"NI","region":"Madriz Department","regionCode":"MD","latitude":13.54476,"longitude":-86.16499},{"id":83658,"wikiDataId":"Q240247","type":"CITY","city":"San Juan del Sur","name":"San Juan del Sur","country":"Nicaragua","countryCode":"NI","region":"Rivas Department","regionCode":"RI","latitude":11.25292,"longitude":-85.87049},{"id":82376,"wikiDataId":"Q1647826","type":"CITY","city":"San Lorenzo","name":"San Lorenzo","country":"Nicaragua","countryCode":"NI","region":"Boaco Department","regionCode":"BO","latitude":12.3783,"longitude":-85.66646},{"id":81843,"wikiDataId":"Q1647851","type":"CITY","city":"San Lucas","name":"San Lucas","country":"Nicaragua","countryCode":"NI","region":"Madriz Department","regionCode":"MD","latitude":13.4138,"longitude":-86.6111},
{"id":81793,"wikiDataId":"Q1013654","type":"CITY","city":"San Marcos","name":"San Marcos","country":"Nicaragua","countryCode":"NI","region":"Carazo Department","regionCode":"CA","latitude":11.90949,"longitude":-86.20351},{"id":81943,"wikiDataId":"Q1015364","type":"CITY","city":"San Miguelito","name":"San Miguelito","country":"Nicaragua","countryCode":"NI","region":"Río San Juan Department","regionCode":"SJ","latitude":11.40255,"longitude":-84.89991},{"id":82419,"wikiDataId":"Q2604700","type":"CITY","city":"San Rafael del Norte","name":"San Rafael del Norte","country":"Nicaragua","countryCode":"NI","region":"Jinotega Department","regionCode":"JI","latitude":13.21248,"longitude":-86.11089},{"id":82237,"wikiDataId":"Q964406","type":"CITY","city":"San Rafael del Sur","name":"San Rafael del Sur","country":"Nicaragua","countryCode":"NI","region":"Managua Department","regionCode":"MN","latitude":11.84854,"longitude":-86.43839},{"id":82117,"wikiDataId":"Q2395748","type":"CITY","city":"San Ramón","name":"San Ramón","country":"Nicaragua","countryCode":"NI","region":"Matagalpa Department","regionCode":"MT","latitude":12.92344,"longitude":-85.83898},{"id":82374,"wikiDataId":"Q2215401","type":"CITY","city":"San Sebastián de Yalí","name":"San Sebastián de Yalí","country":"Nicaragua","countryCode":"NI","region":"Jinotega Department","regionCode":"JI","latitude":13.3054,"longitude":-86.18641},{"id":82183,"wikiDataId":"Q1647681","type":"CITY","city":"Santa Lucía","name":"Santa Lucía","country":"Nicaragua","countryCode":"NI","region":"Boaco Department","regionCode":"BO","latitude":12.53262,"longitude":-85.71074},{"id":81920,"wikiDataId":"Q1647660","type":"CITY","city":"Santa María","name":"Santa María","country":"Nicaragua","countryCode":"NI","latitude":13.74665,"longitude":-86.70934},{"id":81765,"wikiDataId":"Q2215566","type":"CITY","city":"Santa Rosa del Peñón","name":"Santa Rosa del Peñón","country":"Nicaragua","countryCode":"NI","region":"León Department","regionCode":"LE","latitude":12.80116,"longitude":-86.36994},{"id":82285,"wikiDataId":"Q21054785","type":"CITY","city":"Santa Teresa","name":"Santa Teresa","country":"Nicaragua","countryCode":"NI","region":"Carazo Department","regionCode":"CA","latitude":11.74321,"longitude":-86.21413},
{"id":82063,"wikiDataId":"Q1647902","type":"CITY","city":"Santo Domingo","name":"Santo Domingo","country":"Nicaragua","countryCode":"NI","region":"Chontales Department","regionCode":"CO","latitude":12.26438,"longitude":-85.08235},{"id":82311,"wikiDataId":"Q31513084","type":"CITY","city":"Santo Tomás","name":"Santo Tomás","country":"Nicaragua","countryCode":"NI","region":"Chontales Department","regionCode":"CO","latitude":12.06938,"longitude":-85.09059},{"id":81758,"type":"CITY","city":"Santo Tomás del Norte","name":"Santo Tomás del Norte","country":"Nicaragua","countryCode":"NI","region":"Chinandega Department","regionCode":"CI","latitude":13.1861,"longitude":-86.92267},{"id":82690,"wikiDataId":"Q1329302","type":"CITY","city":"Siuna","name":"Siuna","country":"Nicaragua","countryCode":"NI","region":"North Caribbean Coast Autonomous Region","regionCode":"AN","latitude":13.73321,"longitude":-84.77725},{"id":82004,"wikiDataId":"Q2604179","type":"CITY","city":"Somotillo","name":"Somotillo","country":"Nicaragua","countryCode":"NI","region":"Chinandega Department","regionCode":"CI","latitude":13.04387,"longitude":-86.90506},{"id":81836,"wikiDataId":"Q1010954","type":"CITY","city":"Somoto","name":"Somoto","country":"Nicaragua","countryCode":"NI","region":"Madriz Department","regionCode":"MD","latitude":13.48082,"longitude":-86.58208},{"id":82326,"wikiDataId":"Q1647817","type":"CITY","city":"Telica","name":"Telica","country":"Nicaragua","countryCode":"NI","region":"León Department","regionCode":"LE","latitude":12.522,"longitude":-86.85938},{"id":82022,"wikiDataId":"Q2216981","type":"CITY","city":"Telpaneca","name":"Telpaneca","country":"Nicaragua","countryCode":"NI","region":"Madriz Department","regionCode":"MD","latitude":13.53151,"longitude":-86.2871},{"id":82498,"wikiDataId":"Q664620","type":"CITY","city":"Terrabona","name":"Terrabona","country":"Nicaragua","countryCode":"NI","region":"Matagalpa Department","regionCode":"MT","latitude":12.73028,"longitude":-85.96474},{"id":82606,"wikiDataId":"Q2216040","type":"CITY","city":"Teustepe","name":"Teustepe","country":"Nicaragua","countryCode":"NI","region":"Boaco Department","regionCode":"BO","latitude":12.4203,"longitude":-85.79798},
{"id":81871,"wikiDataId":"Q2216951","type":"CITY","city":"Ticuantepe","name":"Ticuantepe","country":"Nicaragua","countryCode":"NI","region":"Managua Department","regionCode":"MN","latitude":12.02263,"longitude":-86.20493},{"id":82598,"wikiDataId":"Q1365146","type":"CITY","city":"Tipitapa","name":"Tipitapa","country":"Nicaragua","countryCode":"NI","region":"Managua Department","regionCode":"MN","latitude":12.19732,"longitude":-86.09706},{"id":82154,"wikiDataId":"Q2216452","type":"CITY","city":"Tisma","name":"Tisma","country":"Nicaragua","countryCode":"NI","region":"Masaya Department","regionCode":"MS","latitude":12.08194,"longitude":-86.01739},{"id":82344,"wikiDataId":"Q942590","type":"CITY","city":"Tola","name":"Tola","country":"Nicaragua","countryCode":"NI","region":"Rivas Department","regionCode":"RI","latitude":11.43927,"longitude":-85.93891},{"id":82391,"wikiDataId":"Q2216999","type":"CITY","city":"Totogalpa","name":"Totogalpa","country":"Nicaragua","countryCode":"NI","region":"Madriz Department","regionCode":"MD","latitude":13.56284,"longitude":-86.49254},{"id":81911,"wikiDataId":"Q21054823","type":"CITY","city":"Valle San Francisco","name":"Valle San Francisco","country":"Nicaragua","countryCode":"NI","region":"Managua Department","regionCode":"MN","latitude":12.51667,"longitude":-86.28333},{"id":83496,"wikiDataId":"Q21054975","type":"CITY","city":"Villa El Carmen","name":"Villa El Carmen","country":"Nicaragua","countryCode":"NI","region":"Managua Department","regionCode":"MN","latitude":11.98009,"longitude":-86.50571},{"id":82484,"type":"CITY","city":"Villa Sandino","name":"Villa Sandino","country":"Nicaragua","countryCode":"NI","region":"Chontales Department","regionCode":"CO","latitude":12.0483,"longitude":-84.99362},{"id":81995,"wikiDataId":"Q1018767","type":"CITY","city":"Waslala","name":"Waslala","country":"Nicaragua","countryCode":"NI","region":"North Caribbean Coast Autonomous Region","regionCode":"AN","latitude":13.23333,"longitude":-85.38333},{"id":82592,"wikiDataId":"Q2217458","type":"CITY","city":"Waspán","name":"Waspán","country":"Nicaragua","countryCode":"NI","region":"North Caribbean Coast Autonomous Region","regionCode":"AN","latitude":14.74189,"longitude":-83.9717},
{"id":82325,"wikiDataId":"Q1014671","type":"CITY","city":"Wiwilí","name":"Wiwilí","country":"Nicaragua","countryCode":"NI","latitude":13.62679,"longitude":-85.8254},{"id":82315,"wikiDataId":"Q2216994","type":"CITY","city":"Yalagüina","name":"Yalagüina","country":"Nicaragua","countryCode":"NI","region":"Madriz Department","regionCode":"MD","latitude":13.48383,"longitude":-86.49305},{"id":83594,"wikiDataId":"Q131883","type":"CITY","city":"'s Gravenmoer","name":"'s Gravenmoer","country":"Netherlands","countryCode":"NL","region":"North Brabant","regionCode":"NB","latitude":51.65594,"longitude":4.94076},{"id":84045,"wikiDataId":"Q2517974","type":"CITY","city":"'s-Gravenland","name":"'s-Gravenland","country":"Netherlands","countryCode":"NL","region":"South Holland","regionCode":"ZH","latitude":51.92336,"longitude":4.55315},{"id":83494,"wikiDataId":"Q425786","type":"CITY","city":"'s-Gravenzande","name":"'s-Gravenzande","country":"Netherlands","countryCode":"NL","region":"South Holland","regionCode":"ZH","latitude":52.00167,"longitude":4.16528},{"id":82781,"wikiDataId":"Q425810","type":"CITY","city":"'s-Heerenberg","name":"'s-Heerenberg","country":"Netherlands","countryCode":"NL","region":"Gelderland","regionCode":"GE","latitude":51.8767,"longitude":6.25877},{"id":82728,"wikiDataId":"Q2766547","type":"CITY","city":"'s-Hertogenbosch","name":"'s-Hertogenbosch","country":"Netherlands","countryCode":"NL","region":"North Brabant","regionCode":"NB","latitude":51.69917,"longitude":5.30417},{"id":83199,"type":"CITY","city":"'t Hofke","name":"'t Hofke","country":"Netherlands","countryCode":"NL","region":"North Brabant","regionCode":"NB","latitude":51.44943,"longitude":5.51926},{"id":82815,"type":"CITY","city":"'t Zand","name":"'t Zand","country":"Netherlands","countryCode":"NL","region":"North Holland","regionCode":"NH","latitude":52.83667,"longitude":4.75556},{"id":83798,"wikiDataId":"Q300808","type":"CITY","city":"Aagtekerke","name":"Aagtekerke","country":"Netherlands","countryCode":"NL","region":"Zeeland","regionCode":"ZE","latitude":51.54667,"longitude":3.50972},
{"id":84497,"wikiDataId":"Q3111055","type":"CITY","city":"Aalburg","name":"Aalburg","country":"Netherlands","countryCode":"NL","region":"North Brabant","regionCode":"NB","latitude":51.75482,"longitude":5.13156},{"id":84171,"wikiDataId":"Q2432807","type":"CITY","city":"Aalden","name":"Aalden","country":"Netherlands","countryCode":"NL","region":"Drenthe","regionCode":"DR","latitude":52.79,"longitude":6.71806},{"id":84273,"wikiDataId":"Q33420194","type":"CITY","city":"Aalsmeer","name":"Aalsmeer","country":"Netherlands","countryCode":"NL","region":"North Holland","regionCode":"NH","latitude":52.25917,"longitude":4.75972},{"id":83719,"wikiDataId":"Q2661558","type":"CITY","city":"Aalst","name":"Aalst","country":"Netherlands","countryCode":"NL","region":"North Brabant","regionCode":"NB","latitude":51.39667,"longitude":5.47778},{"id":84233,"wikiDataId":"Q1940675","type":"CITY","city":"Aalst","name":"Aalst","country":"Netherlands","countryCode":"NL","region":"Gelderland","regionCode":"GE","latitude":51.7825,"longitude":5.12778},{"id":84449,"wikiDataId":"Q593220","type":"CITY","city":"Aalten","name":"Aalten","country":"Netherlands","countryCode":"NL","region":"Gelderland","regionCode":"GE","latitude":51.925,"longitude":6.58056},{"id":84001,"wikiDataId":"Q955","type":"CITY","city":"Aardenburg","name":"Aardenburg","country":"Netherlands","countryCode":"NL","region":"Zeeland","regionCode":"ZE","latitude":51.27333,"longitude":3.44722},{"id":83804,"wikiDataId":"Q2003434","type":"CITY","city":"Aarle-Rixtel","name":"Aarle-Rixtel","country":"Netherlands","countryCode":"NL","region":"North Brabant","regionCode":"NB","latitude":51.50976,"longitude":5.63839},{"id":84326,"wikiDataId":"Q969","type":"CITY","city":"Abbekerk","name":"Abbekerk","country":"Netherlands","countryCode":"NL","region":"North Holland","regionCode":"NH","latitude":52.73167,"longitude":5.01806},{"id":83713,"type":"CITY","city":"Abcoude","name":"Abcoude","country":"Netherlands","countryCode":"NL","region":"Utrecht","regionCode":"UT","latitude":52.2725,"longitude":4.96944},
{"id":84427,"type":"CITY","city":"Abcoven","name":"Abcoven","country":"Netherlands","countryCode":"NL","region":"North Brabant","regionCode":"NB","latitude":51.5275,"longitude":5.08333},{"id":84290,"type":"CITY","city":"Abdissenbosch","name":"Abdissenbosch","country":"Netherlands","countryCode":"NL","region":"Limburg","regionCode":"LI","latitude":50.91667,"longitude":6.03333},{"id":83912,"type":"CITY","city":"Adegeest","name":"Adegeest","country":"Netherlands","countryCode":"NL","region":"South Holland","regionCode":"ZH","latitude":52.13621,"longitude":4.45249},{"id":84432,"wikiDataId":"Q612259","type":"CITY","city":"Aduard","name":"Aduard","country":"Netherlands","countryCode":"NL","region":"Groningen","regionCode":"GR","latitude":53.25667,"longitude":6.45972},{"id":84418,"type":"CITY","city":"Afferden","name":"Afferden","country":"Netherlands","countryCode":"NL","region":"Gelderland","regionCode":"GE","latitude":51.88,"longitude":5.63472},{"id":83747,"type":"CITY","city":"Akert","name":"Akert","country":"Netherlands","countryCode":"NL","region":"North Brabant","regionCode":"NB","latitude":51.41407,"longitude":5.5596},{"id":84352,"wikiDataId":"Q2250527","type":"CITY","city":"Akkrum","name":"Akkrum","country":"Netherlands","countryCode":"NL","region":"Friesland","regionCode":"FR","latitude":53.05024,"longitude":5.83087},{"id":83735,"type":"CITY","city":"Alblasserdam","name":"Alblasserdam","country":"Netherlands","countryCode":"NL","region":"South Holland","regionCode":"ZH","latitude":51.86583,"longitude":4.66111},{"id":82900,"wikiDataId":"Q1982962","type":"CITY","city":"Aldeboarn","name":"Aldeboarn","country":"Netherlands","countryCode":"NL","region":"Friesland","regionCode":"FR","latitude":53.05,"longitude":5.9},{"id":83892,"type":"CITY","city":"Aldlân-Oost","name":"Aldlân-Oost","country":"Netherlands","countryCode":"NL","region":"Friesland","regionCode":"FR","latitude":53.1886,"longitude":5.82825},
{"id":84616,"wikiDataId":"Q16977290","type":"CITY","city":"Alkmaar","name":"Alkmaar","country":"Netherlands","countryCode":"NL","region":"North Holland","regionCode":"NH","latitude":52.63167,"longitude":4.74861},{"id":84208,"wikiDataId":"Q33421017","type":"CITY","city":"Almelo","name":"Almelo","country":"Netherlands","countryCode":"NL","region":"Overijssel","regionCode":"OV","latitude":52.35667,"longitude":6.6625},{"id":83851,"type":"CITY","city":"Almere Stad","name":"Almere Stad","country":"Netherlands","countryCode":"NL","region":"Flevoland","regionCode":"FL","latitude":52.37025,"longitude":5.21413},{"id":83770,"wikiDataId":"Q2763565","type":"CITY","city":"Almkerk","name":"Almkerk","country":"Netherlands","countryCode":"NL","region":"North Brabant","regionCode":"NB","latitude":51.77083,"longitude":4.95972},{"id":83911,"wikiDataId":"Q2190389","type":"CITY","city":"Alphen","name":"Alphen","country":"Netherlands","countryCode":"NL","region":"North Brabant","regionCode":"NB","latitude":51.48167,"longitude":4.95833},{"id":84011,"wikiDataId":"Q15156199","type":"CITY","city":"Alphen aan den Rijn","name":"Alphen aan den Rijn","country":"Netherlands","countryCode":"NL","region":"South Holland","regionCode":"ZH","latitude":52.12917,"longitude":4.65546},{"id":83772,"type":"CITY","city":"Alverna","name":"Alverna","country":"Netherlands","countryCode":"NL","region":"Gelderland","regionCode":"GE","latitude":51.80417,"longitude":5.75972},{"id":84389,"wikiDataId":"Q1969048","type":"CITY","city":"Amby","name":"Amby","country":"Netherlands","countryCode":"NL","region":"Limburg","regionCode":"LI","latitude":50.86215,"longitude":5.73226},{"id":84251,"wikiDataId":"Q463100","type":"CITY","city":"America","name":"America","country":"Netherlands","countryCode":"NL","region":"Limburg","regionCode":"LI","latitude":51.43667,"longitude":5.97917},{"id":84279,"wikiDataId":"Q1615400","type":"CITY","city":"Amerongen","name":"Amerongen","country":"Netherlands","countryCode":"NL","region":"Utrecht","regionCode":"UT","latitude":52.0025,"longitude":5.45972},
{"id":84506,"wikiDataId":"Q33421377","type":"CITY","city":"Amersfoort","name":"Amersfoort","country":"Netherlands","countryCode":"NL","region":"Utrecht","regionCode":"UT","latitude":52.155,"longitude":5.3875},{"id":84653,"wikiDataId":"Q2366824","type":"CITY","city":"Ammerstol","name":"Ammerstol","country":"Netherlands","countryCode":"NL","region":"South Holland","regionCode":"ZH","latitude":51.9275,"longitude":4.80833},{"id":84597,"wikiDataId":"Q2073542","type":"CITY","city":"Ammerzoden","name":"Ammerzoden","country":"Netherlands","countryCode":"NL","region":"Gelderland","regionCode":"GE","latitude":51.74917,"longitude":5.22083},{"id":84341,"type":"CITY","city":"Amstelveen","name":"Amstelveen","country":"Netherlands","countryCode":"NL","region":"North Holland","regionCode":"NH","latitude":52.30083,"longitude":4.86389},{"id":84360,"wikiDataId":"Q2844505","type":"CITY","city":"Amstenrade","name":"Amstenrade","country":"Netherlands","countryCode":"NL","region":"Limburg","regionCode":"LI","latitude":50.93917,"longitude":5.92361},{"id":84050,"wikiDataId":"Q727","type":"CITY","city":"Amsterdam","name":"Amsterdam","country":"Netherlands","countryCode":"NL","region":"North Holland","regionCode":"NH","latitude":52.37403,"longitude":4.88969},{"id":84143,"wikiDataId":"Q478670","type":"CITY","city":"Amsterdam-Zuidoost","name":"Amsterdam-Zuidoost","country":"Netherlands","countryCode":"NL","region":"North Holland","regionCode":"NH","latitude":52.3075,"longitude":4.97222},{"id":82999,"wikiDataId":"Q2253787","type":"CITY","city":"Andel","name":"Andel","country":"Netherlands","countryCode":"NL","region":"North Brabant","regionCode":"NB","latitude":51.78333,"longitude":5.05833},{"id":84612,"wikiDataId":"Q2265087","type":"CITY","city":"Andelst","name":"Andelst","country":"Netherlands","countryCode":"NL","region":"Gelderland","regionCode":"GE","latitude":51.90833,"longitude":5.72917},{"id":83961,"type":"CITY","city":"Angelslo","name":"Angelslo","country":"Netherlands","countryCode":"NL","region":"Drenthe","regionCode":"DR","latitude":52.7809,"longitude":6.92645},
{"id":84412,"wikiDataId":"Q538054","type":"CITY","city":"Angeren","name":"Angeren","country":"Netherlands","countryCode":"NL","region":"Gelderland","regionCode":"GE","latitude":51.91583,"longitude":5.95833},{"id":84539,"wikiDataId":"Q1055698","type":"CITY","city":"Angerlo","name":"Angerlo","country":"Netherlands","countryCode":"NL","region":"Gelderland","regionCode":"GE","latitude":51.99583,"longitude":6.13472},{"id":84292,"type":"CITY","city":"Ankeveense Rade","name":"Ankeveense Rade","country":"Netherlands","countryCode":"NL","region":"North Holland","regionCode":"NH","latitude":52.25891,"longitude":5.1016},{"id":84201,"type":"CITY","city":"Anklaar","name":"Anklaar","country":"Netherlands","countryCode":"NL","region":"Gelderland","regionCode":"GE","latitude":52.23111,"longitude":5.98497},{"id":84367,"wikiDataId":"Q2439040","type":"CITY","city":"Annen","name":"Annen","country":"Netherlands","countryCode":"NL","region":"Drenthe","regionCode":"DR","latitude":53.0575,"longitude":6.71944},{"id":84015,"wikiDataId":"Q3018561","type":"CITY","city":"Apeldoorn","name":"Apeldoorn","country":"Netherlands","countryCode":"NL","region":"Gelderland","regionCode":"GE","latitude":52.21,"longitude":5.96944},{"id":84562,"wikiDataId":"Q620806","type":"CITY","city":"Appelscha","name":"Appelscha","country":"Netherlands","countryCode":"NL","region":"Friesland","regionCode":"FR","latitude":52.95526,"longitude":6.35053},{"id":84503,"type":"CITY","city":"Appingedam","name":"Appingedam","country":"Netherlands","countryCode":"NL","region":"Groningen","regionCode":"GR","latitude":53.32167,"longitude":6.85833},{"id":84029,"wikiDataId":"Q631873","type":"CITY","city":"Arcen","name":"Arcen","country":"Netherlands","countryCode":"NL","region":"Limburg","regionCode":"LI","latitude":51.47667,"longitude":6.18056},{"id":84285,"wikiDataId":"Q1165364","type":"CITY","city":"Arkel","name":"Arkel","country":"Netherlands","countryCode":"NL","region":"South Holland","regionCode":"ZH","latitude":51.86417,"longitude":4.99444},
{"id":84445,"wikiDataId":"Q81183","type":"CITY","city":"Arnemuiden","name":"Arnemuiden","country":"Netherlands","countryCode":"NL","region":"Zeeland","regionCode":"ZE","latitude":51.50167,"longitude":3.675},{"id":83946,"wikiDataId":"Q49280467","type":"CITY","city":"Arnhem","name":"Arnhem","country":"Netherlands","countryCode":"NL","region":"Gelderland","regionCode":"GE","latitude":51.98,"longitude":5.91111},{"id":83729,"wikiDataId":"Q49280472","type":"CITY","city":"Assen","name":"Assen","country":"Netherlands","countryCode":"NL","region":"Drenthe","regionCode":"DR","latitude":52.99667,"longitude":6.5625},{"id":84189,"wikiDataId":"Q2022283","type":"CITY","city":"Asten","name":"Asten","country":"Netherlands","countryCode":"NL","region":"North Brabant","regionCode":"NB","latitude":51.40417,"longitude":5.74861},{"id":84473,"wikiDataId":"Q2017681","type":"CITY","city":"Augustinusga","name":"Augustinusga","country":"Netherlands","countryCode":"NL","region":"Friesland","regionCode":"FR","latitude":53.21785,"longitude":6.1617},{"id":84492,"wikiDataId":"Q2380583","type":"CITY","city":"Austerlitz","name":"Austerlitz","country":"Netherlands","countryCode":"NL","region":"Utrecht","regionCode":"UT","latitude":52.08,"longitude":5.31528},{"id":84518,"wikiDataId":"Q2338786","type":"CITY","city":"Avenhorn","name":"Avenhorn","country":"Netherlands","countryCode":"NL","region":"North Holland","regionCode":"NH","latitude":52.6175,"longitude":4.95139},{"id":83732,"wikiDataId":"Q1616240","type":"CITY","city":"Axel","name":"Axel","country":"Netherlands","countryCode":"NL","region":"Zeeland","regionCode":"ZE","latitude":51.26667,"longitude":3.90833},{"id":84312,"type":"CITY","city":"Baalder","name":"Baalder","country":"Netherlands","countryCode":"NL","region":"Overijssel","regionCode":"OV","latitude":52.58579,"longitude":6.65299},{"id":84469,"wikiDataId":"Q535988","type":"CITY","city":"Baambrugge","name":"Baambrugge","country":"Netherlands","countryCode":"NL","region":"Utrecht","regionCode":"UT","latitude":52.24583,"longitude":4.98889},
{"id":84664,"wikiDataId":"Q3025163","type":"CITY","city":"Baardwijk","name":"Baardwijk","country":"Netherlands","countryCode":"NL","region":"North Brabant","regionCode":"NB","latitude":51.69246,"longitude":5.09628},{"id":84002,"type":"CITY","city":"Baarle-Nassau","name":"Baarle-Nassau","country":"Netherlands","countryCode":"NL","region":"North Brabant","regionCode":"NB","latitude":51.4475,"longitude":4.92917},{"id":84359,"wikiDataId":"Q2701692","type":"CITY","city":"Baarlo","name":"Baarlo","country":"Netherlands","countryCode":"NL","region":"Limburg","regionCode":"LI","latitude":51.33083,"longitude":6.09444},{"id":84096,"wikiDataId":"Q33423050","type":"CITY","city":"Baarn","name":"Baarn","country":"Netherlands","countryCode":"NL","region":"Utrecht","regionCode":"UT","latitude":52.21167,"longitude":5.2875},{"id":84407,"wikiDataId":"Q2579355","type":"CITY","city":"Babberich","name":"Babberich","country":"Netherlands","countryCode":"NL","region":"Gelderland","regionCode":"GE","latitude":51.9075,"longitude":6.11111},{"id":84594,"wikiDataId":"Q799792","type":"CITY","city":"Baflo","name":"Baflo","country":"Netherlands","countryCode":"NL","region":"Groningen","regionCode":"GR","latitude":53.3625,"longitude":6.51389},{"id":83977,"wikiDataId":"Q1858964","type":"CITY","city":"Bakel","name":"Bakel","country":"Netherlands","countryCode":"NL","region":"North Brabant","regionCode":"NB","latitude":51.50333,"longitude":5.74028},{"id":83712,"type":"CITY","city":"Bakenberg","name":"Bakenberg","country":"Netherlands","countryCode":"NL","region":"Gelderland","regionCode":"GE","latitude":52.00511,"longitude":5.8771},{"id":83819,"wikiDataId":"Q2192128","type":"CITY","city":"Bakhuizen","name":"Bakhuizen","country":"Netherlands","countryCode":"NL","region":"Friesland","regionCode":"FR","latitude":52.86975,"longitude":5.45926},{"id":84238,"wikiDataId":"Q2389357","type":"CITY","city":"Bakkeveen","name":"Bakkeveen","country":"Netherlands","countryCode":"NL","region":"Friesland","regionCode":"FR","latitude":53.08072,"longitude":6.25671},
{"id":84104,"wikiDataId":"Q2240991","type":"CITY","city":"Balk","name":"Balk","country":"Netherlands","countryCode":"NL","region":"Friesland","regionCode":"FR","latitude":52.89756,"longitude":5.57964},{"id":84598,"type":"CITY","city":"Ballast","name":"Ballast","country":"Netherlands","countryCode":"NL","region":"Drenthe","regionCode":"DR","latitude":52.67218,"longitude":6.73299},{"id":84516,"wikiDataId":"Q1844935","type":"CITY","city":"Bangert","name":"Bangert","country":"Netherlands","countryCode":"NL","region":"North Holland","regionCode":"NH","latitude":52.73582,"longitude":5.1801},{"id":84331,"wikiDataId":"Q100002","type":"CITY","city":"Banholt","name":"Banholt","country":"Netherlands","countryCode":"NL","region":"Limburg","regionCode":"LI","latitude":50.79,"longitude":5.80833},{"id":83865,"type":"CITY","city":"Barendrecht","name":"Barendrecht","country":"Netherlands","countryCode":"NL","region":"South Holland","regionCode":"ZH","latitude":51.85667,"longitude":4.53472},{"id":84153,"wikiDataId":"Q2884467","type":"CITY","city":"Barger-Oosterveld","name":"Barger-Oosterveld","country":"Netherlands","countryCode":"NL","region":"Drenthe","regionCode":"DR","latitude":52.77,"longitude":6.95833},{"id":84491,"type":"CITY","city":"Bargeres","name":"Bargeres","country":"Netherlands","countryCode":"NL","region":"Drenthe","regionCode":"DR","latitude":52.76152,"longitude":6.88145},{"id":84636,"wikiDataId":"Q2001429","type":"CITY","city":"Barneveld","name":"Barneveld","country":"Netherlands","countryCode":"NL","region":"Gelderland","regionCode":"GE","latitude":52.14,"longitude":5.58472},{"id":84356,"wikiDataId":"Q1990493","type":"CITY","city":"Bavel","name":"Bavel","country":"Netherlands","countryCode":"NL","region":"North Brabant","regionCode":"NB","latitude":51.56583,"longitude":4.83056},{"id":84400,"wikiDataId":"Q2690942","type":"CITY","city":"Bedum","name":"Bedum","country":"Netherlands","countryCode":"NL","region":"Groningen","regionCode":"GR","latitude":53.30083,"longitude":6.60278},
{"id":84295,"wikiDataId":"Q631499","type":"CITY","city":"Beegden","name":"Beegden","country":"Netherlands","countryCode":"NL","region":"Limburg","regionCode":"LI","latitude":51.18917,"longitude":5.91944},{"id":83808,"type":"CITY","city":"Beek","name":"Beek","country":"Netherlands","countryCode":"NL","region":"North Brabant","regionCode":"NB","latitude":51.5289,"longitude":5.63382},{"id":84529,"wikiDataId":"Q3972033","type":"CITY","city":"Beek","name":"Beek","country":"Netherlands","countryCode":"NL","region":"Limburg","regionCode":"LI","latitude":50.94083,"longitude":5.79722},{"id":83805,"wikiDataId":"Q2893665","type":"CITY","city":"Beek gem Montferland","name":"Beek gem Montferland","country":"Netherlands","countryCode":"NL","region":"Gelderland","regionCode":"GE","latitude":51.90667,"longitude":6.1875},{"id":84649,"wikiDataId":"Q2893671","type":"CITY","city":"Beekbergen","name":"Beekbergen","country":"Netherlands","countryCode":"NL","region":"Gelderland","regionCode":"GE","latitude":52.16,"longitude":5.96389},{"id":84397,"wikiDataId":"Q954104","type":"CITY","city":"Beers","name":"Beers","country":"Netherlands","countryCode":"NL","region":"North Brabant","regionCode":"NB","latitude":51.72583,"longitude":5.82778},{"id":83766,"type":"CITY","city":"Beersdal","name":"Beersdal","country":"Netherlands","countryCode":"NL","region":"Limburg","regionCode":"LI","latitude":50.90597,"longitude":5.9644},{"id":84635,"wikiDataId":"Q2219434","type":"CITY","city":"Beesd","name":"Beesd","country":"Netherlands","countryCode":"NL","region":"Gelderland","regionCode":"GE","latitude":51.8875,"longitude":5.19167},{"id":84339,"type":"CITY","city":"Beesel","name":"Beesel","country":"Netherlands","countryCode":"NL","region":"Limburg","regionCode":"LI","latitude":51.26833,"longitude":6.03889},{"id":84044,"wikiDataId":"Q2675898","type":"CITY","city":"Beetsterzwaag","name":"Beetsterzwaag","country":"Netherlands","countryCode":"NL","region":"Friesland","regionCode":"FR","latitude":53.05914,"longitude":6.07711},
{"id":84021,"wikiDataId":"Q2034045","type":"CITY","city":"Beilen","name":"Beilen","country":"Netherlands","countryCode":"NL","region":"Drenthe","regionCode":"DR","latitude":52.86333,"longitude":6.51389},{"id":84595,"type":"CITY","city":"Belcrum","name":"Belcrum","country":"Netherlands","countryCode":"NL","region":"North Brabant","regionCode":"NB","latitude":51.59911,"longitude":4.76994},{"id":84565,"type":"CITY","city":"Belfort","name":"Belfort","country":"Netherlands","countryCode":"NL","region":"Limburg","regionCode":"LI","latitude":50.84698,"longitude":5.65991},{"id":83744,"wikiDataId":"Q2181173","type":"CITY","city":"Bellingwolde","name":"Bellingwolde","country":"Netherlands","countryCode":"NL","region":"Groningen","regionCode":"GR","latitude":53.11583,"longitude":7.16528},{"id":83762,"wikiDataId":"Q2011066","type":"CITY","city":"Beltrum","name":"Beltrum","country":"Netherlands","countryCode":"NL","region":"Gelderland","regionCode":"GE","latitude":52.06667,"longitude":6.56389},{"id":83863,"wikiDataId":"Q784364","type":"CITY","city":"Bemmel","name":"Bemmel","country":"Netherlands","countryCode":"NL","region":"Gelderland","regionCode":"GE","latitude":51.89167,"longitude":5.89861},{"id":84243,"wikiDataId":"Q817840","type":"CITY","city":"Bennebroek","name":"Bennebroek","country":"Netherlands","countryCode":"NL","region":"North Holland","regionCode":"NH","latitude":52.32083,"longitude":4.59861},{"id":84631,"wikiDataId":"Q2281003","type":"CITY","city":"Bennekom","name":"Bennekom","country":"Netherlands","countryCode":"NL","region":"Gelderland","regionCode":"GE","latitude":51.99833,"longitude":5.67639},{"id":84298,"wikiDataId":"Q818270","type":"CITY","city":"Benthuizen","name":"Benthuizen","country":"Netherlands","countryCode":"NL","region":"South Holland","regionCode":"ZH","latitude":52.0775,"longitude":4.54444},{"id":84667,"wikiDataId":"Q100138","type":"CITY","city":"Berg","name":"Berg","country":"Netherlands","countryCode":"NL","region":"Limburg","regionCode":"LI","latitude":50.86167,"longitude":5.78333},
{"id":84241,"type":"CITY","city":"Berg en Bos","name":"Berg en Bos","country":"Netherlands","countryCode":"NL","region":"Gelderland","regionCode":"GE","latitude":52.22009,"longitude":5.9334},{"id":84413,"wikiDataId":"Q2116037","type":"CITY","city":"Berg en Dal","name":"Berg en Dal","country":"Netherlands","countryCode":"NL","region":"Gelderland","regionCode":"GE","latitude":51.82167,"longitude":5.91667},{"id":158438,"wikiDataId":"Q9812","type":"ADM2","city":"Bergeijk","name":"Bergeijk","country":"Netherlands","countryCode":"NL","region":"North Brabant","regionCode":"NB","latitude":51.30182,"longitude":5.33946},{"id":83793,"wikiDataId":"Q192508","type":"CITY","city":"Bergen op Zoom","name":"Bergen op Zoom","country":"Netherlands","countryCode":"NL","region":"North Brabant","regionCode":"NB","latitude":51.495,"longitude":4.29167},{"id":84192,"wikiDataId":"Q2084100","type":"CITY","city":"Bergharen","name":"Bergharen","country":"Netherlands","countryCode":"NL","region":"Gelderland","regionCode":"GE","latitude":51.85083,"longitude":5.66944},{"id":84188,"wikiDataId":"Q2042013","type":"CITY","city":"Berghem","name":"Berghem","country":"Netherlands","countryCode":"NL","region":"North Brabant","regionCode":"NB","latitude":51.76991,"longitude":5.56827},{"id":84136,"wikiDataId":"Q820175","type":"CITY","city":"Bergschenhoek","name":"Bergschenhoek","country":"Netherlands","countryCode":"NL","region":"South Holland","regionCode":"ZH","latitude":51.99,"longitude":4.49861},{"id":84394,"wikiDataId":"Q2717671","type":"CITY","city":"Bergstoep","name":"Bergstoep","country":"Netherlands","countryCode":"NL","region":"South Holland","regionCode":"ZH","latitude":51.9225,"longitude":4.78472},{"id":84194,"wikiDataId":"Q1878867","type":"CITY","city":"Beringe","name":"Beringe","country":"Netherlands","countryCode":"NL","region":"Limburg","regionCode":"LI","latitude":51.33667,"longitude":5.94861},{"id":83809,"wikiDataId":"Q820839","type":"CITY","city":"Berkel en Rodenrijs","name":"Berkel en Rodenrijs","country":"Netherlands","countryCode":"NL","region":"South Holland","regionCode":"ZH","latitude":51.99313,"longitude":4.47865},
{"id":158517,"wikiDataId":"Q47104","type":"ADM2","city":"Berkelland","name":"Berkelland","country":"Netherlands","countryCode":"NL","region":"Gelderland","regionCode":"GE","latitude":52.10606,"longitude":6.56748},{"id":84422,"wikiDataId":"Q2897199","type":"CITY","city":"Berkenwoude","name":"Berkenwoude","country":"Netherlands","countryCode":"NL","region":"South Holland","regionCode":"ZH","latitude":51.945,"longitude":4.70694},{"id":84272,"wikiDataId":"Q2272260","type":"CITY","city":"Berkhout","name":"Berkhout","country":"Netherlands","countryCode":"NL","region":"North Holland","regionCode":"NH","latitude":52.64083,"longitude":5.00139},{"id":83752,"type":"CITY","city":"Berkum","name":"Berkum","country":"Netherlands","countryCode":"NL","region":"Overijssel","regionCode":"OV","latitude":52.52395,"longitude":6.13655},{"id":84654,"wikiDataId":"Q2897233","type":"CITY","city":"Berlicum","name":"Berlicum","country":"Netherlands","countryCode":"NL","region":"North Brabant","regionCode":"NB","latitude":51.6775,"longitude":5.4},{"id":83728,"wikiDataId":"Q1107931","type":"CITY","city":"Berltsum","name":"Berltsum","country":"Netherlands","countryCode":"NL","region":"Friesland","regionCode":"FR","latitude":53.2437,"longitude":5.65101},{"id":84287,"type":"CITY","city":"Besoijen","name":"Besoijen","country":"Netherlands","countryCode":"NL","region":"North Brabant","regionCode":"NB","latitude":51.68333,"longitude":5.05},{"id":83968,"type":"CITY","city":"Best","name":"Best","country":"Netherlands","countryCode":"NL","region":"North Brabant","regionCode":"NB","latitude":51.5075,"longitude":5.39028},{"id":84504,"type":"CITY","city":"Besterd","name":"Besterd","country":"Netherlands","countryCode":"NL","region":"North Brabant","regionCode":"NB","latitude":51.5638,"longitude":5.08658},{"id":84604,"wikiDataId":"Q33424703","type":"CITY","city":"Beuningen","name":"Beuningen","country":"Netherlands","countryCode":"NL","region":"Gelderland","regionCode":"GE","latitude":51.86083,"longitude":5.76667},
{"id":84523,"wikiDataId":"Q1879468","type":"CITY","city":"Beusichem","name":"Beusichem","country":"Netherlands","countryCode":"NL","region":"Gelderland","regionCode":"GE","latitude":51.95,"longitude":5.29167},{"id":84334,"wikiDataId":"Q33424724","type":"CITY","city":"Beverwijk","name":"Beverwijk","country":"Netherlands","countryCode":"NL","region":"North Holland","regionCode":"NH","latitude":52.48333,"longitude":4.65694},{"id":84318,"wikiDataId":"Q599331","type":"CITY","city":"Biddinghuizen","name":"Biddinghuizen","country":"Netherlands","countryCode":"NL","region":"Flevoland","regionCode":"FL","latitude":52.455,"longitude":5.69306},{"id":84228,"type":"CITY","city":"Biesdonk","name":"Biesdonk","country":"Netherlands","countryCode":"NL","region":"North Brabant","regionCode":"NB","latitude":51.60613,"longitude":4.78515},{"id":84308,"wikiDataId":"Q2380712","type":"CITY","city":"Biesland","name":"Biesland","country":"Netherlands","countryCode":"NL","region":"Limburg","regionCode":"LI","latitude":50.8411,"longitude":5.67573},{"id":83816,"type":"CITY","city":"Bijvanck","name":"Bijvanck","country":"Netherlands","countryCode":"NL","region":"North Holland","regionCode":"NH","latitude":52.28585,"longitude":5.26534},{"id":84599,"type":"CITY","city":"Bilgaard","name":"Bilgaard","country":"Netherlands","countryCode":"NL","region":"Friesland","regionCode":"FR","latitude":53.21551,"longitude":5.79574},{"id":84004,"type":"CITY","city":"Binnenhof","name":"Binnenhof","country":"Netherlands","countryCode":"NL","region":"South Holland","regionCode":"ZH","latitude":52.16418,"longitude":4.53644},{"id":84077,"type":"CITY","city":"Binnenstad","name":"Binnenstad","country":"Netherlands","countryCode":"NL","region":"Gelderland","regionCode":"GE","latitude":52.21304,"longitude":5.95957},{"id":84073,"type":"CITY","city":"Bitswijk","name":"Bitswijk","country":"Netherlands","countryCode":"NL","region":"North Brabant","regionCode":"NB","latitude":51.6687,"longitude":5.60921},
{"id":83925,"type":"CITY","city":"Blaarthem","name":"Blaarthem","country":"Netherlands","countryCode":"NL","region":"North Brabant","regionCode":"NB","latitude":51.42501,"longitude":5.45784},{"id":84691,"wikiDataId":"Q1899862","type":"CITY","city":"Bladel","name":"Bladel","country":"Netherlands","countryCode":"NL","region":"North Brabant","regionCode":"NB","latitude":51.36833,"longitude":5.22083},{"id":84135,"type":"CITY","city":"Blaricum","name":"Blaricum","country":"Netherlands","countryCode":"NL","region":"North Holland","regionCode":"NH","latitude":52.2725,"longitude":5.24167},{"id":84301,"type":"CITY","city":"Bleijerheide","name":"Bleijerheide","country":"Netherlands","countryCode":"NL","region":"Limburg","regionCode":"LI","latitude":50.85538,"longitude":6.06789},{"id":84409,"wikiDataId":"Q883690","type":"CITY","city":"Bleiswijk","name":"Bleiswijk","country":"Netherlands","countryCode":"NL","region":"South Holland","regionCode":"ZH","latitude":52.01083,"longitude":4.53194},{"id":84550,"wikiDataId":"Q2109338","type":"CITY","city":"Bleskensgraaf","name":"Bleskensgraaf","country":"Netherlands","countryCode":"NL","region":"South Holland","regionCode":"ZH","latitude":51.8725,"longitude":4.78333},{"id":84468,"type":"CITY","city":"Blijham","name":"Blijham","country":"Netherlands","countryCode":"NL","region":"Groningen","regionCode":"GR","latitude":53.10917,"longitude":7.07639},{"id":84365,"wikiDataId":"Q2906656","type":"CITY","city":"Blitterswijck","name":"Blitterswijck","country":"Netherlands","countryCode":"NL","region":"Limburg","regionCode":"LI","latitude":51.53083,"longitude":6.10833},{"id":83878,"wikiDataId":"Q33425149","type":"CITY","city":"Bloemendaal","name":"Bloemendaal","country":"Netherlands","countryCode":"NL","region":"North Holland","regionCode":"NH","latitude":52.4025,"longitude":4.62222},{"id":84662,"wikiDataId":"Q2086096","type":"CITY","city":"Bloemendaal","name":"Bloemendaal","country":"Netherlands","countryCode":"NL","region":"South Holland","regionCode":"ZH","latitude":52.02878,"longitude":4.6944},
{"id":84214,"wikiDataId":"Q2149295","type":"CITY","city":"Bloemhof","name":"Bloemhof","country":"Netherlands","countryCode":"NL","region":"South Holland","regionCode":"ZH","latitude":51.89723,"longitude":4.49943},{"id":83903,"wikiDataId":"Q59605","type":"CITY","city":"Blokzijl","name":"Blokzijl","country":"Netherlands","countryCode":"NL","region":"Overijssel","regionCode":"OV","latitude":52.72667,"longitude":5.96111},{"id":83741,"wikiDataId":"Q2217726","type":"CITY","city":"Bocholtz","name":"Bocholtz","country":"Netherlands","countryCode":"NL","region":"Limburg","regionCode":"LI","latitude":50.81833,"longitude":6.00556},{"id":83832,"wikiDataId":"Q832938","type":"CITY","city":"Bodegraven","name":"Bodegraven","country":"Netherlands","countryCode":"NL","region":"South Holland","regionCode":"ZH","latitude":52.0825,"longitude":4.75},{"id":158528,"wikiDataId":"Q889423","type":"ADM2","city":"Bodegraven-Reeuwijk","name":"Bodegraven-Reeuwijk","country":"Netherlands","countryCode":"NL","region":"South Holland","regionCode":"ZH","latitude":52.06541,"longitude":4.76634},{"id":84443,"wikiDataId":"Q13441242","type":"CITY","city":"Boekel","name":"Boekel","country":"Netherlands","countryCode":"NL","region":"North Brabant","regionCode":"NB","latitude":51.60333,"longitude":5.675},{"id":84049,"wikiDataId":"Q2039640","type":"CITY","city":"Bolnes","name":"Bolnes","country":"Netherlands","countryCode":"NL","region":"South Holland","regionCode":"ZH","latitude":51.895,"longitude":4.57917},{"id":83931,"wikiDataId":"Q329582","type":"CITY","city":"Bolsward","name":"Bolsward","country":"Netherlands","countryCode":"NL","region":"Friesland","regionCode":"FR","latitude":53.06555,"longitude":5.53176},{"id":84540,"wikiDataId":"Q2209207","type":"CITY","city":"Boornbergum","name":"Boornbergum","country":"Netherlands","countryCode":"NL","region":"Friesland","regionCode":"FR","latitude":53.08284,"longitude":6.04578},{"id":84581,"wikiDataId":"Q1025685","type":"CITY","city":"Borculo","name":"Borculo","country":"Netherlands","countryCode":"NL","region":"Gelderland","regionCode":"GE","latitude":52.11583,"longitude":6.52222},
{"id":84226,"type":"CITY","city":"Borgele","name":"Borgele","country":"Netherlands","countryCode":"NL","region":"Overijssel","regionCode":"OV","latitude":52.2763,"longitude":6.14926},{"id":84458,"wikiDataId":"Q2301825","type":"CITY","city":"Borger","name":"Borger","country":"Netherlands","countryCode":"NL","region":"Drenthe","regionCode":"DR","latitude":52.92333,"longitude":6.79306},{"id":83792,"wikiDataId":"Q262725","type":"CITY","city":"Borgharen","name":"Borgharen","country":"Netherlands","countryCode":"NL","region":"Limburg","regionCode":"LI","latitude":50.8775,"longitude":5.6875},{"id":84321,"wikiDataId":"Q502343","type":"CITY","city":"Born","name":"Born","country":"Netherlands","countryCode":"NL","region":"Limburg","regionCode":"LI","latitude":51.03167,"longitude":5.80972},{"id":84317,"type":"CITY","city":"Borne","name":"Borne","country":"Netherlands","countryCode":"NL","region":"Overijssel","regionCode":"OV","latitude":52.30136,"longitude":6.7482},{"id":84353,"wikiDataId":"Q2911365","type":"CITY","city":"Borssele","name":"Borssele","country":"Netherlands","countryCode":"NL","region":"Zeeland","regionCode":"ZE","latitude":51.42333,"longitude":3.73472},{"id":84393,"wikiDataId":"Q2911449","type":"CITY","city":"Bosch en Duin","name":"Bosch en Duin","country":"Netherlands","countryCode":"NL","region":"Utrecht","regionCode":"UT","latitude":52.11667,"longitude":5.24167},{"id":84618,"wikiDataId":"Q508326","type":"CITY","city":"Boskamp","name":"Boskamp","country":"Netherlands","countryCode":"NL","region":"Overijssel","regionCode":"OV","latitude":52.33083,"longitude":6.12778},{"id":84572,"type":"CITY","city":"Boskoop","name":"Boskoop","country":"Netherlands","countryCode":"NL","region":"South Holland","regionCode":"ZH","latitude":52.075,"longitude":4.65556},{"id":84348,"wikiDataId":"Q2911564","type":"CITY","city":"Bosschenhoofd","name":"Bosschenhoofd","country":"Netherlands","countryCode":"NL","region":"North Brabant","regionCode":"NB","latitude":51.56083,"longitude":4.54028},
{"id":84075,"wikiDataId":"Q2692102","type":"CITY","city":"Boven-Hardinxveld","name":"Boven-Hardinxveld","country":"Netherlands","countryCode":"NL","region":"South Holland","regionCode":"ZH","latitude":51.82333,"longitude":4.88194},{"id":84674,"wikiDataId":"Q12012490","type":"CITY","city":"Boxmeer","name":"Boxmeer","country":"Netherlands","countryCode":"NL","region":"North Brabant","regionCode":"NB","latitude":51.64667,"longitude":5.94722},{"id":84501,"wikiDataId":"Q13443096","type":"CITY","city":"Boxtel","name":"Boxtel","country":"Netherlands","countryCode":"NL","region":"North Brabant","regionCode":"NB","latitude":51.59083,"longitude":5.32917},{"id":84122,"type":"CITY","city":"Brabander","name":"Brabander","country":"Netherlands","countryCode":"NL","region":"Limburg","regionCode":"LI","latitude":51.53583,"longitude":5.96806},{"id":84297,"type":"CITY","city":"Brachterbeek","name":"Brachterbeek","country":"Netherlands","countryCode":"NL","region":"Limburg","regionCode":"LI","latitude":51.14694,"longitude":5.90446},{"id":84521,"wikiDataId":"Q2916660","type":"CITY","city":"Brakel","name":"Brakel","country":"Netherlands","countryCode":"NL","region":"Gelderland","regionCode":"GE","latitude":51.8175,"longitude":5.09028},{"id":84357,"type":"CITY","city":"Brakkenstein","name":"Brakkenstein","country":"Netherlands","countryCode":"NL","region":"Gelderland","regionCode":"GE","latitude":51.81324,"longitude":5.86539},{"id":83852,"type":"CITY","city":"Brand","name":"Brand","country":"Netherlands","countryCode":"NL","region":"North Brabant","regionCode":"NB","latitude":51.45839,"longitude":5.62427},{"id":83726,"wikiDataId":"Q40844","type":"CITY","city":"Breda","name":"Breda","country":"Netherlands","countryCode":"NL","region":"North Brabant","regionCode":"NB","latitude":51.58656,"longitude":4.77596},{"id":84606,"wikiDataId":"Q73501","type":"CITY","city":"Bredevoort","name":"Bredevoort","country":"Netherlands","countryCode":"NL","region":"Gelderland","regionCode":"GE","latitude":51.94167,"longitude":6.62083},
{"id":84184,"type":"CITY","city":"Bredeweg","name":"Bredeweg","country":"Netherlands","countryCode":"NL","region":"Gelderland","regionCode":"GE","latitude":51.76019,"longitude":5.94189},{"id":84116,"wikiDataId":"Q940668","type":"CITY","city":"Breezand","name":"Breezand","country":"Netherlands","countryCode":"NL","region":"North Holland","regionCode":"NH","latitude":52.89,"longitude":4.80417},{"id":83783,"wikiDataId":"Q641390","type":"CITY","city":"Breskens","name":"Breskens","country":"Netherlands","countryCode":"NL","region":"Zeeland","regionCode":"ZE","latitude":51.39583,"longitude":3.55556},{"id":84607,"wikiDataId":"Q1981676","type":"CITY","city":"Breugel","name":"Breugel","country":"Netherlands","countryCode":"NL","region":"North Brabant","regionCode":"NB","latitude":51.5175,"longitude":5.51111},{"id":83917,"wikiDataId":"Q615732","type":"CITY","city":"Breukelen","name":"Breukelen","country":"Netherlands","countryCode":"NL","region":"Utrecht","regionCode":"UT","latitude":52.17417,"longitude":5.00139},{"id":84206,"wikiDataId":"Q33426218","type":"CITY","city":"Brielle","name":"Brielle","country":"Netherlands","countryCode":"NL","region":"South Holland","regionCode":"ZH","latitude":51.90167,"longitude":4.1625},{"id":84018,"type":"CITY","city":"Brinkhorst","name":"Brinkhorst","country":"Netherlands","countryCode":"NL","region":"Gelderland","regionCode":"GE","latitude":52.21302,"longitude":5.95167},{"id":84225,"wikiDataId":"Q2925962","type":"CITY","city":"Broek in Waterland","name":"Broek in Waterland","country":"Netherlands","countryCode":"NL","region":"North Holland","regionCode":"NH","latitude":52.43417,"longitude":4.99583},{"id":84560,"wikiDataId":"Q2464635","type":"CITY","city":"Broek op Langedijk","name":"Broek op Langedijk","country":"Netherlands","countryCode":"NL","region":"North Holland","regionCode":"NH","latitude":52.67417,"longitude":4.80556},{"id":83817,"wikiDataId":"Q100115","type":"CITY","city":"Broekhem","name":"Broekhem","country":"Netherlands","countryCode":"NL","region":"Limburg","regionCode":"LI","latitude":50.87119,"longitude":5.82069},
{"id":84489,"type":"CITY","city":"Broekhoven","name":"Broekhoven","country":"Netherlands","countryCode":"NL","region":"North Brabant","regionCode":"NB","latitude":51.54801,"longitude":5.09175},{"id":84588,"wikiDataId":"Q2925966","type":"CITY","city":"Broeksittard","name":"Broeksittard","country":"Netherlands","countryCode":"NL","region":"Limburg","regionCode":"LI","latitude":51.0029,"longitude":5.89511},{"id":83894,"wikiDataId":"Q2594220","type":"CITY","city":"Broeksterwâld","name":"Broeksterwâld","country":"Netherlands","countryCode":"NL","region":"Friesland","regionCode":"FR","latitude":53.27466,"longitude":5.99648},{"id":84673,"wikiDataId":"Q991009","type":"CITY","city":"Brouwershaven","name":"Brouwershaven","country":"Netherlands","countryCode":"NL","region":"Zeeland","regionCode":"ZE","latitude":51.72667,"longitude":3.9125},{"id":83950,"wikiDataId":"Q991951","type":"CITY","city":"Bruchem","name":"Bruchem","country":"Netherlands","countryCode":"NL","region":"Gelderland","regionCode":"GE","latitude":51.78667,"longitude":5.23611},{"id":83897,"wikiDataId":"Q992371","type":"CITY","city":"Bruinisse","name":"Bruinisse","country":"Netherlands","countryCode":"NL","region":"Zeeland","regionCode":"ZE","latitude":51.66167,"longitude":4.09444},{"id":84538,"wikiDataId":"Q23046156","type":"CITY","city":"Brukske","name":"Brukske","country":"Netherlands","countryCode":"NL","region":"Limburg","regionCode":"LI","latitude":51.52101,"longitude":5.9927},{"id":84139,"type":"CITY","city":"Brummelhof","name":"Brummelhof","country":"Netherlands","countryCode":"NL","region":"Gelderland","regionCode":"GE","latitude":52.20503,"longitude":5.96789},{"id":83753,"wikiDataId":"Q16069702","type":"CITY","city":"Brummen","name":"Brummen","country":"Netherlands","countryCode":"NL","region":"Gelderland","regionCode":"GE","latitude":52.09,"longitude":6.15556},{"id":84436,"type":"CITY","city":"Brunnepe","name":"Brunnepe","country":"Netherlands","countryCode":"NL","region":"Overijssel","regionCode":"OV","latitude":52.56185,"longitude":5.90343},
{"id":83972,"wikiDataId":"Q33426662","type":"CITY","city":"Brunssum","name":"Brunssum","country":"Netherlands","countryCode":"NL","region":"Limburg","regionCode":"LI","latitude":50.94667,"longitude":5.97083},{"id":84465,"type":"CITY","city":"Buchten","name":"Buchten","country":"Netherlands","countryCode":"NL","region":"Limburg","regionCode":"LI","latitude":51.04333,"longitude":5.80972},{"id":83833,"wikiDataId":"Q1001369","type":"CITY","city":"Budel","name":"Budel","country":"Netherlands","countryCode":"NL","region":"North Brabant","regionCode":"NB","latitude":51.27167,"longitude":5.575},{"id":83992,"wikiDataId":"Q2165583","type":"CITY","city":"Budel-Dorplein","name":"Budel-Dorplein","country":"Netherlands","countryCode":"NL","region":"North Brabant","regionCode":"NB","latitude":51.23667,"longitude":5.5875},{"id":84705,"type":"CITY","city":"Budel-Schoot","name":"Budel-Schoot","country":"Netherlands","countryCode":"NL","region":"North Brabant","regionCode":"NB","latitude":51.2475,"longitude":5.56528},{"id":84578,"type":"CITY","city":"Budschop","name":"Budschop","country":"Netherlands","countryCode":"NL","region":"Limburg","regionCode":"LI","latitude":51.28511,"longitude":5.75898},{"id":83881,"wikiDataId":"Q181500","type":"CITY","city":"Buitenpost","name":"Buitenpost","country":"Netherlands","countryCode":"NL","region":"Friesland","regionCode":"FR","latitude":53.25166,"longitude":6.14483},{"id":83755,"wikiDataId":"Q1005360","type":"CITY","city":"Bunde","name":"Bunde","country":"Netherlands","countryCode":"NL","region":"Limburg","regionCode":"LI","latitude":50.89667,"longitude":5.73194},{"id":84110,"wikiDataId":"Q937679","type":"CITY","city":"Bunnik","name":"Bunnik","country":"Netherlands","countryCode":"NL","region":"Utrecht","regionCode":"UT","latitude":52.06667,"longitude":5.19861},{"id":84615,"type":"CITY","city":"Bunschoten","name":"Bunschoten","country":"Netherlands","countryCode":"NL","region":"Utrecht","regionCode":"UT","latitude":52.24304,"longitude":5.37884},
{"id":84169,"wikiDataId":"Q2049915","type":"CITY","city":"Burdaard","name":"Burdaard","country":"Netherlands","countryCode":"NL","region":"Friesland","regionCode":"FR","latitude":53.29421,"longitude":5.87897},{"id":83893,"type":"CITY","city":"Burgemeesterswijk","name":"Burgemeesterswijk","country":"Netherlands","countryCode":"NL","region":"Gelderland","regionCode":"GE","latitude":51.98943,"longitude":5.89597},{"id":83905,"wikiDataId":"Q1016068","type":"CITY","city":"Burgum","name":"Burgum","country":"Netherlands","countryCode":"NL","region":"Friesland","regionCode":"FR","latitude":53.19243,"longitude":5.99009},{"id":83736,"wikiDataId":"Q9909","type":"CITY","city":"Bussum","name":"Bussum","country":"Netherlands","countryCode":"NL","region":"North Holland","regionCode":"NH","latitude":52.27333,"longitude":5.16111},{"id":84204,"wikiDataId":"Q991661","type":"CITY","city":"Callantsoog","name":"Callantsoog","country":"Netherlands","countryCode":"NL","region":"North Holland","regionCode":"NH","latitude":52.84,"longitude":4.69583},{"id":83824,"wikiDataId":"Q2345784","type":"CITY","city":"Camminghaburen","name":"Camminghaburen","country":"Netherlands","countryCode":"NL","region":"Friesland","regionCode":"FR","latitude":53.20973,"longitude":5.84318},{"id":84669,"type":"CITY","city":"Capelle aan den IJssel","name":"Capelle aan den IJssel","country":"Netherlands","countryCode":"NL","region":"South Holland","regionCode":"ZH","latitude":51.92917,"longitude":4.57778},{"id":84666,"wikiDataId":"Q1967376","type":"CITY","city":"Capelle-West","name":"Capelle-West","country":"Netherlands","countryCode":"NL","region":"South Holland","regionCode":"ZH","latitude":51.91667,"longitude":4.56667},{"id":84005,"type":"CITY","city":"Carnisse","name":"Carnisse","country":"Netherlands","countryCode":"NL","region":"South Holland","regionCode":"ZH","latitude":51.88932,"longitude":4.47758},{"id":84401,"wikiDataId":"Q33429472","type":"CITY","city":"Castricum","name":"Castricum","country":"Netherlands","countryCode":"NL","region":"North Holland","regionCode":"NH","latitude":52.54833,"longitude":4.66944},
{"id":84426,"wikiDataId":"Q2369076","type":"CITY","city":"Chaam","name":"Chaam","country":"Netherlands","countryCode":"NL","region":"North Brabant","regionCode":"NB","latitude":51.50583,"longitude":4.86111},{"id":83924,"type":"CITY","city":"Chevremont","name":"Chevremont","country":"Netherlands","countryCode":"NL","region":"Limburg","regionCode":"LI","latitude":50.87554,"longitude":6.05981},{"id":84100,"type":"CITY","city":"Coendersborg","name":"Coendersborg","country":"Netherlands","countryCode":"NL","region":"Groningen","regionCode":"GR","latitude":53.1941,"longitude":6.58944},{"id":83872,"type":"CITY","city":"Coevering","name":"Coevering","country":"Netherlands","countryCode":"NL","region":"North Brabant","regionCode":"NB","latitude":51.41742,"longitude":5.57463},{"id":83829,"type":"CITY","city":"Coevorden","name":"Coevorden","country":"Netherlands","countryCode":"NL","region":"Drenthe","regionCode":"DR","latitude":52.66103,"longitude":6.74046},{"id":83837,"wikiDataId":"Q538319","type":"CITY","city":"Colijnsplaat","name":"Colijnsplaat","country":"Netherlands","countryCode":"NL","region":"Zeeland","regionCode":"ZE","latitude":51.59917,"longitude":3.84861},{"id":84031,"type":"CITY","city":"Commandeurs","name":"Commandeurs","country":"Netherlands","countryCode":"NL","region":"North Holland","regionCode":"NH","latitude":52.50902,"longitude":4.65843},{"id":84381,"type":"CITY","city":"Componistenkwartier","name":"Componistenkwartier","country":"Netherlands","countryCode":"NL","region":"Gelderland","regionCode":"GE","latitude":52.18977,"longitude":5.96609},{"id":83888,"type":"CITY","city":"Corlaer","name":"Corlaer","country":"Netherlands","countryCode":"NL","region":"Gelderland","regionCode":"GE","latitude":52.21639,"longitude":5.46535},{"id":83887,"wikiDataId":"Q2860067","type":"CITY","city":"Cothen","name":"Cothen","country":"Netherlands","countryCode":"NL","region":"Utrecht","regionCode":"UT","latitude":51.99667,"longitude":5.30833},
{"id":84701,"type":"CITY","city":"Cranendonck","name":"Cranendonck","country":"Netherlands","countryCode":"NL","region":"North Brabant","regionCode":"NB","latitude":51.30417,"longitude":5.58889},{"id":84478,"wikiDataId":"Q13635419","type":"CITY","city":"Cuijk","name":"Cuijk","country":"Netherlands","countryCode":"NL","region":"North Brabant","regionCode":"NB","latitude":51.73083,"longitude":5.87917},{"id":83962,"type":"CITY","city":"Culemborg","name":"Culemborg","country":"Netherlands","countryCode":"NL","region":"Gelderland","regionCode":"GE","latitude":51.955,"longitude":5.22778},{"id":83954,"wikiDataId":"Q1974246","type":"CITY","city":"Dalen","name":"Dalen","country":"Netherlands","countryCode":"NL","region":"Drenthe","regionCode":"DR","latitude":52.69917,"longitude":6.75556},{"id":84680,"wikiDataId":"Q15644904","type":"CITY","city":"Dalfsen","name":"Dalfsen","country":"Netherlands","countryCode":"NL","region":"Overijssel","regionCode":"OV","latitude":52.51167,"longitude":6.25694},{"id":84174,"wikiDataId":"Q2272796","type":"CITY","city":"Damwâld","name":"Damwâld","country":"Netherlands","countryCode":"NL","region":"Friesland","regionCode":"FR","latitude":53.29046,"longitude":5.99785},{"id":84639,"type":"CITY","city":"Dauwendaele","name":"Dauwendaele","country":"Netherlands","countryCode":"NL","region":"Zeeland","regionCode":"ZE","latitude":51.49299,"longitude":3.62624},{"id":84629,"type":"CITY","city":"De Bilt","name":"De Bilt","country":"Netherlands","countryCode":"NL","region":"Utrecht","regionCode":"UT","latitude":52.11,"longitude":5.18056},{"id":83733,"type":"CITY","city":"De Blaak","name":"De Blaak","country":"Netherlands","countryCode":"NL","region":"North Brabant","regionCode":"NB","latitude":51.54626,"longitude":5.04465},{"id":84579,"type":"CITY","city":"De Bouwhof","name":"De Bouwhof","country":"Netherlands","countryCode":"NL","region":"Gelderland","regionCode":"GE","latitude":52.18546,"longitude":5.94704},
{"id":83937,"type":"CITY","city":"De Domp","name":"De Domp","country":"Netherlands","countryCode":"NL","region":"Friesland","regionCode":"FR","latitude":53.03113,"longitude":5.67716},{"id":84406,"type":"CITY","city":"De Doornakkers","name":"De Doornakkers","country":"Netherlands","countryCode":"NL","region":"North Brabant","regionCode":"NB","latitude":51.43844,"longitude":5.50887},{"id":84531,"type":"CITY","city":"De Drait","name":"De Drait","country":"Netherlands","countryCode":"NL","region":"Friesland","regionCode":"FR","latitude":53.09743,"longitude":6.06791},{"id":158543,"wikiDataId":"Q2114866","type":"ADM2","city":"De Fryske Marren","name":"De Fryske Marren","country":"Netherlands","countryCode":"NL","region":"Friesland","regionCode":"FR","latitude":52.96906,"longitude":5.77246},{"id":83861,"type":"CITY","city":"De Glip","name":"De Glip","country":"Netherlands","countryCode":"NL","region":"North Holland","regionCode":"NH","latitude":52.33083,"longitude":4.61111},{"id":84423,"wikiDataId":"Q2993272","type":"CITY","city":"De Goorn","name":"De Goorn","country":"Netherlands","countryCode":"NL","region":"North Holland","regionCode":"NH","latitude":52.62583,"longitude":4.94722},{"id":84065,"type":"CITY","city":"De Greiden","name":"De Greiden","country":"Netherlands","countryCode":"NL","region":"Friesland","regionCode":"FR","latitude":52.9496,"longitude":5.91366},{"id":84213,"type":"CITY","city":"De Hagen","name":"De Hagen","country":"Netherlands","countryCode":"NL","region":"Utrecht","regionCode":"UT","latitude":51.99381,"longitude":5.10263},{"id":84158,"type":"CITY","city":"De Haven","name":"De Haven","country":"Netherlands","countryCode":"NL","region":"Gelderland","regionCode":"GE","latitude":52.21045,"longitude":5.97407},{"id":84025,"type":"CITY","city":"De Heeg","name":"De Heeg","country":"Netherlands","countryCode":"NL","region":"Limburg","regionCode":"LI","latitude":50.82454,"longitude":5.72309},
{"id":83785,"type":"CITY","city":"De Heeze","name":"De Heeze","country":"Netherlands","countryCode":"NL","region":"Gelderland","regionCode":"GE","latitude":52.20061,"longitude":5.95365},{"id":84524,"type":"CITY","city":"De Hoven","name":"De Hoven","country":"Netherlands","countryCode":"NL","region":"Overijssel","regionCode":"OV","latitude":52.24901,"longitude":6.14367},{"id":83920,"type":"CITY","city":"De Kieviet","name":"De Kieviet","country":"Netherlands","countryCode":"NL","region":"South Holland","regionCode":"ZH","latitude":52.12333,"longitude":4.35839},{"id":83854,"wikiDataId":"Q2466507","type":"CITY","city":"De Knipe","name":"De Knipe","country":"Netherlands","countryCode":"NL","region":"Friesland","regionCode":"FR","latitude":52.96829,"longitude":5.97116},{"id":84570,"wikiDataId":"Q517053","type":"CITY","city":"De Koog","name":"De Koog","country":"Netherlands","countryCode":"NL","region":"North Holland","regionCode":"NH","latitude":53.0975,"longitude":4.76111},{"id":84557,"type":"CITY","city":"De Kruiskamp","name":"De Kruiskamp","country":"Netherlands","countryCode":"NL","region":"North Brabant","regionCode":"NB","latitude":51.69978,"longitude":5.26032},{"id":83820,"wikiDataId":"Q1616247","type":"CITY","city":"De Lier","name":"De Lier","country":"Netherlands","countryCode":"NL","region":"South Holland","regionCode":"ZH","latitude":51.975,"longitude":4.24861},{"id":84323,"type":"CITY","city":"De Loo","name":"De Loo","country":"Netherlands","countryCode":"NL","region":"Drenthe","regionCode":"DR","latitude":52.67167,"longitude":6.73967},{"id":83822,"type":"CITY","city":"De Maer","name":"De Maer","country":"Netherlands","countryCode":"NL","region":"North Holland","regionCode":"NH","latitude":52.51901,"longitude":4.68171},{"id":83907,"type":"CITY","city":"De Mheen","name":"De Mheen","country":"Netherlands","countryCode":"NL","region":"Gelderland","regionCode":"GE","latitude":52.21954,"longitude":5.99141},
{"id":84120,"type":"CITY","city":"De Noord","name":"De Noord","country":"Netherlands","countryCode":"NL","region":"North Holland","regionCode":"NH","latitude":52.7075,"longitude":4.85139},{"id":83836,"type":"CITY","city":"De Peulen","name":"De Peulen","country":"Netherlands","countryCode":"NL","region":"South Holland","regionCode":"ZH","latitude":51.82362,"longitude":4.82165},{"id":84620,"type":"CITY","city":"De Reit","name":"De Reit","country":"Netherlands","countryCode":"NL","region":"North Brabant","regionCode":"NB","latitude":51.56038,"longitude":5.04932},{"id":84320,"wikiDataId":"Q2208222","type":"CITY","city":"De Rijp","name":"De Rijp","country":"Netherlands","countryCode":"NL","region":"North Holland","regionCode":"NH","latitude":52.55667,"longitude":4.84583},{"id":84118,"type":"CITY","city":"De Rompert","name":"De Rompert","country":"Netherlands","countryCode":"NL","region":"North Brabant","regionCode":"NB","latitude":51.71667,"longitude":5.31667},{"id":84079,"wikiDataId":"Q5363315","type":"CITY","city":"De Uithof","name":"De Uithof","country":"Netherlands","countryCode":"NL","region":"Utrecht","regionCode":"UT","latitude":52.08526,"longitude":5.17456},{"id":83096,"wikiDataId":"Q1907265","type":"CITY","city":"De Westereen","name":"De Westereen","country":"Netherlands","countryCode":"NL","region":"Friesland","regionCode":"FR","latitude":53.25731,"longitude":6.0363},{"id":83717,"type":"CITY","city":"De Wijert","name":"De Wijert","country":"Netherlands","countryCode":"NL","region":"Groningen","regionCode":"GR","latitude":53.1945,"longitude":6.57117},{"id":84316,"wikiDataId":"Q2187499","type":"CITY","city":"De Wijk","name":"De Wijk","country":"Netherlands","countryCode":"NL","region":"Drenthe","regionCode":"DR","latitude":52.67333,"longitude":6.29028},{"id":84199,"wikiDataId":"Q2335535","type":"CITY","city":"Deest","name":"Deest","country":"Netherlands","countryCode":"NL","region":"Gelderland","regionCode":"GE","latitude":51.89,"longitude":5.66667},
{"id":84364,"wikiDataId":"Q73147","type":"CITY","city":"Deil","name":"Deil","country":"Netherlands","countryCode":"NL","region":"Gelderland","regionCode":"GE","latitude":51.88417,"longitude":5.24306},{"id":84223,"wikiDataId":"Q1007172","type":"CITY","city":"Delden","name":"Delden","country":"Netherlands","countryCode":"NL","region":"Overijssel","regionCode":"OV","latitude":52.26,"longitude":6.71111},{"id":84520,"wikiDataId":"Q1184149","type":"CITY","city":"Delfshaven","name":"Delfshaven","country":"Netherlands","countryCode":"NL","region":"South Holland","regionCode":"ZH","latitude":51.90488,"longitude":4.45315},{"id":84601,"wikiDataId":"Q33432813","type":"CITY","city":"Delft","name":"Delft","country":"Netherlands","countryCode":"NL","region":"South Holland","regionCode":"ZH","latitude":52.00667,"longitude":4.35556},{"id":83921,"type":"CITY","city":"Delfzijl","name":"Delfzijl","country":"Netherlands","countryCode":"NL","region":"Groningen","regionCode":"GR","latitude":53.33,"longitude":6.91806},{"id":83818,"wikiDataId":"Q599417","type":"CITY","city":"Den Burg","name":"Den Burg","country":"Netherlands","countryCode":"NL","region":"North Holland","regionCode":"NH","latitude":53.05417,"longitude":4.79722},{"id":84324,"wikiDataId":"Q1007744","type":"CITY","city":"Den Dungen","name":"Den Dungen","country":"Netherlands","countryCode":"NL","region":"North Brabant","regionCode":"NB","latitude":51.665,"longitude":5.37222},{"id":84484,"wikiDataId":"Q2594212","type":"CITY","city":"Den Ham","name":"Den Ham","country":"Netherlands","countryCode":"NL","region":"Overijssel","regionCode":"OV","latitude":52.46583,"longitude":6.49583},{"id":83746,"wikiDataId":"Q33432868","type":"CITY","city":"Den Helder","name":"Den Helder","country":"Netherlands","countryCode":"NL","region":"North Holland","regionCode":"NH","latitude":52.95988,"longitude":4.75933},{"id":84590,"wikiDataId":"Q957593","type":"CITY","city":"Den Oever","name":"Den Oever","country":"Netherlands","countryCode":"NL","region":"North Holland","regionCode":"NH","latitude":52.93353,"longitude":5.03079},
{"id":84549,"wikiDataId":"Q1904017","type":"CITY","city":"Deuteren","name":"Deuteren","country":"Netherlands","countryCode":"NL","region":"North Brabant","regionCode":"NB","latitude":51.68667,"longitude":5.26667},{"id":84362,"wikiDataId":"Q26296883","type":"CITY","city":"Deventer","name":"Deventer","country":"Netherlands","countryCode":"NL","region":"Overijssel","regionCode":"OV","latitude":52.255,"longitude":6.16389},{"id":84314,"wikiDataId":"Q33433170","type":"CITY","city":"Diemen","name":"Diemen","country":"Netherlands","countryCode":"NL","region":"North Holland","regionCode":"NH","latitude":52.33964,"longitude":4.96256},{"id":83707,"wikiDataId":"Q2243026","type":"CITY","city":"Diepenheim","name":"Diepenheim","country":"Netherlands","countryCode":"NL","region":"Overijssel","regionCode":"OV","latitude":52.2,"longitude":6.55556},{"id":83952,"wikiDataId":"Q73101","type":"CITY","city":"Dieren","name":"Dieren","country":"Netherlands","countryCode":"NL","region":"Gelderland","regionCode":"GE","latitude":52.0525,"longitude":6.1},{"id":84343,"wikiDataId":"Q3027519","type":"CITY","city":"Diessen","name":"Diessen","country":"Netherlands","countryCode":"NL","region":"North Brabant","regionCode":"NB","latitude":51.47583,"longitude":5.175},{"id":83846,"wikiDataId":"Q2497377","type":"CITY","city":"Diever","name":"Diever","country":"Netherlands","countryCode":"NL","region":"Drenthe","regionCode":"DR","latitude":52.85417,"longitude":6.31806},{"id":84424,"wikiDataId":"Q2281208","type":"CITY","city":"Dinteloord","name":"Dinteloord","country":"Netherlands","countryCode":"NL","region":"North Brabant","regionCode":"NB","latitude":51.635,"longitude":4.36944},{"id":84583,"wikiDataId":"Q2594101","type":"CITY","city":"Dirkshorn","name":"Dirkshorn","country":"Netherlands","countryCode":"NL","region":"North Holland","regionCode":"NH","latitude":52.75,"longitude":4.775},{"id":84685,"wikiDataId":"Q917827","type":"CITY","city":"Dirksland","name":"Dirksland","country":"Netherlands","countryCode":"NL","region":"South Holland","regionCode":"ZH","latitude":51.74917,"longitude":4.1},
{"id":84028,"wikiDataId":"Q1906425","type":"CITY","city":"Doenrade","name":"Doenrade","country":"Netherlands","countryCode":"NL","region":"Limburg","regionCode":"LI","latitude":50.9675,"longitude":5.90694},{"id":84668,"type":"CITY","city":"Doesburg","name":"Doesburg","country":"Netherlands","countryCode":"NL","region":"Gelderland","regionCode":"GE","latitude":52.0125,"longitude":6.13889},{"id":83901,"wikiDataId":"Q16068685","type":"CITY","city":"Doetinchem","name":"Doetinchem","country":"Netherlands","countryCode":"NL","region":"Gelderland","regionCode":"GE","latitude":51.965,"longitude":6.28889},{"id":84453,"wikiDataId":"Q41976","type":"CITY","city":"Dokkum","name":"Dokkum","country":"Netherlands","countryCode":"NL","region":"Friesland","regionCode":"FR","latitude":53.32224,"longitude":5.99697},{"id":83885,"wikiDataId":"Q980728","type":"CITY","city":"Domburg","name":"Domburg","country":"Netherlands","countryCode":"NL","region":"Zeeland","regionCode":"ZE","latitude":51.56333,"longitude":3.49583},{"id":83928,"wikiDataId":"Q747614","type":"CITY","city":"Dommelen","name":"Dommelen","country":"Netherlands","countryCode":"NL","region":"North Brabant","regionCode":"NB","latitude":51.34624,"longitude":5.43394},{"id":84222,"wikiDataId":"Q4507706","type":"CITY","city":"Dongen","name":"Dongen","country":"Netherlands","countryCode":"NL","region":"North Brabant","regionCode":"NB","latitude":51.62667,"longitude":4.93889},{"id":83982,"type":"CITY","city":"Donk","name":"Donk","country":"Netherlands","countryCode":"NL","region":"North Brabant","regionCode":"NB","latitude":51.53843,"longitude":5.62914},{"id":83745,"wikiDataId":"Q282936","type":"CITY","city":"Donkerbroek","name":"Donkerbroek","country":"Netherlands","countryCode":"NL","region":"Friesland","regionCode":"FR","latitude":53.01734,"longitude":6.23927},{"id":84386,"type":"CITY","city":"Doonheide","name":"Doonheide","country":"Netherlands","countryCode":"NL","region":"North Brabant","regionCode":"NB","latitude":51.56667,"longitude":5.69444},
{"id":83932,"wikiDataId":"Q1615161","type":"CITY","city":"Doorn","name":"Doorn","country":"Netherlands","countryCode":"NL","region":"Utrecht","regionCode":"UT","latitude":52.03343,"longitude":5.34571},{"id":84319,"wikiDataId":"Q950577","type":"CITY","city":"Doornenburg","name":"Doornenburg","country":"Netherlands","countryCode":"NL","region":"Gelderland","regionCode":"GE","latitude":51.89,"longitude":6.0},{"id":84374,"wikiDataId":"Q959806","type":"CITY","city":"Doornspijk","name":"Doornspijk","country":"Netherlands","countryCode":"NL","region":"Gelderland","regionCode":"GE","latitude":52.41833,"longitude":5.81806},{"id":84567,"wikiDataId":"Q2683563","type":"CITY","city":"Doornsteeg","name":"Doornsteeg","country":"Netherlands","countryCode":"NL","region":"Gelderland","regionCode":"GE","latitude":52.23,"longitude":5.45417},{"id":83991,"wikiDataId":"Q2188963","type":"CITY","city":"Doorwerth","name":"Doorwerth","country":"Netherlands","countryCode":"NL","region":"Gelderland","regionCode":"GE","latitude":51.97917,"longitude":5.79722},{"id":84010,"wikiDataId":"Q33433503","type":"CITY","city":"Dordrecht","name":"Dordrecht","country":"Netherlands","countryCode":"NL","region":"South Holland","regionCode":"ZH","latitude":51.81,"longitude":4.67361},{"id":84589,"type":"CITY","city":"Dorst","name":"Dorst","country":"Netherlands","countryCode":"NL","region":"North Brabant","regionCode":"NB","latitude":51.59,"longitude":4.85694},{"id":84294,"wikiDataId":"Q60444","type":"CITY","city":"Drachten","name":"Drachten","country":"Netherlands","countryCode":"NL","region":"Friesland","regionCode":"FR","latitude":53.11254,"longitude":6.0989},{"id":84266,"wikiDataId":"Q2198067","type":"CITY","city":"Drachtstercompagnie","name":"Drachtstercompagnie","country":"Netherlands","countryCode":"NL","region":"Friesland","regionCode":"FR","latitude":53.13462,"longitude":6.14153},{"id":84330,"wikiDataId":"Q1258901","type":"CITY","city":"Driebergen-Rijsenburg","name":"Driebergen-Rijsenburg","country":"Netherlands","countryCode":"NL","region":"Utrecht","regionCode":"UT","latitude":52.05333,"longitude":5.28056},
{"id":84476,"wikiDataId":"Q225535","type":"CITY","city":"Driebruggen","name":"Driebruggen","country":"Netherlands","countryCode":"NL","region":"South Holland","regionCode":"ZH","latitude":52.04417,"longitude":4.8},{"id":84448,"type":"CITY","city":"Driehuizen","name":"Driehuizen","country":"Netherlands","countryCode":"NL","region":"Gelderland","regionCode":"GE","latitude":52.20879,"longitude":5.94442},{"id":83871,"wikiDataId":"Q1614971","type":"CITY","city":"Driel","name":"Driel","country":"Netherlands","countryCode":"NL","region":"Gelderland","regionCode":"GE","latitude":51.95917,"longitude":5.81389},{"id":83966,"type":"CITY","city":"Driemanspolder","name":"Driemanspolder","country":"Netherlands","countryCode":"NL","region":"South Holland","regionCode":"ZH","latitude":52.05176,"longitude":4.48504},{"id":84414,"wikiDataId":"Q1258911","type":"CITY","city":"Driemond","name":"Driemond","country":"Netherlands","countryCode":"NL","region":"North Holland","regionCode":"NH","latitude":52.30583,"longitude":5.01667},{"id":83967,"wikiDataId":"Q2497585","type":"CITY","city":"Drogeham","name":"Drogeham","country":"Netherlands","countryCode":"NL","region":"Friesland","regionCode":"FR","latitude":53.20213,"longitude":6.11183},{"id":84023,"wikiDataId":"Q578267","type":"CITY","city":"Dronryp","name":"Dronryp","country":"Netherlands","countryCode":"NL","region":"Friesland","regionCode":"FR","latitude":53.2,"longitude":5.65},{"id":83847,"type":"CITY","city":"Dronten","name":"Dronten","country":"Netherlands","countryCode":"NL","region":"Flevoland","regionCode":"FL","latitude":52.525,"longitude":5.71806},{"id":84462,"type":"CITY","city":"Drumpt","name":"Drumpt","country":"Netherlands","countryCode":"NL","region":"Gelderland","regionCode":"GE","latitude":51.897,"longitude":5.41043},