[{"id":34272,"wikiDataId":"Q3100037","type":"CITY","city":"Gebre Guracha","name":"Gebre Guracha","country":"Ethiopia","countryCode":"ET","region":"Oromia Region","regionCode":"OR","latitude":9.8,"longitude":38.4},{"id":144327,"wikiDataId":"Q500213","type":"ADM2","city":"Gedeo Zone","name":"Gedeo Zone","country":"Ethiopia","countryCode":"ET","region":"Southern Nations, Nationalities, and Peoples' Region","regionCode":"SN","latitude":6.12727,"longitude":38.27716},{"id":34130,"wikiDataId":"Q3100278","type":"CITY","city":"Gelemso","name":"Gelemso","country":"Ethiopia","countryCode":"ET","region":"Oromia Region","regionCode":"OR","latitude":8.81667,"longitude":40.51667},{"id":34639,"wikiDataId":"Q3139315","type":"CITY","city":"Genet","name":"Genet","country":"Ethiopia","countryCode":"ET","region":"Oromia Region","regionCode":"OR","latitude":9.06667,"longitude":38.5},{"id":34677,"wikiDataId":"Q585723","type":"CITY","city":"Gewanē","name":"Gewanē","country":"Ethiopia","countryCode":"ET","region":"Afar Region","regionCode":"AF","latitude":10.16658,"longitude":40.64689},{"id":34123,"wikiDataId":"Q987235","type":"CITY","city":"Gimbi","name":"Gimbi","country":"Ethiopia","countryCode":"ET","region":"Oromia Region","regionCode":"OR","latitude":9.17031,"longitude":35.83491},{"id":33984,"wikiDataId":"Q3106775","type":"CITY","city":"Ginir","name":"Ginir","country":"Ethiopia","countryCode":"ET","region":"Oromia Region","regionCode":"OR","latitude":7.13952,"longitude":40.71083},{"id":33954,"wikiDataId":"Q745871","type":"CITY","city":"Goba","name":"Goba","country":"Ethiopia","countryCode":"ET","region":"Oromia Region","regionCode":"OR","latitude":7.01667,"longitude":39.98333},{"id":144359,"wikiDataId":"Q1435849","type":"ADM2","city":"Gode Zone","name":"Gode Zone","country":"Ethiopia","countryCode":"ET","region":"Somali Region","regionCode":"SO","latitude":6.0,"longitude":43.75},{"id":34724,"wikiDataId":"Q218861","type":"CITY","city":"Gondar","name":"Gondar","country":"Ethiopia","countryCode":"ET","region":"Amhara Region","regionCode":"AM","latitude":12.6,"longitude":37.46667},
{"id":34016,"wikiDataId":"Q3110215","type":"CITY","city":"Gorē","name":"Gorē","country":"Ethiopia","countryCode":"ET","region":"Oromia Region","regionCode":"OR","latitude":8.15,"longitude":35.53333},{"id":144320,"wikiDataId":"Q5617057","type":"ADM2","city":"Guji Zone","name":"Guji Zone","country":"Ethiopia","countryCode":"ET","region":"Oromia Region","regionCode":"OR","latitude":5.588,"longitude":39.067},{"id":144290,"wikiDataId":"Q1070678","type":"ADM2","city":"Guraghe Zone","name":"Guraghe Zone","country":"Ethiopia","countryCode":"ET","region":"Southern Nations, Nationalities, and Peoples' Region","regionCode":"SN","latitude":8.25,"longitude":38.0},{"id":34680,"type":"CITY","city":"Gēdo","name":"Gēdo","country":"Ethiopia","countryCode":"ET","region":"Oromia Region","regionCode":"OR","latitude":9.01667,"longitude":37.45},{"id":34675,"wikiDataId":"Q3105416","type":"CITY","city":"Gīdolē","name":"Gīdolē","country":"Ethiopia","countryCode":"ET","region":"Southern Nations, Nationalities, and Peoples' Region","regionCode":"SN","latitude":5.65,"longitude":37.36667},{"id":144287,"wikiDataId":"Q3125547","type":"ADM2","city":"Hadiya Zone","name":"Hadiya Zone","country":"Ethiopia","countryCode":"ET","region":"Southern Nations, Nationalities, and Peoples' Region","regionCode":"SN","latitude":7.5,"longitude":37.75},{"id":34666,"wikiDataId":"Q3125692","type":"CITY","city":"Hagere Maryam","name":"Hagere Maryam","country":"Ethiopia","countryCode":"ET","region":"Oromia Region","regionCode":"OR","latitude":5.63418,"longitude":38.23603},{"id":33175,"wikiDataId":"Q190184","type":"CITY","city":"Harar","name":"Harar","country":"Ethiopia","countryCode":"ET","region":"Harari Region","regionCode":"HA","latitude":9.31387,"longitude":42.11815},{"id":34321,"wikiDataId":"Q755765","type":"CITY","city":"Hawassa","name":"Hawassa","country":"Ethiopia","countryCode":"ET","region":"Southern Nations, Nationalities, and Peoples' Region","regionCode":"SN","latitude":7.06205,"longitude":38.47635},{"id":33586,"wikiDataId":"Q2754082","type":"CITY","city":"Hosa’ina","name":"Hosa’ina","country":"Ethiopia","countryCode":"ET","region":"Southern Nations, Nationalities, and Peoples' Region","regionCode":"SN","latitude":7.54978,"longitude":37.85374},
{"id":33489,"wikiDataId":"Q3143438","type":"CITY","city":"Huruta","name":"Huruta","country":"Ethiopia","countryCode":"ET","region":"Oromia Region","regionCode":"OR","latitude":8.15,"longitude":39.35},{"id":34444,"wikiDataId":"Q1266796","type":"CITY","city":"Hāgere Hiywet","name":"Hāgere Hiywet","country":"Ethiopia","countryCode":"ET","region":"Oromia Region","regionCode":"OR","latitude":8.98333,"longitude":37.85},{"id":34634,"wikiDataId":"Q3125693","type":"CITY","city":"Hāgere Selam","name":"Hāgere Selam","country":"Ethiopia","countryCode":"ET","region":"Southern Nations, Nationalities, and Peoples' Region","regionCode":"SN","latitude":6.48333,"longitude":38.51667},{"id":33049,"wikiDataId":"Q5769883","type":"CITY","city":"Hīrna","name":"Hīrna","country":"Ethiopia","countryCode":"ET","region":"Oromia Region","regionCode":"OR","latitude":9.21667,"longitude":41.1},{"id":144304,"wikiDataId":"Q768586","type":"ADM2","city":"Illubabor Zone","name":"Illubabor Zone","country":"Ethiopia","countryCode":"ET","region":"Oromia Region","regionCode":"OR","latitude":8.27526,"longitude":35.75596},{"id":33511,"wikiDataId":"Q743859","type":"CITY","city":"Inda Silasē","name":"Inda Silasē","country":"Ethiopia","countryCode":"ET","region":"Tigray Region","regionCode":"TI","latitude":14.10307,"longitude":38.28289},{"id":33459,"wikiDataId":"Q755763","type":"CITY","city":"Jijiga","name":"Jijiga","country":"Ethiopia","countryCode":"ET","region":"Somali Region","regionCode":"SO","latitude":9.35,"longitude":42.8},{"id":33232,"wikiDataId":"Q385341","type":"CITY","city":"Jimma","name":"Jimma","country":"Ethiopia","countryCode":"ET","region":"Oromia Region","regionCode":"OR","latitude":7.67344,"longitude":36.83441},{"id":144288,"wikiDataId":"Q1109877","type":"ADM2","city":"Jimma Zone","name":"Jimma Zone","country":"Ethiopia","countryCode":"ET","region":"Oromia Region","regionCode":"OR","latitude":7.66667,"longitude":37.0},{"id":33565,"wikiDataId":"Q3110186","type":"CITY","city":"Jinka","name":"Jinka","country":"Ethiopia","countryCode":"ET","region":"Southern Nations, Nationalities, and Peoples' Region","regionCode":"SN","latitude":5.65,"longitude":36.65},
{"id":144331,"wikiDataId":"Q3194972","type":"ADM2","city":"Kembata Alaba Tembaro Zone","name":"Kembata Alaba Tembaro Zone","country":"Ethiopia","countryCode":"ET","region":"Southern Nations, Nationalities, and Peoples' Region","regionCode":"SN","latitude":7.27039,"longitude":37.77887},{"id":33857,"type":"CITY","city":"Kemisē","name":"Kemisē","country":"Ethiopia","countryCode":"ET","region":"Amhara Region","regionCode":"AM","latitude":10.71668,"longitude":39.86997},{"id":33251,"type":"CITY","city":"Kibre Mengist","name":"Kibre Mengist","country":"Ethiopia","countryCode":"ET","region":"Oromia Region","regionCode":"OR","latitude":5.88333,"longitude":38.98333},{"id":33623,"wikiDataId":"Q934205","type":"CITY","city":"Kofelē","name":"Kofelē","country":"Ethiopia","countryCode":"ET","region":"Oromia Region","regionCode":"OR","latitude":7.06667,"longitude":38.78333},{"id":33598,"wikiDataId":"Q222420","type":"CITY","city":"Kombolcha","name":"Kombolcha","country":"Ethiopia","countryCode":"ET","region":"Amhara Region","regionCode":"AM","latitude":11.08155,"longitude":39.74339},{"id":33839,"wikiDataId":"Q575352","type":"CITY","city":"Konso","name":"Konso","country":"Ethiopia","countryCode":"ET","region":"Southern Nations, Nationalities, and Peoples' Region","regionCode":"SN","latitude":5.25,"longitude":37.48333},{"id":33537,"wikiDataId":"Q3198925","type":"CITY","city":"Korem","name":"Korem","country":"Ethiopia","countryCode":"ET","region":"Tigray Region","regionCode":"TI","latitude":12.50583,"longitude":39.52278},{"id":33503,"type":"CITY","city":"K’olīto","name":"K’olīto","country":"Ethiopia","countryCode":"ET","region":"Southern Nations, Nationalities, and Peoples' Region","regionCode":"SN","latitude":7.31667,"longitude":38.08333},{"id":33304,"wikiDataId":"Q207590","type":"CITY","city":"Lalībela","name":"Lalībela","country":"Ethiopia","countryCode":"ET","region":"Amhara Region","regionCode":"AM","latitude":12.03219,"longitude":39.04756},{"id":33767,"type":"CITY","city":"Leku","name":"Leku","country":"Ethiopia","countryCode":"ET","region":"Southern Nations, Nationalities, and Peoples' Region","regionCode":"SN","latitude":6.87309,"longitude":38.44425},
{"id":144341,"wikiDataId":"Q1822845","type":"ADM2","city":"Liben zone","name":"Liben zone","country":"Ethiopia","countryCode":"ET","region":"Somali Region","regionCode":"SO","latitude":4.75,"longitude":40.5},{"id":33342,"type":"CITY","city":"Lobuni","name":"Lobuni","country":"Ethiopia","countryCode":"ET","region":"Southern Nations, Nationalities, and Peoples' Region","regionCode":"SN","latitude":4.83333,"longitude":36.1},{"id":33837,"wikiDataId":"Q3111786","type":"CITY","city":"Maych’ew","name":"Maych’ew","country":"Ethiopia","countryCode":"ET","region":"Tigray Region","regionCode":"TI","latitude":12.7875,"longitude":39.54222},{"id":33645,"wikiDataId":"Q332319","type":"CITY","city":"Mek'ele","name":"Mek'ele","country":"Ethiopia","countryCode":"ET","region":"Tigray Region","regionCode":"TI","latitude":13.49667,"longitude":39.47528},{"id":33071,"wikiDataId":"Q3305771","type":"CITY","city":"Mendī","name":"Mendī","country":"Ethiopia","countryCode":"ET","region":"Oromia Region","regionCode":"OR","latitude":9.8,"longitude":35.1},{"id":33757,"type":"CITY","city":"Metahāra","name":"Metahāra","country":"Ethiopia","countryCode":"ET","region":"Oromia Region","regionCode":"OR","latitude":8.9,"longitude":39.91667},{"id":144334,"wikiDataId":"Q742955","type":"ADM2","city":"Metekel","name":"Metekel","country":"Ethiopia","countryCode":"ET","region":"Benishangul-Gumuz Region","regionCode":"BE","latitude":10.42673,"longitude":35.71975},{"id":33928,"type":"CITY","city":"Metu","name":"Metu","country":"Ethiopia","countryCode":"ET","region":"Oromia Region","regionCode":"OR","latitude":8.3,"longitude":35.58333},{"id":33634,"wikiDataId":"Q3319332","type":"CITY","city":"Mojo","name":"Mojo","country":"Ethiopia","countryCode":"ET","region":"Oromia Region","regionCode":"OR","latitude":8.58679,"longitude":39.12111},{"id":33324,"wikiDataId":"Q3304215","type":"CITY","city":"Mēga","name":"Mēga","country":"Ethiopia","countryCode":"ET","region":"Oromia Region","regionCode":"OR","latitude":4.05,"longitude":38.3},
{"id":33689,"wikiDataId":"Q3317332","type":"CITY","city":"Mīzan Teferī","name":"Mīzan Teferī","country":"Ethiopia","countryCode":"ET","region":"Southern Nations, Nationalities, and Peoples' Region","regionCode":"SN","latitude":6.99865,"longitude":35.58879},{"id":33561,"type":"CITY","city":"Nazrēt","name":"Nazrēt","country":"Ethiopia","countryCode":"ET","region":"Oromia Region","regionCode":"OR","latitude":8.55,"longitude":39.26667},{"id":33497,"wikiDataId":"Q3337871","type":"CITY","city":"Nejo","name":"Nejo","country":"Ethiopia","countryCode":"ET","region":"Oromia Region","regionCode":"OR","latitude":9.5,"longitude":35.5},{"id":144294,"wikiDataId":"Q1070780","type":"ADM2","city":"North Shewa Zone","name":"North Shewa Zone","country":"Ethiopia","countryCode":"ET","region":"Amhara Region","regionCode":"AM","latitude":9.769,"longitude":39.668},{"id":144335,"wikiDataId":"Q3478428","type":"ADM2","city":"North Shewa Zone","name":"North Shewa Zone","country":"Ethiopia","countryCode":"ET","region":"Oromia Region","regionCode":"OR","latitude":9.66915,"longitude":38.8124},{"id":144305,"wikiDataId":"Q2916300","type":"ADM2","city":"North Wollo Zone","name":"North Wollo Zone","country":"Ethiopia","countryCode":"ET","region":"Amhara Region","regionCode":"AM","latitude":11.92,"longitude":39.1},{"id":33836,"type":"CITY","city":"Robīt","name":"Robīt","country":"Ethiopia","countryCode":"ET","region":"Amhara Region","regionCode":"AM","latitude":12.01667,"longitude":39.63333},{"id":33498,"wikiDataId":"Q3476942","type":"CITY","city":"Sebeta","name":"Sebeta","country":"Ethiopia","countryCode":"ET","region":"Oromia Region","regionCode":"OR","latitude":8.91667,"longitude":38.61667},{"id":34129,"wikiDataId":"Q2750619","type":"CITY","city":"Semera","name":"Semera","country":"Ethiopia","countryCode":"ET","region":"Afar Region","regionCode":"AF","latitude":11.79342,"longitude":41.00578},{"id":33675,"wikiDataId":"Q3478522","type":"CITY","city":"Sendafa","name":"Sendafa","country":"Ethiopia","countryCode":"ET","region":"Oromia Region","regionCode":"OR","latitude":9.15203,"longitude":39.02335},
{"id":33421,"wikiDataId":"Q3481278","type":"CITY","city":"Shakiso","name":"Shakiso","country":"Ethiopia","countryCode":"ET","region":"Oromia Region","regionCode":"OR","latitude":5.76494,"longitude":38.91006},{"id":33212,"wikiDataId":"Q3481302","type":"CITY","city":"Shambu","name":"Shambu","country":"Ethiopia","countryCode":"ET","region":"Oromia Region","regionCode":"OR","latitude":9.56667,"longitude":37.1},{"id":33719,"wikiDataId":"Q731020","type":"CITY","city":"Shashemenē","name":"Shashemenē","country":"Ethiopia","countryCode":"ET","region":"Oromia Region","regionCode":"OR","latitude":7.2,"longitude":38.6},{"id":144392,"wikiDataId":"Q7493221","type":"ADM2","city":"Sheka Zone","name":"Sheka Zone","country":"Ethiopia","countryCode":"ET","region":"Southern Nations, Nationalities, and Peoples' Region","regionCode":"SN","latitude":7.56166,"longitude":35.40174},{"id":144323,"wikiDataId":"Q2279103","type":"ADM2","city":"Shinile Zone","name":"Shinile Zone","country":"Ethiopia","countryCode":"ET","region":"Somali Region","regionCode":"SO","latitude":10.17097,"longitude":41.83748},{"id":144316,"wikiDataId":"Q1070673","type":"ADM2","city":"Sidama Zone","name":"Sidama Zone","country":"Ethiopia","countryCode":"ET","region":"Southern Nations, Nationalities, and Peoples' Region","regionCode":"SN","latitude":6.718,"longitude":38.448},{"id":33523,"type":"CITY","city":"Sirre","name":"Sirre","country":"Ethiopia","countryCode":"ET","region":"Oromia Region","regionCode":"OR","latitude":8.31667,"longitude":39.48333},{"id":34211,"type":"CITY","city":"Sodo","name":"Sodo","country":"Ethiopia","countryCode":"ET","region":"Southern Nations, Nationalities, and Peoples' Region","regionCode":"SN","latitude":6.86,"longitude":37.76159},{"id":144314,"wikiDataId":"Q1070727","type":"ADM2","city":"South Gondar Zone","name":"South Gondar Zone","country":"Ethiopia","countryCode":"ET","region":"Amhara Region","regionCode":"AM","latitude":11.8385,"longitude":38.09954},{"id":144333,"wikiDataId":"Q2919962","type":"ADM2","city":"South Wollo Zone","name":"South Wollo Zone","country":"Ethiopia","countryCode":"ET","region":"Amhara Region","regionCode":"AM","latitude":11.0,"longitude":39.25},
{"id":144355,"type":"ADM2","city":"Southeastern Tigray Zone","name":"Southeastern Tigray Zone","country":"Ethiopia","countryCode":"ET","region":"Tigray Region","regionCode":"TI","latitude":13.24797,"longitude":39.53156},{"id":144307,"wikiDataId":"Q3020955","type":"ADM2","city":"Southern Tigray Zone","name":"Southern Tigray Zone","country":"Ethiopia","countryCode":"ET","region":"Tigray Region","regionCode":"TI","latitude":12.96033,"longitude":39.52831},{"id":33831,"wikiDataId":"Q1067163","type":"CITY","city":"Tippi","name":"Tippi","country":"Ethiopia","countryCode":"ET","region":"Southern Nations, Nationalities, and Peoples' Region","regionCode":"SN","latitude":7.2,"longitude":35.45},{"id":33085,"wikiDataId":"Q4465171","type":"CITY","city":"Tulu Bolo","name":"Tulu Bolo","country":"Ethiopia","countryCode":"ET","region":"Oromia Region","regionCode":"OR","latitude":8.66667,"longitude":38.21667},{"id":33382,"wikiDataId":"Q991408","type":"CITY","city":"Turmi","name":"Turmi","country":"Ethiopia","countryCode":"ET","region":"Southern Nations, Nationalities, and Peoples' Region","regionCode":"SN","latitude":4.96667,"longitude":36.48333},{"id":144311,"wikiDataId":"Q1070687","type":"ADM2","city":"Wag Hemra Zone","name":"Wag Hemra Zone","country":"Ethiopia","countryCode":"ET","region":"Amhara Region","regionCode":"AM","latitude":12.765,"longitude":38.843},{"id":34268,"wikiDataId":"Q3565377","type":"CITY","city":"Waliso","name":"Waliso","country":"Ethiopia","countryCode":"ET","region":"Oromia Region","regionCode":"OR","latitude":8.53417,"longitude":37.96515},{"id":33210,"type":"CITY","city":"Wendo","name":"Wendo","country":"Ethiopia","countryCode":"ET","region":"Southern Nations, Nationalities, and Peoples' Region","regionCode":"SN","latitude":6.6,"longitude":38.41667},{"id":32970,"type":"CITY","city":"Wenjī","name":"Wenjī","country":"Ethiopia","countryCode":"ET","region":"Oromia Region","regionCode":"OR","latitude":8.45,"longitude":39.28333},{"id":32987,"wikiDataId":"Q3567301","type":"CITY","city":"Were Īlu","name":"Were Īlu","country":"Ethiopia","countryCode":"ET","region":"Amhara Region","regionCode":"AM","latitude":10.58964,"longitude":39.43767},
{"id":33869,"wikiDataId":"Q3567308","type":"CITY","city":"Werota","name":"Werota","country":"Ethiopia","countryCode":"ET","region":"Amhara Region","regionCode":"AM","latitude":11.91667,"longitude":37.7},{"id":144312,"wikiDataId":"Q1109889","type":"ADM2","city":"West Harerghe Zone","name":"West Harerghe Zone","country":"Ethiopia","countryCode":"ET","region":"Oromia Region","regionCode":"OR","latitude":8.67245,"longitude":40.84885},{"id":144317,"wikiDataId":"Q1709377","type":"ADM2","city":"West Wellega Zone","name":"West Wellega Zone","country":"Ethiopia","countryCode":"ET","region":"Oromia Region","regionCode":"OR","latitude":9.17283,"longitude":35.05279},{"id":144283,"wikiDataId":"Q8029709","type":"ADM2","city":"Wolayita Zone","name":"Wolayita Zone","country":"Ethiopia","countryCode":"ET","region":"Southern Nations, Nationalities, and Peoples' Region","regionCode":"SN","latitude":6.84312,"longitude":37.70051},{"id":33132,"wikiDataId":"Q1067172","type":"CITY","city":"Yabēlo","name":"Yabēlo","country":"Ethiopia","countryCode":"ET","region":"Oromia Region","regionCode":"OR","latitude":4.88333,"longitude":38.08333},{"id":144321,"type":"ADM2","city":"Yem","name":"Yem","country":"Ethiopia","countryCode":"ET","region":"Southern Nations, Nationalities, and Peoples' Region","regionCode":"SN","latitude":7.83333,"longitude":37.5},{"id":33291,"wikiDataId":"Q2189137","type":"CITY","city":"Yirga ‘Alem","name":"Yirga ‘Alem","country":"Ethiopia","countryCode":"ET","region":"Southern Nations, Nationalities, and Peoples' Region","regionCode":"SN","latitude":6.75,"longitude":38.41667},{"id":33872,"wikiDataId":"Q2570767","type":"CITY","city":"Ziway","name":"Ziway","country":"Ethiopia","countryCode":"ET","region":"Oromia Region","regionCode":"OR","latitude":7.93333,"longitude":38.71667},{"id":34000,"wikiDataId":"Q357101","type":"CITY","city":"Ādīgrat","name":"Ādīgrat","country":"Ethiopia","countryCode":"ET","region":"Tigray Region","regionCode":"TI","latitude":14.277,"longitude":39.462},{"id":34125,"wikiDataId":"Q2472273","type":"CITY","city":"Ādīs Zemen","name":"Ādīs Zemen","country":"Ethiopia","countryCode":"ET","region":"Amhara Region","regionCode":"AM","latitude":12.11667,"longitude":37.78333},
{"id":34057,"wikiDataId":"Q353038","type":"CITY","city":"Ādīs ‘Alem","name":"Ādīs ‘Alem","country":"Ethiopia","countryCode":"ET","region":"Oromia Region","regionCode":"OR","latitude":9.03333,"longitude":38.4},{"id":34007,"wikiDataId":"Q1110037","type":"CITY","city":"Āgaro","name":"Āgaro","country":"Ethiopia","countryCode":"ET","region":"Oromia Region","regionCode":"OR","latitude":7.85,"longitude":36.65},{"id":34774,"wikiDataId":"Q4788771","type":"CITY","city":"Āreka","name":"Āreka","country":"Ethiopia","countryCode":"ET","region":"Southern Nations, Nationalities, and Peoples' Region","regionCode":"SN","latitude":7.06667,"longitude":37.7},{"id":34618,"wikiDataId":"Q2866322","type":"CITY","city":"Āsasa","name":"Āsasa","country":"Ethiopia","countryCode":"ET","region":"Oromia Region","regionCode":"OR","latitude":7.1,"longitude":39.2},{"id":34635,"wikiDataId":"Q764231","type":"CITY","city":"Āsbe Teferī","name":"Āsbe Teferī","country":"Ethiopia","countryCode":"ET","region":"Oromia Region","regionCode":"OR","latitude":9.08569,"longitude":40.86708},{"id":34199,"wikiDataId":"Q532102","type":"CITY","city":"Āsosa","name":"Āsosa","country":"Ethiopia","countryCode":"ET","region":"Benishangul-Gumuz Region","regionCode":"BE","latitude":10.06667,"longitude":34.53333},{"id":34901,"wikiDataId":"Q791636","type":"CITY","city":"Āwash","name":"Āwash","country":"Ethiopia","countryCode":"ET","region":"Afar Region","regionCode":"AF","latitude":8.98333,"longitude":40.16667},{"id":34325,"type":"CITY","city":"Akaa","name":"Akaa","country":"Finland","countryCode":"FI","region":"Lapland","regionCode":"10","latitude":61.16667,"longitude":23.86667},{"id":34458,"wikiDataId":"Q575090","type":"CITY","city":"Alahärmä","name":"Alahärmä","country":"Finland","countryCode":"FI","region":"Southern Ostrobothnia","regionCode":"03","latitude":63.23333,"longitude":22.85},{"id":34351,"wikiDataId":"Q5980","type":"CITY","city":"Alajärvi","name":"Alajärvi","country":"Finland","countryCode":"FI","region":"Southern Ostrobothnia","regionCode":"03","latitude":63.0,"longitude":23.81667},
{"id":34808,"wikiDataId":"Q206601","type":"CITY","city":"Alastaro","name":"Alastaro","country":"Finland","countryCode":"FI","region":"Finland Proper","regionCode":"19","latitude":60.95,"longitude":22.85},{"id":34040,"wikiDataId":"Q996252","type":"CITY","city":"Alavieska","name":"Alavieska","country":"Finland","countryCode":"FI","region":"Northern Ostrobothnia","regionCode":"14","latitude":64.16667,"longitude":24.3},{"id":34502,"wikiDataId":"Q5981","type":"CITY","city":"Alavus","name":"Alavus","country":"Finland","countryCode":"FI","region":"Southern Ostrobothnia","regionCode":"03","latitude":62.58333,"longitude":23.61667},{"id":34690,"wikiDataId":"Q4765722","type":"CITY","city":"Anjala","name":"Anjala","country":"Finland","countryCode":"FI","region":"Kymenlaakso","regionCode":"09","latitude":60.68333,"longitude":26.83333},{"id":34432,"wikiDataId":"Q713559","type":"CITY","city":"Artjärvi","name":"Artjärvi","country":"Finland","countryCode":"FI","region":"Päijänne Tavastia","regionCode":"16","latitude":60.74544,"longitude":26.07084},{"id":34311,"type":"CITY","city":"Asikkala","name":"Asikkala","country":"Finland","countryCode":"FI","region":"Päijänne Tavastia","regionCode":"16","latitude":61.21667,"longitude":25.5},{"id":34668,"wikiDataId":"Q730954","type":"CITY","city":"Askainen","name":"Askainen","country":"Finland","countryCode":"FI","region":"Finland Proper","regionCode":"19","latitude":60.56667,"longitude":21.86667},{"id":34239,"type":"CITY","city":"Askola","name":"Askola","country":"Finland","countryCode":"FI","region":"Uusimaa","regionCode":"18","latitude":60.53333,"longitude":25.6},{"id":34691,"type":"CITY","city":"Aura","name":"Aura","country":"Finland","countryCode":"FI","region":"Finland Proper","regionCode":"19","latitude":60.6471,"longitude":22.58755},{"id":34574,"type":"CITY","city":"Auttoinen","name":"Auttoinen","country":"Finland","countryCode":"FI","region":"Päijänne Tavastia","regionCode":"16","latitude":61.29901,"longitude":25.08887},
{"id":34599,"wikiDataId":"Q1009619","type":"CITY","city":"Dragsfjärd","name":"Dragsfjärd","country":"Finland","countryCode":"FI","region":"Finland Proper","regionCode":"19","latitude":60.06667,"longitude":22.48333},{"id":34323,"wikiDataId":"Q1004838","type":"CITY","city":"Ekenäs","name":"Ekenäs","country":"Finland","countryCode":"FI","region":"Uusimaa","regionCode":"18","latitude":59.97359,"longitude":23.43389},{"id":34251,"wikiDataId":"Q1000113","type":"CITY","city":"Elimäki","name":"Elimäki","country":"Finland","countryCode":"FI","region":"Kymenlaakso","regionCode":"09","latitude":60.71667,"longitude":26.46667},{"id":34545,"wikiDataId":"Q1010490","type":"CITY","city":"Eno","name":"Eno","country":"Finland","countryCode":"FI","region":"North Karelia","regionCode":"13","latitude":62.80511,"longitude":30.15422},{"id":34078,"type":"CITY","city":"Enonkoski","name":"Enonkoski","country":"Finland","countryCode":"FI","region":"Southern Savonia","regionCode":"04","latitude":62.08333,"longitude":28.93333},{"id":34349,"wikiDataId":"Q984861","type":"CITY","city":"Enontekiö","name":"Enontekiö","country":"Finland","countryCode":"FI","region":"Lapland","regionCode":"LL","latitude":68.38573,"longitude":23.63215},{"id":34730,"type":"CITY","city":"Espoo","name":"Espoo","country":"Finland","countryCode":"FI","region":"Uusimaa","regionCode":"18","latitude":60.2052,"longitude":24.6522},{"id":34417,"type":"CITY","city":"Eura","name":"Eura","country":"Finland","countryCode":"FI","region":"Satakunta","regionCode":"17","latitude":61.13333,"longitude":22.13333},{"id":34709,"wikiDataId":"Q1001783","type":"CITY","city":"Eurajoki","name":"Eurajoki","country":"Finland","countryCode":"FI","region":"Satakunta","regionCode":"17","latitude":61.2,"longitude":21.73333},{"id":34797,"type":"CITY","city":"Evijärvi","name":"Evijärvi","country":"Finland","countryCode":"FI","region":"Southern Ostrobothnia","regionCode":"03","latitude":63.36667,"longitude":23.48333},
{"id":34197,"wikiDataId":"Q829842","type":"CITY","city":"Forssa","name":"Forssa","country":"Finland","countryCode":"FI","region":"Tavastia Proper","regionCode":"06","latitude":60.81462,"longitude":23.62146},{"id":34485,"type":"CITY","city":"Gumböle","name":"Gumböle","country":"Finland","countryCode":"FI","region":"Uusimaa","regionCode":"18","latitude":60.21948,"longitude":24.61684},{"id":34345,"type":"CITY","city":"Haapajärvi","name":"Haapajärvi","country":"Finland","countryCode":"FI","region":"Northern Ostrobothnia","regionCode":"14","latitude":63.75,"longitude":25.33333},{"id":34813,"wikiDataId":"Q819387","type":"CITY","city":"Haapavesi","name":"Haapavesi","country":"Finland","countryCode":"FI","region":"Northern Ostrobothnia","regionCode":"14","latitude":64.13333,"longitude":25.36667},{"id":34207,"type":"CITY","city":"Hailuoto","name":"Hailuoto","country":"Finland","countryCode":"FI","region":"Northern Ostrobothnia","regionCode":"14","latitude":65.009,"longitude":24.71385},{"id":34449,"wikiDataId":"Q1571103","type":"CITY","city":"Halikko","name":"Halikko","country":"Finland","countryCode":"FI","region":"Finland Proper","regionCode":"19","latitude":60.4,"longitude":23.08333},{"id":34005,"type":"CITY","city":"Halsua","name":"Halsua","country":"Finland","countryCode":"FI","region":"Central Ostrobothnia","regionCode":"07","latitude":63.46667,"longitude":24.16667},{"id":34804,"wikiDataId":"Q367780","type":"CITY","city":"Hamina","name":"Hamina","country":"Finland","countryCode":"FI","region":"Kymenlaakso","regionCode":"09","latitude":60.56974,"longitude":27.19794},{"id":34532,"type":"CITY","city":"Hankasalmi","name":"Hankasalmi","country":"Finland","countryCode":"FI","region":"Central Finland","regionCode":"08","latitude":62.38333,"longitude":26.43333},{"id":34070,"wikiDataId":"Q216790","type":"CITY","city":"Hanko","name":"Hanko","country":"Finland","countryCode":"FI","region":"Uusimaa","regionCode":"18","latitude":59.83333,"longitude":22.95},
{"id":34091,"type":"CITY","city":"Harjavalta","name":"Harjavalta","country":"Finland","countryCode":"FI","region":"Satakunta","regionCode":"17","latitude":61.31667,"longitude":22.13333},{"id":34275,"wikiDataId":"Q1010494","type":"CITY","city":"Hartola","name":"Hartola","country":"Finland","countryCode":"FI","region":"Päijänne Tavastia","regionCode":"16","latitude":61.58333,"longitude":26.01667},{"id":33964,"wikiDataId":"Q1013639","type":"CITY","city":"Hauho","name":"Hauho","country":"Finland","countryCode":"FI","region":"Tavastia Proper","regionCode":"06","latitude":61.17255,"longitude":24.56303},{"id":34067,"wikiDataId":"Q985443","type":"CITY","city":"Haukipudas","name":"Haukipudas","country":"Finland","countryCode":"FI","region":"Northern Ostrobothnia","regionCode":"14","latitude":65.17654,"longitude":25.35233},{"id":34391,"wikiDataId":"Q1589322","type":"CITY","city":"Haukivuori","name":"Haukivuori","country":"Finland","countryCode":"FI","region":"Southern Savonia","regionCode":"04","latitude":62.01753,"longitude":27.21906},{"id":34718,"wikiDataId":"Q369720","type":"CITY","city":"Hausjärvi","name":"Hausjärvi","country":"Finland","countryCode":"FI","region":"Tavastia Proper","regionCode":"06","latitude":60.78333,"longitude":24.93333},{"id":34274,"type":"CITY","city":"Heinola","name":"Heinola","country":"Finland","countryCode":"FI","region":"Päijänne Tavastia","regionCode":"16","latitude":61.20564,"longitude":26.03811},{"id":34483,"wikiDataId":"Q1009124","type":"CITY","city":"Heinävesi","name":"Heinävesi","country":"Finland","countryCode":"FI","region":"Southern Savonia","regionCode":"04","latitude":62.43333,"longitude":28.6},{"id":34314,"wikiDataId":"Q1757","type":"CITY","city":"Helsinki","name":"Helsinki","country":"Finland","countryCode":"FI","region":"Uusimaa","regionCode":"18","latitude":60.16952,"longitude":24.93545},{"id":1178074,"type":"CITY","city":"Hietalahti","name":"Hietalahti","country":"Finland","countryCode":"FI","region":"Ostrobothnia","regionCode":"12","latitude":63.0848,"longitude":21.61716},
{"id":34582,"wikiDataId":"Q1025731","type":"CITY","city":"Himanka","name":"Himanka","country":"Finland","countryCode":"FI","region":"Northern Ostrobothnia","regionCode":"14","latitude":64.06218,"longitude":23.65447},{"id":34646,"type":"CITY","city":"Hirvensalmi","name":"Hirvensalmi","country":"Finland","countryCode":"FI","region":"Southern Savonia","regionCode":"04","latitude":61.63333,"longitude":26.8},{"id":34276,"wikiDataId":"Q990578","type":"CITY","city":"Hollola","name":"Hollola","country":"Finland","countryCode":"FI","region":"Päijänne Tavastia","regionCode":"16","latitude":61.05,"longitude":25.43333},{"id":34350,"wikiDataId":"Q1025722","type":"CITY","city":"Houtskär","name":"Houtskär","country":"Finland","countryCode":"FI","region":"Finland Proper","regionCode":"19","latitude":60.22284,"longitude":21.37218},{"id":34759,"type":"CITY","city":"Huittinen","name":"Huittinen","country":"Finland","countryCode":"FI","region":"Satakunta","regionCode":"17","latitude":61.18333,"longitude":22.7},{"id":34506,"type":"CITY","city":"Humppila","name":"Humppila","country":"Finland","countryCode":"FI","region":"Tavastia Proper","regionCode":"06","latitude":60.93333,"longitude":23.36667},{"id":34789,"wikiDataId":"Q984934","type":"CITY","city":"Hyrynsalmi","name":"Hyrynsalmi","country":"Finland","countryCode":"FI","region":"Kainuu","regionCode":"05","latitude":64.66667,"longitude":28.53333},{"id":34230,"type":"CITY","city":"Hyvinge","name":"Hyvinge","country":"Finland","countryCode":"FI","region":"Uusimaa","regionCode":"18","latitude":60.63333,"longitude":24.86667},{"id":34875,"wikiDataId":"Q1025738","type":"CITY","city":"Hämeenkoski","name":"Hämeenkoski","country":"Finland","countryCode":"FI","region":"Päijänne Tavastia","regionCode":"16","latitude":61.02222,"longitude":25.15417},{"id":34598,"wikiDataId":"Q996656","type":"CITY","city":"Hämeenkyrö","name":"Hämeenkyrö","country":"Finland","countryCode":"FI","region":"Lapland","regionCode":"10","latitude":61.63913,"longitude":23.19531},
{"id":34726,"wikiDataId":"Q202158","type":"CITY","city":"Hämeenlinna","name":"Hämeenlinna","country":"Finland","countryCode":"FI","region":"Tavastia Proper","regionCode":"06","latitude":60.99596,"longitude":24.46434},{"id":34244,"type":"CITY","city":"Ii","name":"Ii","country":"Finland","countryCode":"FI","region":"Northern Ostrobothnia","regionCode":"14","latitude":65.31735,"longitude":25.3731},{"id":34578,"wikiDataId":"Q748533","type":"CITY","city":"Iisalmi","name":"Iisalmi","country":"Finland","countryCode":"FI","region":"Pirkanmaa","regionCode":"11","latitude":63.55915,"longitude":27.19067},{"id":34896,"type":"CITY","city":"Iitti","name":"Iitti","country":"Finland","countryCode":"FI","region":"Kymenlaakso","regionCode":"09","latitude":60.89488,"longitude":26.33869},{"id":34556,"type":"CITY","city":"Ikaalinen","name":"Ikaalinen","country":"Finland","countryCode":"FI","region":"Lapland","regionCode":"10","latitude":61.76951,"longitude":23.0658},{"id":34738,"type":"CITY","city":"Ilmajoki","name":"Ilmajoki","country":"Finland","countryCode":"FI","region":"Southern Ostrobothnia","regionCode":"03","latitude":62.73333,"longitude":22.56667},{"id":34862,"wikiDataId":"Q283599","type":"CITY","city":"Ilomantsi","name":"Ilomantsi","country":"Finland","countryCode":"FI","region":"North Karelia","regionCode":"13","latitude":62.67162,"longitude":30.93276},{"id":34236,"type":"CITY","city":"Imatra","name":"Imatra","country":"Finland","countryCode":"FI","region":"South Karelia","regionCode":"02","latitude":61.17185,"longitude":28.75242},{"id":34886,"wikiDataId":"Q1025014","type":"CITY","city":"Inari","name":"Inari","country":"Finland","countryCode":"FI","region":"Lapland","regionCode":"LL","latitude":68.90596,"longitude":27.02881},{"id":33955,"wikiDataId":"Q986331","type":"CITY","city":"Ingå","name":"Ingå","country":"Finland","countryCode":"FI","region":"Uusimaa","regionCode":"18","latitude":60.04587,"longitude":24.00459},
{"id":33963,"wikiDataId":"Q1025692","type":"CITY","city":"Iniö","name":"Iniö","country":"Finland","countryCode":"FI","region":"Finland Proper","regionCode":"19","latitude":60.4,"longitude":21.4},{"id":34277,"type":"CITY","city":"Isojoki","name":"Isojoki","country":"Finland","countryCode":"FI","region":"Southern Ostrobothnia","regionCode":"03","latitude":62.11319,"longitude":21.95884},{"id":34196,"type":"CITY","city":"Isokyrö","name":"Isokyrö","country":"Finland","countryCode":"FI","region":"Ostrobothnia","regionCode":"12","latitude":63.01172,"longitude":22.33332},{"id":33936,"wikiDataId":"Q539767","type":"CITY","city":"Ivalo","name":"Ivalo","country":"Finland","countryCode":"FI","region":"Lapland","regionCode":"LL","latitude":68.65986,"longitude":27.53891},{"id":34273,"wikiDataId":"Q1011082","type":"CITY","city":"Jaala","name":"Jaala","country":"Finland","countryCode":"FI","region":"Kymenlaakso","regionCode":"09","latitude":61.05251,"longitude":26.48117},{"id":33941,"wikiDataId":"Q1679567","type":"CITY","city":"Jakobstad","name":"Jakobstad","country":"Finland","countryCode":"FI","region":"Ostrobothnia","regionCode":"12","latitude":63.67486,"longitude":22.70256},{"id":34733,"type":"CITY","city":"Jalasjärvi","name":"Jalasjärvi","country":"Finland","countryCode":"FI","region":"Southern Ostrobothnia","regionCode":"03","latitude":62.5,"longitude":22.75},{"id":34562,"type":"CITY","city":"Janakkala","name":"Janakkala","country":"Finland","countryCode":"FI","region":"Tavastia Proper","regionCode":"06","latitude":60.9,"longitude":24.6},{"id":34437,"wikiDataId":"Q186237","type":"CITY","city":"Joensuu","name":"Joensuu","country":"Finland","countryCode":"FI","region":"North Karelia","regionCode":"13","latitude":62.60118,"longitude":29.76316},{"id":34900,"wikiDataId":"Q997600","type":"CITY","city":"Jokioinen","name":"Jokioinen","country":"Finland","countryCode":"FI","region":"Tavastia Proper","regionCode":"06","latitude":60.80162,"longitude":23.48004},
{"id":34703,"type":"CITY","city":"Joroinen","name":"Joroinen","country":"Finland","countryCode":"FI","region":"Southern Savonia","regionCode":"04","latitude":62.17823,"longitude":27.83165},{"id":34741,"wikiDataId":"Q993058","type":"CITY","city":"Joutsa","name":"Joutsa","country":"Finland","countryCode":"FI","region":"Central Finland","regionCode":"08","latitude":61.73333,"longitude":26.11667},{"id":34864,"wikiDataId":"Q829851","type":"CITY","city":"Joutseno","name":"Joutseno","country":"Finland","countryCode":"FI","region":"South Karelia","regionCode":"02","latitude":61.11796,"longitude":28.50763},{"id":34243,"type":"CITY","city":"Juankoski","name":"Juankoski","country":"Finland","countryCode":"FI","region":"Pirkanmaa","regionCode":"11","latitude":63.06667,"longitude":28.35},{"id":34873,"wikiDataId":"Q1369780","type":"CITY","city":"Jurva","name":"Jurva","country":"Finland","countryCode":"FI","region":"Southern Ostrobothnia","regionCode":"03","latitude":62.68333,"longitude":21.98333},{"id":34836,"type":"CITY","city":"Juuka","name":"Juuka","country":"Finland","countryCode":"FI","region":"North Karelia","regionCode":"13","latitude":63.23333,"longitude":29.25},{"id":34725,"type":"CITY","city":"Juupajoki","name":"Juupajoki","country":"Finland","countryCode":"FI","region":"Lapland","regionCode":"10","latitude":61.79901,"longitude":24.36939},{"id":34867,"type":"CITY","city":"Juva","name":"Juva","country":"Finland","countryCode":"FI","region":"Southern Savonia","regionCode":"04","latitude":61.9,"longitude":27.85},{"id":34439,"wikiDataId":"Q134620","type":"CITY","city":"Jyväskylä","name":"Jyväskylä","country":"Finland","countryCode":"FI","region":"Central Finland","regionCode":"08","latitude":62.24147,"longitude":25.72088},{"id":34692,"type":"CITY","city":"Jämijärvi","name":"Jämijärvi","country":"Finland","countryCode":"FI","region":"Satakunta","regionCode":"17","latitude":61.81667,"longitude":22.7},
{"id":34112,"wikiDataId":"Q642696","type":"CITY","city":"Jämsä","name":"Jämsä","country":"Finland","countryCode":"FI","region":"Central Finland","regionCode":"08","latitude":61.8642,"longitude":25.19002},{"id":34614,"wikiDataId":"Q992990","type":"CITY","city":"Jämsänkoski","name":"Jämsänkoski","country":"Finland","countryCode":"FI","region":"Central Finland","regionCode":"08","latitude":61.919,"longitude":25.17011},{"id":34490,"wikiDataId":"Q2925272","type":"CITY","city":"Jäppilä","name":"Jäppilä","country":"Finland","countryCode":"FI","region":"Southern Savonia","regionCode":"04","latitude":62.37899,"longitude":27.43372},{"id":34787,"wikiDataId":"Q208293","type":"CITY","city":"Järvenpää","name":"Järvenpää","country":"Finland","countryCode":"FI","region":"Uusimaa","regionCode":"18","latitude":60.47369,"longitude":25.08992},{"id":34332,"wikiDataId":"Q3068775","type":"CITY","city":"Kaarela","name":"Kaarela","country":"Finland","countryCode":"FI","region":"Uusimaa","regionCode":"18","latitude":60.25174,"longitude":24.88111},{"id":34654,"type":"CITY","city":"Kaarina","name":"Kaarina","country":"Finland","countryCode":"FI","region":"Finland Proper","regionCode":"19","latitude":60.40724,"longitude":22.36904},{"id":34162,"type":"CITY","city":"Kaavi","name":"Kaavi","country":"Finland","countryCode":"FI","region":"Pirkanmaa","regionCode":"11","latitude":62.98333,"longitude":28.5},{"id":34107,"wikiDataId":"Q193180","type":"CITY","city":"Kajaani","name":"Kajaani","country":"Finland","countryCode":"FI","region":"Kainuu","regionCode":"05","latitude":64.22728,"longitude":27.72846},{"id":34354,"wikiDataId":"Q939758","type":"CITY","city":"Kalajoki","name":"Kalajoki","country":"Finland","countryCode":"FI","region":"Northern Ostrobothnia","regionCode":"14","latitude":64.25,"longitude":23.95},{"id":34815,"wikiDataId":"Q1011613","type":"CITY","city":"Kallio","name":"Kallio","country":"Finland","countryCode":"FI","region":"Uusimaa","regionCode":"18","latitude":60.18427,"longitude":24.95034},
{"id":34191,"wikiDataId":"Q930181","type":"CITY","city":"Kalvola","name":"Kalvola","country":"Finland","countryCode":"FI","region":"Tavastia Proper","regionCode":"06","latitude":61.10081,"longitude":24.12177},{"id":34310,"type":"CITY","city":"Kangasala","name":"Kangasala","country":"Finland","countryCode":"FI","region":"Lapland","regionCode":"10","latitude":61.46383,"longitude":24.07602},{"id":34516,"wikiDataId":"Q1580024","type":"CITY","city":"Kangaslampi","name":"Kangaslampi","country":"Finland","countryCode":"FI","region":"Pirkanmaa","regionCode":"11","latitude":62.29563,"longitude":28.25289},{"id":34416,"type":"CITY","city":"Kangasniemi","name":"Kangasniemi","country":"Finland","countryCode":"FI","region":"Southern Savonia","regionCode":"04","latitude":61.99357,"longitude":26.64785},{"id":34453,"wikiDataId":"Q990569","type":"CITY","city":"Kankaanpää","name":"Kankaanpää","country":"Finland","countryCode":"FI","region":"Satakunta","regionCode":"17","latitude":61.8,"longitude":22.41667},{"id":34870,"type":"CITY","city":"Kannonkoski","name":"Kannonkoski","country":"Finland","countryCode":"FI","region":"Central Finland","regionCode":"08","latitude":62.96667,"longitude":25.25},{"id":33979,"type":"CITY","city":"Kannus","name":"Kannus","country":"Finland","countryCode":"FI","region":"Central Ostrobothnia","regionCode":"07","latitude":63.9,"longitude":23.9},{"id":34261,"wikiDataId":"Q2392663","type":"CITY","city":"Karhula","name":"Karhula","country":"Finland","countryCode":"FI","region":"Kymenlaakso","regionCode":"09","latitude":60.52156,"longitude":26.93125},{"id":33953,"type":"CITY","city":"Karijoki","name":"Karijoki","country":"Finland","countryCode":"FI","region":"Southern Ostrobothnia","regionCode":"03","latitude":62.30851,"longitude":21.70856},{"id":34398,"wikiDataId":"Q910021","type":"CITY","city":"Karinainen","name":"Karinainen","country":"Finland","countryCode":"FI","region":"Finland Proper","regionCode":"19","latitude":60.66667,"longitude":22.76667},
{"id":34684,"wikiDataId":"Q990581","type":"CITY","city":"Karis","name":"Karis","country":"Finland","countryCode":"FI","region":"Uusimaa","regionCode":"18","latitude":60.07178,"longitude":23.66163},{"id":34636,"wikiDataId":"Q990572","type":"CITY","city":"Karjalohja","name":"Karjalohja","country":"Finland","countryCode":"FI","region":"Uusimaa","regionCode":"18","latitude":60.24015,"longitude":23.71789},{"id":34866,"type":"CITY","city":"Karkkila","name":"Karkkila","country":"Finland","countryCode":"FI","region":"Uusimaa","regionCode":"18","latitude":60.53418,"longitude":24.20977},{"id":34038,"wikiDataId":"Q288192","type":"CITY","city":"Karstula","name":"Karstula","country":"Finland","countryCode":"FI","region":"Central Finland","regionCode":"08","latitude":62.86667,"longitude":24.78333},{"id":34517,"wikiDataId":"Q1734675","type":"CITY","city":"Karttula","name":"Karttula","country":"Finland","countryCode":"FI","region":"Pirkanmaa","regionCode":"11","latitude":62.8963,"longitude":26.97045},{"id":34475,"wikiDataId":"Q1010034","type":"CITY","city":"Karvia","name":"Karvia","country":"Finland","countryCode":"FI","region":"Satakunta","regionCode":"17","latitude":62.13333,"longitude":22.56667},{"id":34632,"wikiDataId":"Q1735037","type":"CITY","city":"Kaskinen","name":"Kaskinen","country":"Finland","countryCode":"FI","region":"Ostrobothnia","regionCode":"12","latitude":62.38444,"longitude":21.22331},{"id":34715,"wikiDataId":"Q5992","type":"CITY","city":"Kauhajoki","name":"Kauhajoki","country":"Finland","countryCode":"FI","region":"Southern Ostrobothnia","regionCode":"03","latitude":62.43333,"longitude":22.18333},{"id":34186,"wikiDataId":"Q6009","type":"CITY","city":"Kauhava","name":"Kauhava","country":"Finland","countryCode":"FI","region":"Southern Ostrobothnia","regionCode":"03","latitude":63.10299,"longitude":23.07129},{"id":34823,"wikiDataId":"Q208287","type":"CITY","city":"Kauniainen","name":"Kauniainen","country":"Finland","countryCode":"FI","region":"Uusimaa","regionCode":"18","latitude":60.21209,"longitude":24.72756},
{"id":34069,"type":"CITY","city":"Kaustinen","name":"Kaustinen","country":"Finland","countryCode":"FI","region":"Central Ostrobothnia","regionCode":"07","latitude":63.54878,"longitude":23.68845},{"id":34843,"wikiDataId":"Q1534714","type":"CITY","city":"Keitele","name":"Keitele","country":"Finland","countryCode":"FI","region":"Pirkanmaa","regionCode":"11","latitude":63.18333,"longitude":26.36667},{"id":34160,"wikiDataId":"Q826263","type":"CITY","city":"Kellokoski","name":"Kellokoski","country":"Finland","countryCode":"FI","region":"Uusimaa","regionCode":"18","latitude":60.53271,"longitude":25.10917},{"id":34721,"type":"CITY","city":"Kemi","name":"Kemi","country":"Finland","countryCode":"FI","region":"Lapland","regionCode":"LL","latitude":65.73641,"longitude":24.56371},{"id":34477,"type":"CITY","city":"Kemijärvi","name":"Kemijärvi","country":"Finland","countryCode":"FI","region":"Lapland","regionCode":"LL","latitude":66.71309,"longitude":27.43056},{"id":33938,"type":"CITY","city":"Keminmaa","name":"Keminmaa","country":"Finland","countryCode":"FI","region":"Lapland","regionCode":"LL","latitude":65.80158,"longitude":24.54483},{"id":34708,"wikiDataId":"Q985451","type":"CITY","city":"Kempele","name":"Kempele","country":"Finland","countryCode":"FI","region":"Northern Ostrobothnia","regionCode":"14","latitude":64.91314,"longitude":25.50339},{"id":34481,"wikiDataId":"Q216900","type":"CITY","city":"Kerava","name":"Kerava","country":"Finland","countryCode":"FI","region":"Uusimaa","regionCode":"18","latitude":60.40338,"longitude":25.105},{"id":34775,"wikiDataId":"Q1025740","type":"CITY","city":"Kerimäki","name":"Kerimäki","country":"Finland","countryCode":"FI","region":"Southern Savonia","regionCode":"04","latitude":61.91069,"longitude":29.28228},{"id":34279,"wikiDataId":"Q992303","type":"CITY","city":"Kestilä","name":"Kestilä","country":"Finland","countryCode":"FI","region":"Northern Ostrobothnia","regionCode":"14","latitude":64.35002,"longitude":26.27921},
{"id":34828,"wikiDataId":"Q1002499","type":"CITY","city":"Kesälahti","name":"Kesälahti","country":"Finland","countryCode":"FI","region":"North Karelia","regionCode":"13","latitude":61.89752,"longitude":29.83494},{"id":34538,"type":"CITY","city":"Keuruu","name":"Keuruu","country":"Finland","countryCode":"FI","region":"Central Finland","regionCode":"08","latitude":62.26667,"longitude":24.7},{"id":34260,"type":"CITY","city":"Kihniö","name":"Kihniö","country":"Finland","countryCode":"FI","region":"Lapland","regionCode":"10","latitude":62.2,"longitude":23.18333},{"id":34793,"wikiDataId":"Q1724211","type":"CITY","city":"Kiihtelysvaara","name":"Kiihtelysvaara","country":"Finland","countryCode":"FI","region":"North Karelia","regionCode":"13","latitude":62.49525,"longitude":30.25081},{"id":34292,"wikiDataId":"Q1641643","type":"CITY","city":"Kiikala","name":"Kiikala","country":"Finland","countryCode":"FI","region":"Finland Proper","regionCode":"19","latitude":60.46667,"longitude":23.56667},{"id":33977,"wikiDataId":"Q999298","type":"CITY","city":"Kiikoinen","name":"Kiikoinen","country":"Finland","countryCode":"FI","region":"Lapland","regionCode":"10","latitude":61.45385,"longitude":22.57699},{"id":34524,"wikiDataId":"Q992275","type":"CITY","city":"Kiiminki","name":"Kiiminki","country":"Finland","countryCode":"FI","region":"Northern Ostrobothnia","regionCode":"14","latitude":65.13139,"longitude":25.79744},{"id":34002,"wikiDataId":"Q653536","type":"CITY","city":"Kilo","name":"Kilo","country":"Finland","countryCode":"FI","region":"Uusimaa","regionCode":"18","latitude":60.21746,"longitude":24.78151},{"id":34229,"wikiDataId":"Q425790","type":"CITY","city":"Kimito","name":"Kimito","country":"Finland","countryCode":"FI","region":"Finland Proper","regionCode":"19","latitude":60.16047,"longitude":22.729},{"id":34612,"wikiDataId":"Q999255","type":"CITY","city":"Kinnula","name":"Kinnula","country":"Finland","countryCode":"FI","region":"Central Finland","regionCode":"08","latitude":63.38333,"longitude":24.95},
{"id":34711,"type":"CITY","city":"Kirkkonummi","name":"Kirkkonummi","country":"Finland","countryCode":"FI","region":"Uusimaa","regionCode":"18","latitude":60.12381,"longitude":24.43853},{"id":34768,"wikiDataId":"Q668748","type":"CITY","city":"Kisko","name":"Kisko","country":"Finland","countryCode":"FI","region":"Finland Proper","regionCode":"19","latitude":60.23333,"longitude":23.48333},{"id":34071,"wikiDataId":"Q491603","type":"CITY","city":"Kitee","name":"Kitee","country":"Finland","countryCode":"FI","region":"North Karelia","regionCode":"13","latitude":62.1,"longitude":30.15},{"id":33940,"wikiDataId":"Q593942","type":"CITY","city":"Kittilä","name":"Kittilä","country":"Finland","countryCode":"FI","region":"Lapland","regionCode":"LL","latitude":67.66474,"longitude":24.89356},{"id":34378,"wikiDataId":"Q1743976","type":"CITY","city":"Kiukainen","name":"Kiukainen","country":"Finland","countryCode":"FI","region":"Satakunta","regionCode":"17","latitude":61.21667,"longitude":22.08333},{"id":34455,"wikiDataId":"Q124919","type":"CITY","city":"Kiuruvesi","name":"Kiuruvesi","country":"Finland","countryCode":"FI","region":"Pirkanmaa","regionCode":"11","latitude":63.65,"longitude":26.61667},{"id":34011,"wikiDataId":"Q594558","type":"CITY","city":"Kivijärvi","name":"Kivijärvi","country":"Finland","countryCode":"FI","region":"Central Finland","regionCode":"08","latitude":63.11984,"longitude":25.07835},{"id":34358,"type":"CITY","city":"Kokemäki","name":"Kokemäki","country":"Finland","countryCode":"FI","region":"Satakunta","regionCode":"17","latitude":61.25647,"longitude":22.35643},{"id":144415,"wikiDataId":"Q207891","type":"CITY","city":"Kokkola","name":"Kokkola","country":"Finland","countryCode":"FI","region":"Central Ostrobothnia","regionCode":"07","latitude":63.85414,"longitude":23.58562},{"id":34387,"wikiDataId":"Q543882","type":"CITY","city":"Kolari","name":"Kolari","country":"Finland","countryCode":"FI","region":"Lapland","regionCode":"LL","latitude":67.33047,"longitude":23.77785},
{"id":34457,"type":"CITY","city":"Konnevesi","name":"Konnevesi","country":"Finland","countryCode":"FI","region":"Central Finland","regionCode":"08","latitude":62.61667,"longitude":26.31667},{"id":34620,"wikiDataId":"Q737534","type":"CITY","city":"Kontiolahti","name":"Kontiolahti","country":"Finland","countryCode":"FI","region":"North Karelia","regionCode":"13","latitude":62.76023,"longitude":29.84711},{"id":34206,"wikiDataId":"Q999821","type":"CITY","city":"Korpilahti","name":"Korpilahti","country":"Finland","countryCode":"FI","region":"Central Finland","regionCode":"08","latitude":62.01667,"longitude":25.55},{"id":34830,"wikiDataId":"Q1784789","type":"CITY","city":"Korsholm","name":"Korsholm","country":"Finland","countryCode":"FI","region":"Ostrobothnia","regionCode":"12","latitude":63.11418,"longitude":21.68216},{"id":34505,"wikiDataId":"Q1498986","type":"CITY","city":"Korsnäs","name":"Korsnäs","country":"Finland","countryCode":"FI","region":"Ostrobothnia","regionCode":"12","latitude":62.78333,"longitude":21.2},{"id":34014,"wikiDataId":"Q1025741","type":"CITY","city":"Kortesjärvi","name":"Kortesjärvi","country":"Finland","countryCode":"FI","region":"Southern Ostrobothnia","regionCode":"03","latitude":63.3,"longitude":23.16667},{"id":34407,"wikiDataId":"Q192155","type":"CITY","city":"Kotka","name":"Kotka","country":"Finland","countryCode":"FI","region":"Kymenlaakso","regionCode":"09","latitude":60.4664,"longitude":26.94582},{"id":34218,"type":"CITY","city":"Koukkuniemi","name":"Koukkuniemi","country":"Finland","countryCode":"FI","region":"Uusimaa","regionCode":"18","latitude":60.15261,"longitude":24.76467},{"id":34729,"wikiDataId":"Q204382","type":"CITY","city":"Kouvola","name":"Kouvola","country":"Finland","countryCode":"FI","region":"Kymenlaakso","regionCode":"09","latitude":60.86667,"longitude":26.7},{"id":34650,"wikiDataId":"Q659642","type":"CITY","city":"Kristinestad","name":"Kristinestad","country":"Finland","countryCode":"FI","region":"Ostrobothnia","regionCode":"12","latitude":62.27429,"longitude":21.37596},
{"id":34687,"type":"CITY","city":"Kronoby","name":"Kronoby","country":"Finland","countryCode":"FI","region":"Ostrobothnia","regionCode":"12","latitude":63.72859,"longitude":23.03387},{"id":34039,"wikiDataId":"Q1025697","type":"CITY","city":"Kuhmalahti","name":"Kuhmalahti","country":"Finland","countryCode":"FI","region":"Lapland","regionCode":"10","latitude":61.5,"longitude":24.56667},{"id":34200,"wikiDataId":"Q939771","type":"CITY","city":"Kuhmo","name":"Kuhmo","country":"Finland","countryCode":"FI","region":"Kainuu","regionCode":"05","latitude":64.13333,"longitude":29.51667},{"id":34840,"wikiDataId":"Q585888","type":"CITY","city":"Kuhmoinen","name":"Kuhmoinen","country":"Finland","countryCode":"FI","region":"Central Finland","regionCode":"08","latitude":61.56667,"longitude":25.18333},{"id":34305,"wikiDataId":"Q201835","type":"CITY","city":"Kuivaniemi","name":"Kuivaniemi","country":"Finland","countryCode":"FI","region":"Northern Ostrobothnia","regionCode":"14","latitude":65.57847,"longitude":25.18814},{"id":34523,"wikiDataId":"Q4131730","type":"CITY","city":"Kullaa","name":"Kullaa","country":"Finland","countryCode":"FI","region":"Satakunta","regionCode":"17","latitude":61.46998,"longitude":22.16145},{"id":33951,"wikiDataId":"Q162279","type":"CITY","city":"Kuopio","name":"Kuopio","country":"Finland","countryCode":"FI","region":"Pirkanmaa","regionCode":"11","latitude":62.89238,"longitude":27.67703},{"id":34493,"wikiDataId":"Q6012","type":"CITY","city":"Kuortane","name":"Kuortane","country":"Finland","countryCode":"FI","region":"Southern Ostrobothnia","regionCode":"03","latitude":62.8,"longitude":23.5},{"id":34555,"type":"CITY","city":"Kurikka","name":"Kurikka","country":"Finland","countryCode":"FI","region":"Southern Ostrobothnia","regionCode":"03","latitude":62.61667,"longitude":22.41667},{"id":34662,"wikiDataId":"Q1025732","type":"CITY","city":"Kuru","name":"Kuru","country":"Finland","countryCode":"FI","region":"Lapland","regionCode":"10","latitude":61.87558,"longitude":23.71948},
{"id":34838,"type":"CITY","city":"Kustavi","name":"Kustavi","country":"Finland","countryCode":"FI","region":"Finland Proper","regionCode":"19","latitude":60.54529,"longitude":21.3588},{"id":34193,"wikiDataId":"Q207999","type":"CITY","city":"Kuusamo","name":"Kuusamo","country":"Finland","countryCode":"FI","region":"Northern Ostrobothnia","regionCode":"14","latitude":65.96667,"longitude":29.18333},{"id":34530,"wikiDataId":"Q531620","type":"CITY","city":"Kuusjoki","name":"Kuusjoki","country":"Finland","countryCode":"FI","region":"Finland Proper","regionCode":"19","latitude":60.51667,"longitude":23.2},{"id":34284,"wikiDataId":"Q1641581","type":"CITY","city":"Kylmäkoski","name":"Kylmäkoski","country":"Finland","countryCode":"FI","region":"Lapland","regionCode":"10","latitude":61.154,"longitude":23.68858},{"id":33945,"wikiDataId":"Q1000109","type":"CITY","city":"Kyyjärvi","name":"Kyyjärvi","country":"Finland","countryCode":"FI","region":"Central Finland","regionCode":"08","latitude":63.03333,"longitude":24.56667},{"id":34281,"wikiDataId":"Q646502","type":"CITY","city":"Kälviä","name":"Kälviä","country":"Finland","countryCode":"FI","region":"Central Ostrobothnia","regionCode":"07","latitude":63.86067,"longitude":23.45289},{"id":34246,"type":"CITY","city":"Kärkölä","name":"Kärkölä","country":"Finland","countryCode":"FI","region":"Uusimaa","regionCode":"18","latitude":60.61292,"longitude":23.94196},{"id":34166,"wikiDataId":"Q992393","type":"CITY","city":"Kärsämäki","name":"Kärsämäki","country":"Finland","countryCode":"FI","region":"Northern Ostrobothnia","regionCode":"14","latitude":63.96667,"longitude":25.76667},{"id":34190,"type":"CITY","city":"Köyliö","name":"Köyliö","country":"Finland","countryCode":"FI","region":"Satakunta","regionCode":"17","latitude":61.1191,"longitude":22.30976},{"id":34122,"wikiDataId":"Q28911","type":"CITY","city":"Lahti","name":"Lahti","country":"Finland","countryCode":"FI","region":"Päijänne Tavastia","regionCode":"16","latitude":60.98267,"longitude":25.66151},
{"id":34452,"wikiDataId":"Q1580271","type":"CITY","city":"Laihia","name":"Laihia","country":"Finland","countryCode":"FI","region":"Ostrobothnia","regionCode":"12","latitude":62.97609,"longitude":22.01143},{"id":34035,"type":"CITY","city":"Laitila","name":"Laitila","country":"Finland","countryCode":"FI","region":"Finland Proper","regionCode":"19","latitude":60.87575,"longitude":21.69765},{"id":34851,"wikiDataId":"Q1025715","type":"CITY","city":"Lammi","name":"Lammi","country":"Finland","countryCode":"FI","region":"Tavastia Proper","regionCode":"06","latitude":61.08333,"longitude":25.01667},{"id":34638,"type":"CITY","city":"Lapinjärvi","name":"Lapinjärvi","country":"Finland","countryCode":"FI","region":"Uusimaa","regionCode":"18","latitude":60.62443,"longitude":26.1972},{"id":34629,"wikiDataId":"Q519763","type":"CITY","city":"Lapinlahti","name":"Lapinlahti","country":"Finland","countryCode":"FI","region":"Pirkanmaa","regionCode":"11","latitude":63.36667,"longitude":27.4},{"id":34168,"type":"CITY","city":"Lappajärvi","name":"Lappajärvi","country":"Finland","countryCode":"FI","region":"Southern Ostrobothnia","regionCode":"03","latitude":63.2,"longitude":23.63333},{"id":34878,"wikiDataId":"Q181854","type":"CITY","city":"Lappeenranta","name":"Lappeenranta","country":"Finland","countryCode":"FI","region":"South Karelia","regionCode":"02","latitude":61.05871,"longitude":28.18871},{"id":34045,"wikiDataId":"Q1544769","type":"CITY","city":"Lappi","name":"Lappi","country":"Finland","countryCode":"FI","region":"Satakunta","regionCode":"17","latitude":61.1,"longitude":21.83333},{"id":34126,"wikiDataId":"Q6023","type":"CITY","city":"Lapua","name":"Lapua","country":"Finland","countryCode":"FI","region":"Southern Ostrobothnia","regionCode":"03","latitude":62.96927,"longitude":23.0088},{"id":33948,"wikiDataId":"Q259863","type":"CITY","city":"Larsmo","name":"Larsmo","country":"Finland","countryCode":"FI","region":"Ostrobothnia","regionCode":"12","latitude":63.75388,"longitude":22.74728},
{"id":34368,"wikiDataId":"Q990553","type":"CITY","city":"Laukaa","name":"Laukaa","country":"Finland","countryCode":"FI","region":"Central Finland","regionCode":"08","latitude":62.41407,"longitude":25.95194},{"id":34550,"type":"CITY","city":"Lauttasaari","name":"Lauttasaari","country":"Finland","countryCode":"FI","region":"Uusimaa","regionCode":"18","latitude":60.15896,"longitude":24.86797},{"id":34023,"type":"CITY","city":"Lavia","name":"Lavia","country":"Finland","countryCode":"FI","region":"Satakunta","regionCode":"17","latitude":61.6,"longitude":22.6},{"id":34667,"wikiDataId":"Q1641563","type":"CITY","city":"Lehtimäki","name":"Lehtimäki","country":"Finland","countryCode":"FI","region":"Southern Ostrobothnia","regionCode":"03","latitude":62.78333,"longitude":23.91667},{"id":34903,"wikiDataId":"Q1025712","type":"CITY","city":"Leivonmäki","name":"Leivonmäki","country":"Finland","countryCode":"FI","region":"Central Finland","regionCode":"08","latitude":61.91198,"longitude":26.12796},{"id":34269,"wikiDataId":"Q180327","type":"CITY","city":"Lemi","name":"Lemi","country":"Finland","countryCode":"FI","region":"South Karelia","regionCode":"02","latitude":61.06244,"longitude":27.80571},{"id":34752,"wikiDataId":"Q838821","type":"CITY","city":"Lempäälä","name":"Lempäälä","country":"Finland","countryCode":"FI","region":"Lapland","regionCode":"10","latitude":61.31667,"longitude":23.75},{"id":34626,"wikiDataId":"Q1641588","type":"CITY","city":"Lemu","name":"Lemu","country":"Finland","countryCode":"FI","region":"Finland Proper","regionCode":"19","latitude":60.56667,"longitude":21.96667},{"id":33967,"wikiDataId":"Q614088","type":"CITY","city":"Leppävirta","name":"Leppävirta","country":"Finland","countryCode":"FI","region":"Pirkanmaa","regionCode":"11","latitude":62.49009,"longitude":27.78262},{"id":34801,"wikiDataId":"Q1009103","type":"CITY","city":"Lestijärvi","name":"Lestijärvi","country":"Finland","countryCode":"FI","region":"Central Ostrobothnia","regionCode":"07","latitude":63.53333,"longitude":24.65},
{"id":34381,"wikiDataId":"Q608752","type":"CITY","city":"Lieksa","name":"Lieksa","country":"Finland","countryCode":"FI","region":"North Karelia","regionCode":"13","latitude":63.31667,"longitude":30.01667},{"id":34283,"type":"CITY","city":"Lieto","name":"Lieto","country":"Finland","countryCode":"FI","region":"Finland Proper","regionCode":"19","latitude":60.51032,"longitude":22.46176},{"id":34163,"wikiDataId":"Q1005071","type":"CITY","city":"Liljendal","name":"Liljendal","country":"Finland","countryCode":"FI","region":"Uusimaa","regionCode":"18","latitude":60.57346,"longitude":26.05257},{"id":34489,"type":"CITY","city":"Liminka","name":"Liminka","country":"Finland","countryCode":"FI","region":"Northern Ostrobothnia","regionCode":"14","latitude":64.80985,"longitude":25.41545},{"id":34637,"wikiDataId":"Q608803","type":"CITY","city":"Liperi","name":"Liperi","country":"Finland","countryCode":"FI","region":"North Karelia","regionCode":"13","latitude":62.53333,"longitude":29.36667},{"id":34183,"type":"CITY","city":"Lohja","name":"Lohja","country":"Finland","countryCode":"FI","region":"Uusimaa","regionCode":"18","latitude":60.24859,"longitude":24.06534},{"id":34377,"wikiDataId":"Q1641609","type":"CITY","city":"Lohtaja","name":"Lohtaja","country":"Finland","countryCode":"FI","region":"Central Ostrobothnia","regionCode":"07","latitude":64.02472,"longitude":23.50482},{"id":33946,"wikiDataId":"Q636607","type":"CITY","city":"Loppi","name":"Loppi","country":"Finland","countryCode":"FI","region":"Tavastia Proper","regionCode":"06","latitude":60.71667,"longitude":24.45},{"id":34893,"wikiDataId":"Q748513","type":"CITY","city":"Lovisa","name":"Lovisa","country":"Finland","countryCode":"FI","region":"Uusimaa","regionCode":"18","latitude":60.45659,"longitude":26.22505},{"id":34522,"type":"CITY","city":"Luhanka","name":"Luhanka","country":"Finland","countryCode":"FI","region":"Central Finland","regionCode":"08","latitude":61.79682,"longitude":25.70457},
{"id":34761,"type":"CITY","city":"Lumijoki","name":"Lumijoki","country":"Finland","countryCode":"FI","region":"Northern Ostrobothnia","regionCode":"14","latitude":64.83744,"longitude":25.18607},{"id":34882,"wikiDataId":"Q2428286","type":"CITY","city":"Luopioinen","name":"Luopioinen","country":"Finland","countryCode":"FI","region":"Lapland","regionCode":"10","latitude":61.36293,"longitude":24.66781},{"id":34359,"type":"CITY","city":"Luumäki","name":"Luumäki","country":"Finland","countryCode":"FI","region":"South Karelia","regionCode":"02","latitude":60.92618,"longitude":27.58135},{"id":34026,"wikiDataId":"Q959006","type":"CITY","city":"Luvia","name":"Luvia","country":"Finland","countryCode":"FI","region":"Satakunta","regionCode":"17","latitude":61.36375,"longitude":21.62556},{"id":34631,"type":"CITY","city":"Längelmäki","name":"Längelmäki","country":"Finland","countryCode":"FI","region":"Satakunta","regionCode":"17","latitude":61.65,"longitude":22.1},{"id":34198,"wikiDataId":"Q748064","type":"CITY","city":"Maaninka","name":"Maaninka","country":"Finland","countryCode":"FI","region":"Pirkanmaa","regionCode":"11","latitude":63.15523,"longitude":27.29939},{"id":34132,"type":"CITY","city":"Malax","name":"Malax","country":"Finland","countryCode":"FI","region":"Ostrobothnia","regionCode":"12","latitude":62.94225,"longitude":21.57311},{"id":34468,"type":"CITY","city":"Marttila","name":"Marttila","country":"Finland","countryCode":"FI","region":"Finland Proper","regionCode":"19","latitude":60.58333,"longitude":22.9},{"id":33989,"wikiDataId":"Q1017127","type":"CITY","city":"Masku","name":"Masku","country":"Finland","countryCode":"FI","region":"Finland Proper","regionCode":"19","latitude":60.57082,"longitude":22.09883},{"id":34370,"wikiDataId":"Q1641630","type":"CITY","city":"Mellilä","name":"Mellilä","country":"Finland","countryCode":"FI","region":"Finland Proper","regionCode":"19","latitude":60.76667,"longitude":22.95},
{"id":34497,"wikiDataId":"Q3133428","type":"CITY","city":"Mellunkylä","name":"Mellunkylä","country":"Finland","countryCode":"FI","region":"Uusimaa","regionCode":"18","latitude":60.23355,"longitude":25.09947},{"id":34791,"type":"CITY","city":"Merijärvi","name":"Merijärvi","country":"Finland","countryCode":"FI","region":"Northern Ostrobothnia","regionCode":"14","latitude":64.3,"longitude":24.45},{"id":34373,"wikiDataId":"Q1009215","type":"CITY","city":"Merikarvia","name":"Merikarvia","country":"Finland","countryCode":"FI","region":"Satakunta","regionCode":"17","latitude":61.85839,"longitude":21.50035},{"id":34110,"wikiDataId":"Q1025703","type":"CITY","city":"Merimasku","name":"Merimasku","country":"Finland","countryCode":"FI","region":"Finland Proper","regionCode":"19","latitude":60.48333,"longitude":21.86667},{"id":34403,"wikiDataId":"Q999203","type":"CITY","city":"Miehikkälä","name":"Miehikkälä","country":"Finland","countryCode":"FI","region":"Kymenlaakso","regionCode":"09","latitude":60.66667,"longitude":27.7},{"id":34296,"wikiDataId":"Q1852283","type":"CITY","city":"Mietoinen","name":"Mietoinen","country":"Finland","countryCode":"FI","region":"Finland Proper","regionCode":"19","latitude":60.63333,"longitude":21.93333},{"id":34103,"wikiDataId":"Q190583","type":"CITY","city":"Mikkeli","name":"Mikkeli","country":"Finland","countryCode":"FI","region":"Southern Savonia","regionCode":"04","latitude":61.68857,"longitude":27.27227},{"id":34081,"wikiDataId":"Q661269","type":"CITY","city":"Mouhijärvi","name":"Mouhijärvi","country":"Finland","countryCode":"FI","region":"Lapland","regionCode":"10","latitude":61.5,"longitude":23.01667},{"id":34802,"type":"CITY","city":"Muhos","name":"Muhos","country":"Finland","countryCode":"FI","region":"Northern Ostrobothnia","regionCode":"14","latitude":64.80798,"longitude":25.99314},{"id":34570,"wikiDataId":"Q999230","type":"CITY","city":"Multia","name":"Multia","country":"Finland","countryCode":"FI","region":"Central Finland","regionCode":"08","latitude":62.41667,"longitude":24.78333},
{"id":34853,"wikiDataId":"Q3177384","type":"CITY","city":"Munkkiniemi","name":"Munkkiniemi","country":"Finland","countryCode":"FI","region":"Uusimaa","regionCode":"18","latitude":60.19861,"longitude":24.87772},{"id":34547,"wikiDataId":"Q302717","type":"CITY","city":"Muonio","name":"Muonio","country":"Finland","countryCode":"FI","region":"Lapland","regionCode":"LL","latitude":67.95,"longitude":23.7},{"id":34422,"wikiDataId":"Q613434","type":"CITY","city":"Muurame","name":"Muurame","country":"Finland","countryCode":"FI","region":"Central Finland","regionCode":"08","latitude":62.13333,"longitude":25.66667},{"id":34698,"wikiDataId":"Q1641664","type":"CITY","city":"Muurla","name":"Muurla","country":"Finland","countryCode":"FI","region":"Finland Proper","regionCode":"19","latitude":60.35,"longitude":23.28333},{"id":34093,"type":"CITY","city":"Mynämäki","name":"Mynämäki","country":"Finland","countryCode":"FI","region":"Finland Proper","regionCode":"19","latitude":60.67915,"longitude":21.99274},{"id":33997,"type":"CITY","city":"Myrskylä","name":"Myrskylä","country":"Finland","countryCode":"FI","region":"Uusimaa","regionCode":"18","latitude":60.66965,"longitude":25.8475},{"id":34504,"wikiDataId":"Q986318","type":"CITY","city":"Mäntsälä","name":"Mäntsälä","country":"Finland","countryCode":"FI","region":"Uusimaa","regionCode":"18","latitude":60.63333,"longitude":25.31667},{"id":34842,"wikiDataId":"Q1001762","type":"CITY","city":"Mänttä","name":"Mänttä","country":"Finland","countryCode":"FI","region":"Lapland","regionCode":"10","latitude":62.03014,"longitude":24.62791},{"id":34478,"wikiDataId":"Q1641649","type":"CITY","city":"Mäntyharju","name":"Mäntyharju","country":"Finland","countryCode":"FI","region":"Southern Savonia","regionCode":"04","latitude":61.41667,"longitude":26.88333},{"id":33950,"type":"CITY","city":"Naantali","name":"Naantali","country":"Finland","countryCode":"FI","region":"Finland Proper","regionCode":"19","latitude":60.46744,"longitude":22.02428},
{"id":34747,"wikiDataId":"Q203512","type":"CITY","city":"Nagu","name":"Nagu","country":"Finland","countryCode":"FI","region":"Finland Proper","regionCode":"19","latitude":60.19375,"longitude":21.90972},{"id":34728,"wikiDataId":"Q1009109","type":"CITY","city":"Nakkila","name":"Nakkila","country":"Finland","countryCode":"FI","region":"Satakunta","regionCode":"17","latitude":61.36667,"longitude":22.0},{"id":33986,"wikiDataId":"Q369576","type":"CITY","city":"Nastola","name":"Nastola","country":"Finland","countryCode":"FI","region":"Päijänne Tavastia","regionCode":"16","latitude":60.95,"longitude":25.93333},{"id":34018,"wikiDataId":"Q984856","type":"CITY","city":"Nilsiä","name":"Nilsiä","country":"Finland","countryCode":"FI","region":"Pirkanmaa","regionCode":"11","latitude":63.20746,"longitude":28.08222},{"id":34861,"wikiDataId":"Q985458","type":"CITY","city":"Nivala","name":"Nivala","country":"Finland","countryCode":"FI","region":"Northern Ostrobothnia","regionCode":"14","latitude":63.91667,"longitude":24.96667},{"id":34526,"wikiDataId":"Q192870","type":"CITY","city":"Nokia","name":"Nokia","country":"Finland","countryCode":"FI","region":"Lapland","regionCode":"10","latitude":61.46667,"longitude":23.5},{"id":34554,"wikiDataId":"Q1641623","type":"CITY","city":"Noormarkku","name":"Noormarkku","country":"Finland","countryCode":"FI","region":"Satakunta","regionCode":"17","latitude":61.59274,"longitude":21.86846},{"id":34256,"type":"CITY","city":"Nousiainen","name":"Nousiainen","country":"Finland","countryCode":"FI","region":"Finland Proper","regionCode":"19","latitude":60.60416,"longitude":22.07926},{"id":34699,"type":"CITY","city":"Nuijamaa","name":"Nuijamaa","country":"Finland","countryCode":"FI","region":"South Karelia","regionCode":"02","latitude":60.96011,"longitude":28.55104},{"id":34657,"type":"CITY","city":"Nurmes","name":"Nurmes","country":"Finland","countryCode":"FI","region":"North Karelia","regionCode":"13","latitude":63.54205,"longitude":29.13965},
{"id":34553,"type":"CITY","city":"Nurmijärvi","name":"Nurmijärvi","country":"Finland","countryCode":"FI","region":"Uusimaa","regionCode":"18","latitude":60.46407,"longitude":24.8073},{"id":34826,"wikiDataId":"Q205804","type":"CITY","city":"Nurmo","name":"Nurmo","country":"Finland","countryCode":"FI","region":"Southern Ostrobothnia","regionCode":"03","latitude":62.8287,"longitude":22.9099},{"id":34343,"wikiDataId":"Q664599","type":"CITY","city":"Nykarleby","name":"Nykarleby","country":"Finland","countryCode":"FI","region":"Ostrobothnia","regionCode":"12","latitude":63.52277,"longitude":22.53073},{"id":34143,"wikiDataId":"Q2028417","type":"CITY","city":"Oravais","name":"Oravais","country":"Finland","countryCode":"FI","region":"Ostrobothnia","regionCode":"12","latitude":63.30135,"longitude":22.37821},{"id":34537,"type":"CITY","city":"Orimattila","name":"Orimattila","country":"Finland","countryCode":"FI","region":"Päijänne Tavastia","regionCode":"16","latitude":60.80487,"longitude":25.72964},{"id":34303,"type":"CITY","city":"Oripää","name":"Oripää","country":"Finland","countryCode":"FI","region":"Finland Proper","regionCode":"19","latitude":60.85,"longitude":22.68333},{"id":34068,"wikiDataId":"Q953081","type":"CITY","city":"Orivesi","name":"Orivesi","country":"Finland","countryCode":"FI","region":"Lapland","regionCode":"10","latitude":61.67766,"longitude":24.3572},{"id":34624,"wikiDataId":"Q2743766","type":"CITY","city":"Otaniemi","name":"Otaniemi","country":"Finland","countryCode":"FI","region":"Uusimaa","regionCode":"18","latitude":60.18395,"longitude":24.82786},{"id":34750,"wikiDataId":"Q985459","type":"CITY","city":"Oulainen","name":"Oulainen","country":"Finland","countryCode":"FI","region":"Northern Ostrobothnia","regionCode":"14","latitude":64.26667,"longitude":24.8},{"id":34408,"wikiDataId":"Q47048","type":"CITY","city":"Oulu","name":"Oulu","country":"Finland","countryCode":"FI","region":"Northern Ostrobothnia","regionCode":"14","latitude":65.01236,"longitude":25.46816},
{"id":34615,"wikiDataId":"Q992356","type":"CITY","city":"Oulunsalo","name":"Oulunsalo","country":"Finland","countryCode":"FI","region":"Northern Ostrobothnia","regionCode":"14","latitude":64.93456,"longitude":25.41121},{"id":34180,"type":"CITY","city":"Outokumpu","name":"Outokumpu","country":"Finland","countryCode":"FI","region":"North Karelia","regionCode":"13","latitude":62.72685,"longitude":29.01592},{"id":34863,"type":"CITY","city":"Padasjoki","name":"Padasjoki","country":"Finland","countryCode":"FI","region":"Päijänne Tavastia","regionCode":"16","latitude":61.35,"longitude":25.28333},{"id":34702,"type":"CITY","city":"Paimio","name":"Paimio","country":"Finland","countryCode":"FI","region":"Finland Proper","regionCode":"19","latitude":60.45671,"longitude":22.68694},{"id":34104,"wikiDataId":"Q985337","type":"CITY","city":"Paltamo","name":"Paltamo","country":"Finland","countryCode":"FI","region":"Kainuu","regionCode":"05","latitude":64.41667,"longitude":27.83333},{"id":34394,"wikiDataId":"Q13405837","type":"CITY","city":"Pargas","name":"Pargas","country":"Finland","countryCode":"FI","region":"Finland Proper","regionCode":"19","latitude":60.30672,"longitude":22.30097},{"id":34043,"wikiDataId":"Q240086","type":"CITY","city":"Parikkala","name":"Parikkala","country":"Finland","countryCode":"FI","region":"South Karelia","regionCode":"02","latitude":61.55,"longitude":29.5},{"id":34790,"type":"CITY","city":"Parkano","name":"Parkano","country":"Finland","countryCode":"FI","region":"Lapland","regionCode":"10","latitude":62.01667,"longitude":23.01667},{"id":34376,"wikiDataId":"Q385194","type":"CITY","city":"Pedersöre","name":"Pedersöre","country":"Finland","countryCode":"FI","region":"Ostrobothnia","regionCode":"12","latitude":63.65,"longitude":22.68333},{"id":34299,"type":"CITY","city":"Pelkosenniemi","name":"Pelkosenniemi","country":"Finland","countryCode":"FI","region":"Lapland","regionCode":"LL","latitude":67.11083,"longitude":27.51056},
{"id":34460,"wikiDataId":"Q31331","type":"CITY","city":"Pello","name":"Pello","country":"Finland","countryCode":"FI","region":"Lapland","regionCode":"LL","latitude":66.77364,"longitude":23.96255},{"id":34237,"type":"CITY","city":"Perho","name":"Perho","country":"Finland","countryCode":"FI","region":"Central Ostrobothnia","regionCode":"07","latitude":63.21667,"longitude":24.41667},{"id":34116,"wikiDataId":"Q1641596","type":"CITY","city":"Perniö","name":"Perniö","country":"Finland","countryCode":"FI","region":"Finland Proper","regionCode":"19","latitude":60.2,"longitude":23.13333},{"id":34767,"wikiDataId":"Q1005082","type":"CITY","city":"Pernå","name":"Pernå","country":"Finland","countryCode":"FI","region":"Uusimaa","regionCode":"18","latitude":60.44869,"longitude":26.03187},{"id":34486,"wikiDataId":"Q121715","type":"CITY","city":"Pertteli","name":"Pertteli","country":"Finland","countryCode":"FI","region":"Finland Proper","regionCode":"19","latitude":60.43333,"longitude":23.26667},{"id":34410,"type":"CITY","city":"Pertunmaa","name":"Pertunmaa","country":"Finland","countryCode":"FI","region":"Southern Savonia","regionCode":"04","latitude":61.5,"longitude":26.48333},{"id":34426,"type":"CITY","city":"Petäjävesi","name":"Petäjävesi","country":"Finland","countryCode":"FI","region":"Central Finland","regionCode":"08","latitude":62.25,"longitude":25.2},{"id":33983,"type":"CITY","city":"Pieksämäki","name":"Pieksämäki","country":"Finland","countryCode":"FI","region":"Southern Savonia","regionCode":"04","latitude":62.3,"longitude":27.13333},{"id":34004,"wikiDataId":"Q930852","type":"CITY","city":"Pielavesi","name":"Pielavesi","country":"Finland","countryCode":"FI","region":"Pirkanmaa","regionCode":"11","latitude":63.23333,"longitude":26.75},{"id":34434,"wikiDataId":"Q979846","type":"CITY","city":"Pihtipudas","name":"Pihtipudas","country":"Finland","countryCode":"FI","region":"Central Finland","regionCode":"08","latitude":63.38333,"longitude":25.56667},
{"id":34584,"wikiDataId":"Q783205","type":"CITY","city":"Piikkiö","name":"Piikkiö","country":"Finland","countryCode":"FI","region":"Finland Proper","regionCode":"19","latitude":60.42481,"longitude":22.51601},{"id":34622,"wikiDataId":"Q1014303","type":"CITY","city":"Piippola","name":"Piippola","country":"Finland","countryCode":"FI","region":"Northern Ostrobothnia","regionCode":"14","latitude":64.16667,"longitude":25.96667},{"id":34216,"type":"CITY","city":"Pirkkala","name":"Pirkkala","country":"Finland","countryCode":"FI","region":"Lapland","regionCode":"10","latitude":61.46125,"longitude":23.63228},{"id":34543,"wikiDataId":"Q1010030","type":"CITY","city":"Pohja","name":"Pohja","country":"Finland","countryCode":"FI","region":"Uusimaa","regionCode":"18","latitude":60.09626,"longitude":23.52757},{"id":34015,"type":"CITY","city":"Polvijärvi","name":"Polvijärvi","country":"Finland","countryCode":"FI","region":"North Karelia","regionCode":"13","latitude":62.85,"longitude":29.36667},{"id":34832,"type":"CITY","city":"Pomarkku","name":"Pomarkku","country":"Finland","countryCode":"FI","region":"Satakunta","regionCode":"17","latitude":61.69348,"longitude":22.00862},{"id":34397,"wikiDataId":"Q180233","type":"CITY","city":"Pori","name":"Pori","country":"Finland","countryCode":"FI","region":"Satakunta","regionCode":"17","latitude":61.48333,"longitude":21.78333},{"id":34221,"type":"CITY","city":"Pornainen","name":"Pornainen","country":"Finland","countryCode":"FI","region":"Uusimaa","regionCode":"18","latitude":60.47581,"longitude":25.3749},{"id":34145,"wikiDataId":"Q193367","type":"CITY","city":"Porvoo","name":"Porvoo","country":"Finland","countryCode":"FI","region":"Uusimaa","regionCode":"18","latitude":60.39233,"longitude":25.66507},{"id":34568,"type":"CITY","city":"Posio","name":"Posio","country":"Finland","countryCode":"FI","region":"Lapland","regionCode":"LL","latitude":66.10856,"longitude":28.17186},
{"id":34847,"wikiDataId":"Q912952","type":"CITY","city":"Pudasjärvi","name":"Pudasjärvi","country":"Finland","countryCode":"FI","region":"Northern Ostrobothnia","regionCode":"14","latitude":65.38333,"longitude":26.91667},{"id":34192,"wikiDataId":"Q599159","type":"CITY","city":"Pukkila","name":"Pukkila","country":"Finland","countryCode":"FI","region":"Uusimaa","regionCode":"18","latitude":60.65,"longitude":25.56667},{"id":34101,"wikiDataId":"Q541236","type":"CITY","city":"Pulkkila","name":"Pulkkila","country":"Finland","countryCode":"FI","region":"Northern Ostrobothnia","regionCode":"14","latitude":64.26667,"longitude":25.86667},{"id":34203,"wikiDataId":"Q428113","type":"CITY","city":"Punkaharju","name":"Punkaharju","country":"Finland","countryCode":"FI","region":"Southern Savonia","regionCode":"04","latitude":61.75883,"longitude":29.38843},{"id":34778,"type":"CITY","city":"Punkalaidun","name":"Punkalaidun","country":"Finland","countryCode":"FI","region":"Lapland","regionCode":"10","latitude":61.11667,"longitude":23.1},{"id":34565,"type":"CITY","city":"Puolanka","name":"Puolanka","country":"Finland","countryCode":"FI","region":"Kainuu","regionCode":"05","latitude":64.86667,"longitude":27.66667},{"id":34304,"wikiDataId":"Q1009610","type":"CITY","city":"Puumala","name":"Puumala","country":"Finland","countryCode":"FI","region":"Southern Savonia","regionCode":"04","latitude":61.52728,"longitude":28.17495},{"id":34894,"wikiDataId":"Q990557","type":"CITY","city":"Pyhtää","name":"Pyhtää","country":"Finland","countryCode":"FI","region":"Kymenlaakso","regionCode":"09","latitude":60.49349,"longitude":26.54346},{"id":34701,"type":"CITY","city":"Pyhäjoki","name":"Pyhäjoki","country":"Finland","countryCode":"FI","region":"Northern Ostrobothnia","regionCode":"14","latitude":64.46667,"longitude":24.23333},{"id":34056,"type":"CITY","city":"Pyhäjärvi","name":"Pyhäjärvi","country":"Finland","countryCode":"FI","region":"Northern Ostrobothnia","regionCode":"14","latitude":63.66667,"longitude":25.9},
{"id":34470,"type":"CITY","city":"Pyhäjärvi","name":"Pyhäjärvi","country":"Finland","countryCode":"FI","region":"Lapland","regionCode":"LL","latitude":67.0701,"longitude":27.21763},{"id":34165,"wikiDataId":"Q368448","type":"CITY","city":"Pyhäntä","name":"Pyhäntä","country":"Finland","countryCode":"FI","region":"Northern Ostrobothnia","regionCode":"14","latitude":64.1,"longitude":26.31667},{"id":33942,"wikiDataId":"Q807902","type":"CITY","city":"Pyhäranta","name":"Pyhäranta","country":"Finland","countryCode":"FI","region":"Finland Proper","regionCode":"19","latitude":60.95,"longitude":21.45},{"id":34341,"wikiDataId":"Q1025725","type":"CITY","city":"Pyhäselkä","name":"Pyhäselkä","country":"Finland","countryCode":"FI","region":"North Karelia","regionCode":"13","latitude":62.43333,"longitude":29.96667},{"id":34881,"wikiDataId":"Q200443","type":"CITY","city":"Pylkönmäki","name":"Pylkönmäki","country":"Finland","countryCode":"FI","region":"Central Finland","regionCode":"08","latitude":62.66667,"longitude":24.8},{"id":34625,"type":"CITY","city":"Pälkäne","name":"Pälkäne","country":"Finland","countryCode":"FI","region":"Lapland","regionCode":"10","latitude":61.33424,"longitude":24.27197},{"id":34404,"type":"CITY","city":"Pöytyä","name":"Pöytyä","country":"Finland","countryCode":"FI","region":"Finland Proper","regionCode":"19","latitude":60.76667,"longitude":22.66667},{"id":34765,"wikiDataId":"Q622592","type":"CITY","city":"Raahe","name":"Raahe","country":"Finland","countryCode":"FI","region":"Northern Ostrobothnia","regionCode":"14","latitude":64.68333,"longitude":24.48333},{"id":144428,"wikiDataId":"Q1191746","type":"ADM2","city":"Raaseporin","name":"Raaseporin","country":"Finland","countryCode":"FI","region":"Uusimaa","regionCode":"18","latitude":60.00273,"longitude":23.55499},{"id":34858,"type":"CITY","city":"Raisio","name":"Raisio","country":"Finland","countryCode":"FI","region":"Finland Proper","regionCode":"19","latitude":60.48592,"longitude":22.16895},
{"id":34751,"wikiDataId":"Q1025745","type":"CITY","city":"Rantasalmi","name":"Rantasalmi","country":"Finland","countryCode":"FI","region":"Southern Savonia","regionCode":"04","latitude":62.06667,"longitude":28.3},{"id":34255,"wikiDataId":"Q1014239","type":"CITY","city":"Rantsila","name":"Rantsila","country":"Finland","countryCode":"FI","region":"Northern Ostrobothnia","regionCode":"14","latitude":64.50613,"longitude":25.66449},{"id":34451,"wikiDataId":"Q485776","type":"CITY","city":"Ranua","name":"Ranua","country":"Finland","countryCode":"FI","region":"Lapland","regionCode":"LL","latitude":65.91667,"longitude":26.53333},{"id":34414,"wikiDataId":"Q37013","type":"CITY","city":"Rauma","name":"Rauma","country":"Finland","countryCode":"FI","region":"Satakunta","regionCode":"17","latitude":61.12724,"longitude":21.51127},{"id":34780,"wikiDataId":"Q987094","type":"CITY","city":"Rautalampi","name":"Rautalampi","country":"Finland","countryCode":"FI","region":"Pirkanmaa","regionCode":"11","latitude":62.63333,"longitude":26.83333},{"id":34700,"wikiDataId":"Q1025729","type":"CITY","city":"Rautavaara","name":"Rautavaara","country":"Finland","countryCode":"FI","region":"Pirkanmaa","regionCode":"11","latitude":63.48333,"longitude":28.3},{"id":34880,"wikiDataId":"Q1009607","type":"CITY","city":"Rautjärvi","name":"Rautjärvi","country":"Finland","countryCode":"FI","region":"South Karelia","regionCode":"02","latitude":61.43333,"longitude":29.35},{"id":34053,"wikiDataId":"Q377049","type":"CITY","city":"Reisjärvi","name":"Reisjärvi","country":"Finland","countryCode":"FI","region":"Northern Ostrobothnia","regionCode":"14","latitude":63.61667,"longitude":24.9},{"id":34649,"wikiDataId":"Q1791957","type":"CITY","city":"Renko","name":"Renko","country":"Finland","countryCode":"FI","region":"Tavastia Proper","regionCode":"06","latitude":60.89563,"longitude":24.28785},{"id":34544,"type":"CITY","city":"Replot","name":"Replot","country":"Finland","countryCode":"FI","region":"Ostrobothnia","regionCode":"12","latitude":63.22882,"longitude":21.41691},
{"id":34066,"wikiDataId":"Q429864","type":"CITY","city":"Riihimäki","name":"Riihimäki","country":"Finland","countryCode":"FI","region":"Tavastia Proper","regionCode":"06","latitude":60.73769,"longitude":24.77726},{"id":34541,"wikiDataId":"Q1641615","type":"CITY","city":"Ristiina","name":"Ristiina","country":"Finland","countryCode":"FI","region":"Southern Savonia","regionCode":"04","latitude":61.50579,"longitude":27.24643},{"id":34834,"type":"CITY","city":"Ristijärvi","name":"Ristijärvi","country":"Finland","countryCode":"FI","region":"Kainuu","regionCode":"05","latitude":64.5,"longitude":28.21667},{"id":34764,"wikiDataId":"Q24368330","type":"CITY","city":"Ristinummi","name":"Ristinummi","country":"Finland","countryCode":"FI","region":"Ostrobothnia","regionCode":"12","latitude":63.09192,"longitude":21.72297},{"id":34495,"wikiDataId":"Q103717","type":"CITY","city":"Rovaniemi","name":"Rovaniemi","country":"Finland","countryCode":"FI","region":"Lapland","regionCode":"LL","latitude":66.5,"longitude":25.71667},{"id":34105,"type":"CITY","city":"Ruokolahti","name":"Ruokolahti","country":"Finland","countryCode":"FI","region":"South Karelia","regionCode":"02","latitude":61.28333,"longitude":28.83333},{"id":33937,"wikiDataId":"Q999193","type":"CITY","city":"Ruotsinpyhtää","name":"Ruotsinpyhtää","country":"Finland","countryCode":"FI","region":"Uusimaa","regionCode":"18","latitude":60.5268,"longitude":26.46203},{"id":34655,"type":"CITY","city":"Ruovesi","name":"Ruovesi","country":"Finland","countryCode":"FI","region":"Lapland","regionCode":"10","latitude":61.98575,"longitude":24.05714},{"id":34055,"type":"CITY","city":"Rusko","name":"Rusko","country":"Finland","countryCode":"FI","region":"Finland Proper","regionCode":"19","latitude":60.53333,"longitude":22.21667},{"id":34438,"wikiDataId":"Q2177972","type":"CITY","city":"Ruukki","name":"Ruukki","country":"Finland","countryCode":"FI","region":"Northern Ostrobothnia","regionCode":"14","latitude":64.66667,"longitude":25.1},
{"id":34473,"wikiDataId":"Q1641571","type":"CITY","city":"Rymättylä","name":"Rymättylä","country":"Finland","countryCode":"FI","region":"Finland Proper","regionCode":"19","latitude":60.37658,"longitude":21.94184},{"id":34664,"type":"CITY","city":"Rääkkylä","name":"Rääkkylä","country":"Finland","countryCode":"FI","region":"North Karelia","regionCode":"13","latitude":62.31667,"longitude":29.61667},{"id":34716,"wikiDataId":"Q4129009","type":"CITY","city":"Saari","name":"Saari","country":"Finland","countryCode":"FI","region":"South Karelia","regionCode":"02","latitude":61.65,"longitude":29.75},{"id":34124,"wikiDataId":"Q984858","type":"CITY","city":"Saarijärvi","name":"Saarijärvi","country":"Finland","countryCode":"FI","region":"Central Finland","regionCode":"08","latitude":62.70486,"longitude":25.25396},{"id":34267,"wikiDataId":"Q280118","type":"CITY","city":"Sahalahti","name":"Sahalahti","country":"Finland","countryCode":"FI","region":"Lapland","regionCode":"10","latitude":61.4746,"longitude":24.32652},{"id":34085,"wikiDataId":"Q936067","type":"CITY","city":"Salla","name":"Salla","country":"Finland","countryCode":"FI","region":"Lapland","regionCode":"LL","latitude":66.83333,"longitude":28.66667},{"id":34309,"wikiDataId":"Q210987","type":"CITY","city":"Salo","name":"Salo","country":"Finland","countryCode":"FI","region":"Finland Proper","regionCode":"19","latitude":60.38333,"longitude":23.13333},{"id":34082,"wikiDataId":"Q1003678","type":"CITY","city":"Sammatti","name":"Sammatti","country":"Finland","countryCode":"FI","region":"Uusimaa","regionCode":"18","latitude":60.31991,"longitude":23.82085},{"id":34293,"wikiDataId":"Q1017136","type":"CITY","city":"Sauvo","name":"Sauvo","country":"Finland","countryCode":"FI","region":"Finland Proper","regionCode":"19","latitude":60.34306,"longitude":22.69642},{"id":34806,"wikiDataId":"Q1025694","type":"CITY","city":"Savitaipale","name":"Savitaipale","country":"Finland","countryCode":"FI","region":"South Karelia","regionCode":"02","latitude":61.2,"longitude":27.7},
{"id":33994,"wikiDataId":"Q683512","type":"CITY","city":"Savonlinna","name":"Savonlinna","country":"Finland","countryCode":"FI","region":"Southern Savonia","regionCode":"04","latitude":61.8699,"longitude":28.87999},{"id":34676,"wikiDataId":"Q568109","type":"CITY","city":"Savonranta","name":"Savonranta","country":"Finland","countryCode":"FI","region":"Southern Savonia","regionCode":"04","latitude":62.18333,"longitude":29.2},{"id":34214,"wikiDataId":"Q984938","type":"CITY","city":"Savukoski","name":"Savukoski","country":"Finland","countryCode":"FI","region":"Lapland","regionCode":"LL","latitude":67.2925,"longitude":28.15806},{"id":34098,"type":"CITY","city":"Seinäjoki","name":"Seinäjoki","country":"Finland","countryCode":"FI","region":"Southern Ostrobothnia","regionCode":"03","latitude":62.79446,"longitude":22.82822},{"id":34226,"type":"CITY","city":"Sibbo","name":"Sibbo","country":"Finland","countryCode":"FI","region":"Uusimaa","regionCode":"18","latitude":60.37752,"longitude":25.26906},{"id":34746,"wikiDataId":"Q1001761","type":"CITY","city":"Sievi","name":"Sievi","country":"Finland","countryCode":"FI","region":"Northern Ostrobothnia","regionCode":"14","latitude":63.9,"longitude":24.5},{"id":34496,"type":"CITY","city":"Siikainen","name":"Siikainen","country":"Finland","countryCode":"FI","region":"Satakunta","regionCode":"17","latitude":61.87703,"longitude":21.81945},{"id":34511,"type":"CITY","city":"Siikajoki","name":"Siikajoki","country":"Finland","countryCode":"FI","region":"Northern Ostrobothnia","regionCode":"14","latitude":64.81455,"longitude":24.75924},{"id":34089,"wikiDataId":"Q999210","type":"CITY","city":"Siilinjärvi","name":"Siilinjärvi","country":"Finland","countryCode":"FI","region":"Pirkanmaa","regionCode":"11","latitude":63.08333,"longitude":27.66667},{"id":34400,"type":"CITY","city":"Simo","name":"Simo","country":"Finland","countryCode":"FI","region":"Lapland","regionCode":"LL","latitude":65.66667,"longitude":25.05},
{"id":34429,"type":"CITY","city":"Siuntio","name":"Siuntio","country":"Finland","countryCode":"FI","region":"Uusimaa","regionCode":"18","latitude":60.13862,"longitude":24.22715},{"id":33971,"wikiDataId":"Q502175","type":"CITY","city":"Sodankylä","name":"Sodankylä","country":"Finland","countryCode":"FI","region":"Lapland","regionCode":"LL","latitude":67.41667,"longitude":26.6},{"id":34418,"type":"CITY","city":"Soini","name":"Soini","country":"Finland","countryCode":"FI","region":"Southern Ostrobothnia","regionCode":"03","latitude":62.86667,"longitude":24.21667},{"id":33952,"wikiDataId":"Q939727","type":"CITY","city":"Somero","name":"Somero","country":"Finland","countryCode":"FI","region":"Finland Proper","regionCode":"19","latitude":60.61667,"longitude":23.53333},{"id":34109,"wikiDataId":"Q1010042","type":"CITY","city":"Sonkajärvi","name":"Sonkajärvi","country":"Finland","countryCode":"FI","region":"Pirkanmaa","regionCode":"11","latitude":63.66667,"longitude":27.51667},{"id":34150,"wikiDataId":"Q738472","type":"CITY","city":"Sotkamo","name":"Sotkamo","country":"Finland","countryCode":"FI","region":"Kainuu","regionCode":"05","latitude":64.13333,"longitude":28.41667},{"id":34540,"type":"CITY","city":"Sulkava","name":"Sulkava","country":"Finland","countryCode":"FI","region":"Southern Savonia","regionCode":"04","latitude":61.78691,"longitude":28.37299},{"id":34008,"wikiDataId":"Q246563","type":"CITY","city":"Sumiainen","name":"Sumiainen","country":"Finland","countryCode":"FI","region":"Central Finland","regionCode":"08","latitude":62.65736,"longitude":26.04642},{"id":34897,"wikiDataId":"Q937668","type":"CITY","city":"Suodenniemi","name":"Suodenniemi","country":"Finland","countryCode":"FI","region":"Lapland","regionCode":"10","latitude":61.5581,"longitude":22.78526},{"id":34185,"wikiDataId":"Q1641603","type":"CITY","city":"Suolahti","name":"Suolahti","country":"Finland","countryCode":"FI","region":"Central Finland","regionCode":"08","latitude":62.56421,"longitude":25.85363},
{"id":34576,"wikiDataId":"Q1641656","type":"CITY","city":"Suomusjärvi","name":"Suomusjärvi","country":"Finland","countryCode":"FI","region":"Finland Proper","regionCode":"19","latitude":60.35,"longitude":23.65},{"id":34877,"wikiDataId":"Q214054","type":"CITY","city":"Suomussalmi","name":"Suomussalmi","country":"Finland","countryCode":"FI","region":"Kainuu","regionCode":"05","latitude":64.88685,"longitude":28.90778},{"id":34061,"wikiDataId":"Q259636","type":"CITY","city":"Suonenjoki","name":"Suonenjoki","country":"Finland","countryCode":"FI","region":"Pirkanmaa","regionCode":"11","latitude":62.61667,"longitude":27.13333},{"id":34569,"type":"CITY","city":"Sysmä","name":"Sysmä","country":"Finland","countryCode":"FI","region":"Päijänne Tavastia","regionCode":"16","latitude":61.5,"longitude":25.68333},{"id":34020,"wikiDataId":"Q780914","type":"CITY","city":"Säkylä","name":"Säkylä","country":"Finland","countryCode":"FI","region":"Satakunta","regionCode":"17","latitude":61.03333,"longitude":22.33333},{"id":34319,"wikiDataId":"Q1852674","type":"CITY","city":"Särkisalo","name":"Särkisalo","country":"Finland","countryCode":"FI","region":"Finland Proper","regionCode":"19","latitude":60.11389,"longitude":22.95},{"id":34301,"type":"CITY","city":"Säynätsalo","name":"Säynätsalo","country":"Finland","countryCode":"FI","region":"Central Finland","regionCode":"08","latitude":62.14025,"longitude":25.76948},{"id":34425,"wikiDataId":"Q1025700","type":"CITY","city":"Taipalsaari","name":"Taipalsaari","country":"Finland","countryCode":"FI","region":"South Karelia","regionCode":"02","latitude":61.15,"longitude":28.05},{"id":34420,"type":"CITY","city":"Taivalkoski","name":"Taivalkoski","country":"Finland","countryCode":"FI","region":"Northern Ostrobothnia","regionCode":"14","latitude":65.56667,"longitude":28.25},{"id":34058,"type":"CITY","city":"Taivassalo","name":"Taivassalo","country":"Finland","countryCode":"FI","region":"Finland Proper","regionCode":"19","latitude":60.56085,"longitude":21.61639},
{"id":34290,"type":"CITY","city":"Tammela","name":"Tammela","country":"Finland","countryCode":"FI","region":"Tavastia Proper","regionCode":"06","latitude":60.81035,"longitude":23.76823},{"id":34415,"wikiDataId":"Q40840","type":"CITY","city":"Tampere","name":"Tampere","country":"Finland","countryCode":"FI","region":"Lapland","regionCode":"10","latitude":61.49911,"longitude":23.78712},{"id":34173,"type":"CITY","city":"Tarvasjoki","name":"Tarvasjoki","country":"Finland","countryCode":"FI","region":"Finland Proper","regionCode":"19","latitude":60.58333,"longitude":22.73333},{"id":34096,"type":"CITY","city":"Teeriniemi","name":"Teeriniemi","country":"Finland","countryCode":"FI","region":"Ostrobothnia","regionCode":"12","latitude":63.09705,"longitude":21.6959},{"id":34498,"type":"CITY","city":"Tervakoski","name":"Tervakoski","country":"Finland","countryCode":"FI","region":"Tavastia Proper","regionCode":"06","latitude":60.81412,"longitude":24.62594},{"id":34827,"wikiDataId":"Q1009142","type":"CITY","city":"Tervo","name":"Tervo","country":"Finland","countryCode":"FI","region":"Pirkanmaa","regionCode":"11","latitude":62.95,"longitude":26.75},{"id":34155,"wikiDataId":"Q990585","type":"CITY","city":"Tervola","name":"Tervola","country":"Finland","countryCode":"FI","region":"Lapland","regionCode":"LL","latitude":66.08333,"longitude":24.8},{"id":34686,"type":"CITY","city":"Teuva","name":"Teuva","country":"Finland","countryCode":"FI","region":"Southern Ostrobothnia","regionCode":"03","latitude":62.4819,"longitude":21.74156},{"id":34769,"wikiDataId":"Q993003","type":"CITY","city":"Tohmajärvi","name":"Tohmajärvi","country":"Finland","countryCode":"FI","region":"North Karelia","regionCode":"13","latitude":62.18333,"longitude":30.38333},{"id":34528,"type":"CITY","city":"Toholampi","name":"Toholampi","country":"Finland","countryCode":"FI","region":"Central Ostrobothnia","regionCode":"07","latitude":63.76667,"longitude":24.25},
{"id":34696,"wikiDataId":"Q1850632","type":"CITY","city":"Toijala","name":"Toijala","country":"Finland","countryCode":"FI","region":"Lapland","regionCode":"10","latitude":61.1678,"longitude":23.83819},{"id":34348,"type":"CITY","city":"Toivakka","name":"Toivakka","country":"Finland","countryCode":"FI","region":"Central Finland","regionCode":"08","latitude":62.1,"longitude":26.08333},{"id":34064,"wikiDataId":"Q214021","type":"CITY","city":"Tornio","name":"Tornio","country":"Finland","countryCode":"FI","region":"Lapland","regionCode":"LL","latitude":65.84811,"longitude":24.14662},{"id":34811,"wikiDataId":"Q38511","type":"CITY","city":"Turku","name":"Turku","country":"Finland","countryCode":"FI","region":"Finland Proper","regionCode":"19","latitude":60.45148,"longitude":22.26869},{"id":34423,"wikiDataId":"Q1013612","type":"CITY","city":"Tuulos","name":"Tuulos","country":"Finland","countryCode":"FI","region":"Tavastia Proper","regionCode":"06","latitude":61.15,"longitude":24.8},{"id":34249,"wikiDataId":"Q255065","type":"CITY","city":"Tuupovaara","name":"Tuupovaara","country":"Finland","countryCode":"FI","region":"North Karelia","regionCode":"13","latitude":62.48372,"longitude":30.62731},{"id":34372,"wikiDataId":"Q736486","type":"CITY","city":"Tuusniemi","name":"Tuusniemi","country":"Finland","countryCode":"FI","region":"Pirkanmaa","regionCode":"11","latitude":62.81667,"longitude":28.5},{"id":34179,"wikiDataId":"Q214773","type":"CITY","city":"Tuusula","name":"Tuusula","country":"Finland","countryCode":"FI","region":"Uusimaa","regionCode":"18","latitude":60.40368,"longitude":25.02638},{"id":34327,"type":"CITY","city":"Tyrnävä","name":"Tyrnävä","country":"Finland","countryCode":"FI","region":"Northern Ostrobothnia","regionCode":"14","latitude":64.76469,"longitude":25.6523},{"id":34669,"wikiDataId":"Q6168","type":"CITY","city":"Töysä","name":"Töysä","country":"Finland","countryCode":"FI","region":"Southern Ostrobothnia","regionCode":"03","latitude":62.62803,"longitude":23.81828},
{"id":34264,"type":"CITY","city":"Ullava","name":"Ullava","country":"Finland","countryCode":"FI","region":"Central Ostrobothnia","regionCode":"07","latitude":63.6,"longitude":24.08333},{"id":34745,"wikiDataId":"Q247128","type":"CITY","city":"Ulvila","name":"Ulvila","country":"Finland","countryCode":"FI","region":"Satakunta","regionCode":"17","latitude":61.42844,"longitude":21.87103},{"id":34480,"type":"CITY","city":"Urjala","name":"Urjala","country":"Finland","countryCode":"FI","region":"Lapland","regionCode":"10","latitude":61.08333,"longitude":23.53333},{"id":34050,"type":"CITY","city":"Utajärvi","name":"Utajärvi","country":"Finland","countryCode":"FI","region":"Northern Ostrobothnia","regionCode":"14","latitude":64.75,"longitude":26.38333},{"id":34395,"type":"CITY","city":"Utsjoki","name":"Utsjoki","country":"Finland","countryCode":"FI","region":"Lapland","regionCode":"LL","latitude":69.90864,"longitude":27.02843},{"id":34798,"wikiDataId":"Q639867","type":"CITY","city":"Uurainen","name":"Uurainen","country":"Finland","countryCode":"FI","region":"Central Finland","regionCode":"08","latitude":62.5,"longitude":25.45},{"id":34593,"wikiDataId":"Q207295","type":"CITY","city":"Uusikaupunki","name":"Uusikaupunki","country":"Finland","countryCode":"FI","region":"Finland Proper","regionCode":"19","latitude":60.80043,"longitude":21.40841},{"id":34448,"wikiDataId":"Q984936","type":"CITY","city":"Vaala","name":"Vaala","country":"Finland","countryCode":"FI","region":"Kainuu","regionCode":"05","latitude":64.56667,"longitude":26.83333},{"id":34232,"wikiDataId":"Q125080","type":"CITY","city":"Vaasa","name":"Vaasa","country":"Finland","countryCode":"FI","region":"Ostrobothnia","regionCode":"12","latitude":63.096,"longitude":21.61577},{"id":34484,"wikiDataId":"Q386061","type":"CITY","city":"Vahto","name":"Vahto","country":"Finland","countryCode":"FI","region":"Finland Proper","regionCode":"19","latitude":60.6,"longitude":22.3},
{"id":34552,"wikiDataId":"Q322126","type":"CITY","city":"Valkeakoski","name":"Valkeakoski","country":"Finland","countryCode":"FI","region":"Lapland","regionCode":"10","latitude":61.26421,"longitude":24.03122},{"id":34513,"type":"CITY","city":"Valtimo","name":"Valtimo","country":"Finland","countryCode":"FI","region":"North Karelia","regionCode":"13","latitude":63.66667,"longitude":28.8},{"id":34046,"wikiDataId":"Q996067","type":"CITY","city":"Vammala","name":"Vammala","country":"Finland","countryCode":"FI","region":"Lapland","regionCode":"10","latitude":61.33333,"longitude":22.9},{"id":34461,"wikiDataId":"Q1234987","type":"CITY","city":"Vampula","name":"Vampula","country":"Finland","countryCode":"FI","region":"Satakunta","regionCode":"17","latitude":61.01667,"longitude":22.7},